시군구명,어린이집코드,어린이집명,어린이집유형,운영현황,우편번호,상세주소,전화번호,팩스번호,홈페이지주소,보육실수,보육실 면적,놀이터수,CCTV총설치수,보육교직원수,정원,현원,시설 위도(좌표값),시설 경도(좌표값),통학차량운영여부,인가일자,휴지시작일자,휴지종료일자,폐지일자,데이터기준일자,제공서비스,반수-만0세,반수-만1세,반수-만2세,반수-만3세,반수-만4세,반수-만5세,반수-영아혼합(만0~2세),반수-유아혼합(만3~5세),반수-특수장애,반수-총계,아동수-만0세,아동수-만1세,아동수-만2세,아동수-만3세,아동수-만4세,아동수-만5세,아동수-영아혼합(만0~2세),아동수-유아혼합(만3~5세),아동수-특수장애,아동수-총계,근속년수-1년미만,근속년수-1년이상~2년미만,근속년수-2년이상~4년미만,근속년수-4년이상~6년미만,근속년수-6년이상,교직원현황-원장,교직원현황-보육교사,교직원현황-특수교사,교직원현황-치료교사,교직원현황-영양사,교직원현황-간호사,교직원현황-간호조무사,교직원현황-조리원,교직원현황-사무직원,교직원현황-총계,데이터수집일,ADM_NM
종로구,11110000180,로카키즈어린이집,직장,정상,3184,서울특별시 종로구 새문안로2길 10 1층,02-739-8042,,,3,67,0,12,6,25,6,37.5687036359973,126.971978970914,미운영,2021/04/01,,,,2022/10/26,일반,1,2,1,0,0,0,0,0,0,4,2,2,2,0,0,0,0,0,0,6,25,75,0,0,0,true,4,0,거짓,0,0,0,1,0,6,2022/10/26 22:01:35,사직동
종로구,11110000166,푸르지오어린이집,직장,폐지,3182,서울특별시 종로구 신문로1가 새문안로 75,02-2288-2761,02-2288-2761,,4,175,0,10,0,49,0,37.5706004576431,126.972948918405,미운영,2016/02/25,,,2019/05/31,2022/10/26,일반,0,3,2,0,0,2,0,2,0,9,0,0,0,0,0,0,0,0,0,0,,,,,,,,,,,,,,,,2022/10/26 22:01:35,사직동
종로구,11110000162,아이누리 어린이집,직장,정상,3174,서울특별시 종로구 사직로8길 20 파크팰리스 제1층 제101호,02-6959-7695,02-6959-7696,,3,142,0,13,13,49,28,37.5739313227989,126.970590296105,미운영,2015/02/24,,,,2022/10/26,일반,0,3,3,0,0,0,0,3,0,9,0,5,10,0,0,0,0,13,0,28,20,40,20,20,0,true,10,0,거짓,0,0,0,2,0,13,2022/10/26 22:01:35,사직동
종로구,11110000158,현대해상 온마음어린이집,직장,정상,3176,서울특별시 종로구 신문로2가 경희궁1길 9,02-725-5355,02-725-5356,,4,217,1,8,16,49,38,37.5711311336456,126.971007962481,미운영,2014/02/26,,,,2022/10/26,일반,0,3,2,0,0,2,0,2,0,9,0,9,9,0,0,5,0,15,0,38,33,17,33,8,8,true,12,0,거짓,0,0,0,2,0,16,2022/10/26 22:01:35,사직동
종로구,11110000157,LG광화문어린이집,직장,정상,3184,서울특별시 종로구 신문로2가 새문안로 58,070-4065-0286,070-4065-0287,,3,196,1,8,11,40,21,37.5692752221037,126.971579180998,미운영,2014/02/12,,,,2022/10/26,일반,1,3,3,2,0,0,0,0,0,9,0,8,7,6,0,0,0,0,0,21,22,67,11,0,0,true,9,0,거짓,0,0,0,1,0,11,2022/10/26 22:01:35,사직동
종로구,11110000150,KIM&CHANG 어린이집,직장,정상,3175,서울특별시 종로구 신문로2가 경희궁길 26 썬타워빌딩 1층,02-738-6901,02-738-6903,,3,164,1,11,14,49,34,37.5722740746374,126.970989872268,미운영,2013/02/22,,,,2022/10/26,일반,0,4,3,0,0,0,0,3,0,10,0,12,13,0,0,0,0,9,0,34,36,27,18,18,0,true,11,0,거짓,0,0,0,2,0,14,2022/10/26 22:01:35,사직동
종로구,11110000149,교보생명다솜이어린이집,직장,정상,3176,서울특별시 종로구 신문로2가 경희궁1가길 3,02-722-2012,02-725-2015,www.puruni.com,4,177,2,12,15,65,33,37.5720677557606,126.969373013065,미운영,2012/12/27,,,,2022/10/26,일반,0,2,1,0,0,2,0,3,0,8,0,7,3,0,0,9,0,14,0,33,42,0,33,25,0,true,12,0,거짓,0,0,0,1,0,15,2022/10/26 22:01:35,사직동
종로구,11110000122,서울청사푸르미어린이집,직장,정상,3171,서울특별시 종로구 세종로 세종대로 209 서울청사 푸르미어린이집,02-737-7327,02-737-7329,purumicc.co.kr,10,568,2,25,37,206,104,37.5752973102725,126.974832055924,미운영,2009/08/26,,,,2022/10/26,야간연장,4,6,3,2,1,1,0,0,0,17,12,25,20,19,11,17,0,0,0,104,33,11,37,7,11,true,27,0,거짓,1,2,0,3,1,37,2022/10/26 22:01:35,사직동
종로구,11110000079,서울청사한빛어린이집,직장,정상,3171,서울특별시 종로구 세종대로 209 서울청사관리소,02-735-6400,02-735-8819,https://hanbit.kidsnote.ac,17,1418,4,54,40,249,113,37.5749955424628,126.975140635476,미운영,2005/03/15,,,,2022/10/26,야간연장,4,6,5,1,1,1,0,0,0,18,10,27,27,15,18,16,0,0,0,113,71,7,13,7,3,true,31,0,거짓,1,0,1,3,1,40,2022/10/26 22:01:35,사직동
종로구,11110000058,종교교회어린이집,민간,정상,3173,서울특별시 종로구 사직로8길 48 종교교회내 1층 (도렴동),02-6322-2190,,www.chongkyokids.com,4,159,1,8,12,41,33,37.57375117,126.973844,미운영,2001/10/22,,,,2022/10/26,야간연장,2,4,3,1,0,0,0,2,0,12,6,6,12,9,0,0,0,0,0,33,22,0,22,22,33,true,9,0,거짓,0,0,0,1,0,12,2022/10/26 22:01:35,사직동
종로구,11110000038,사직어린이집,국공립,정상,3039,서울특별시 종로구 필운대로1길 16-8,02-720-0798,02-720-0797,,6,316,1,18,22,101,62,37.57809877,126.9686864,미운영,1996/10/02,,,,2022/10/26,"장애아통합,야간연장",2,2,2,1,1,1,0,0,4,13,6,8,13,8,6,11,0,0,10,62,63,13,13,0,13,true,15,1,거짓,0,0,0,1,0,22,2022/10/26 22:01:35,사직동
종로구,11110000011,삼청어린이집,국공립,정상,3049,서울특별시 종로구 삼청로7길 26 (팔판동),02-723-0155,02-723-0155,http://cafe.naver.com/samchung1004,3,68,0,7,8,32,17,37.58400574,126.9804875,미운영,1999/09/01,,,,2022/10/26,야간연장,1,0,0,0,0,0,2,1,0,4,3,0,0,0,0,0,6,8,0,17,67,17,17,0,0,true,6,0,거짓,0,0,0,1,0,8,2022/10/26 22:01:35,삼청동
종로구,11110000021,새문안어린이집,사회복지법인,정상,3054,서울특별시 종로구 삼청로5길 22,02-733-9194,02-733-9196,https://iseoul.seoul.go.kr/homepage/main.do?stCode=11110000021,4,61,0,10,7,23,16,37.5829230813859,126.980725156785,미운영,1997/10/17,,,,2022/10/26,야간연장,1,1,2,1,0,0,3,1,0,9,2,0,6,0,0,0,8,0,0,16,40,0,20,0,40,true,5,0,거짓,0,0,0,1,0,7,2022/10/26 22:01:35,삼청동
종로구,11110000164,상명행복어린이집,직장,정상,3016,서울특별시 종로구 홍지문2길 37,02-2287-5223,02-2287-0310,,3,65,0,13,5,23,9,37.6014782705961,126.953723228594,미운영,2016/02/15,,,,2022/10/26,일반,0,1,1,0,0,0,0,0,0,2,0,3,6,0,0,0,0,0,0,9,67,0,33,0,0,true,3,0,거짓,0,0,0,1,0,5,2022/10/26 22:01:35,부암동
종로구,11110000057,엔젤키즈어린이집,국공립,정상,3021,서울특별시 종로구 자하문로43길 4-13,02-379-5133,02-3417-5133,,4,93,1,9,9,35,20,37.59853986,126.9605022,미운영,2014/02/01,,,,2022/10/26,야간연장,2,3,2,0,0,0,4,1,0,12,0,5,8,0,0,0,3,4,0,20,14,14,43,0,29,true,7,0,거짓,0,0,0,1,0,9,2022/10/26 22:01:35,부암동
종로구,11110000014,부암어린이집,국공립,정상,3019,서울특별시 종로구 세검정로6다길 10-7,02-396-6226,02-396-6227,https://buarm.kidsnote.ac,5,302,3,10,27,92,86,37.60152236,126.9630733,미운영,1998/07/29,,,,2022/10/26,"장애아통합,야간연장",0,2,2,1,1,1,0,0,4,11,0,10,14,14,19,18,0,0,11,86,40,15,25,0,20,true,17,3,거짓,1,0,0,2,0,27,2022/10/26 22:01:35,부암동
종로구,11110000155,종로생명숲어린이집,국공립,정상,3009,서울특별시 종로구 평창문화로 73-7 종로생명숲어린이집,02-359-1671,02-359-1673,https://jongnolife.kidsnote.ac,8,397,3,24,30,123,117,37.6064673304568,126.968176577917,미운영,2014/01/01,,,,2022/10/26,야간연장,3,3,4,2,2,1,0,0,0,15,6,15,28,25,22,21,0,0,0,117,32,36,14,5,14,true,22,0,거짓,1,0,1,3,0,30,2022/10/26 22:01:35,평창동
종로구,11110000154,구기어린이집,민간,정상,3012,서울특별시 종로구 진흥로22길 8-1 (구기동),02-391-7072,02-391-7071,,6,88,0,8,10,33,29,37.6066804918628,126.958301005917,운영,2013/09/02,,,,2022/10/26,야간연장,8,6,5,0,0,0,1,0,0,20,6,10,13,0,0,0,0,0,0,29,43,0,0,43,14,true,7,0,거짓,0,0,0,1,0,10,2022/10/26 22:01:35,평창동
종로구,11110000066,엄마품어린이집,가정,정상,3010,"서울특별시 종로구 평창문화로 172 102동 106호(평창동, 삼성아파트)",02-379-1317,02-379-1347,,3,84,1,4,6,19,15,37.61035089,126.9744434,미운영,2006/05/18,,,,2022/10/26,야간연장,3,1,2,0,0,0,2,0,0,8,6,3,6,0,0,0,0,0,0,15,80,0,0,0,20,true,4,0,거짓,0,0,0,0,0,6,2022/10/26 22:01:35,평창동
종로구,11110000068,구기영재어린이집,가정,폐지,3013,서울특별시 종로구 세검정로9길 91-26 우남빌라 2차 101호 (구기동),02-391-7072,02-391-7071,싸이월드클럽,3,50,0,0,0,14,0,37.6062887,126.9589673,운영,2003/08/01,,,2013/09/30,2022/10/26,야간연장,4,2,2,0,0,0,2,0,0,10,0,0,0,0,0,0,0,0,0,0,,,,,,,,,,,,,,,,2022/10/26 22:01:35,평창동
종로구,11110000056,신영어린이집,가정,폐지,3004,서울특별시 종로구 세검정로 425 (평창동),02-379-4214,02-379-4022,,4,92,0,4,0,20,0,37.61007023,126.9754304,운영,2002/02/27,,,2018/06/01,2022/10/26,일반,1,1,1,0,0,0,2,0,0,5,0,0,0,0,0,0,0,0,0,0,,,,,,,,,,,,,,,,2022/10/26 22:01:35,평창동
용산구,11170000198,맑은숲어린이집,국공립,정상,4417,서울특별시 용산구 한남대로40길 76 맑은숲어린이집,02-798-3500,02-798-3501,,6,735,1,19,20,90,86,37.5450381635,127.0032951499,운영,2017/12/26,,,,2022/10/26,야간연장,3,3,3,2,1,1,0,0,0,13,4,15,21,17,15,14,0,0,0,86,25,13,31,31,0,true,16,0,거짓,0,0,0,2,0,20,2022/10/26 22:01:54,한남동
용산구,11170000167,IBK 참!좋은 어린이집,직장,정상,4419,서울특별시 용산구 한남대로 72,02-798-3360,,,6,297,1,14,18,85,53,37.5350669793229,127.007056496912,미운영,2012/03/27,,,,2022/10/26,일반,0,5,3,0,0,0,0,6,0,14,0,12,11,0,0,0,0,30,0,53,71,7,14,0,7,true,14,0,거짓,1,0,0,2,0,18,2022/10/26 22:01:54,한남동
용산구,11170000165,유엔빌리지어린이집,가정,정상,4420,서울특별시 용산구 독서당로20길 9-5,02-792-2677,,,3,72,0,4,5,20,12,37.5333837972641,127.00929200103,미운영,2012/03/12,,,,2022/10/26,일반,0,1,0,0,0,0,2,0,0,3,0,5,0,0,0,0,7,0,0,12,0,25,0,25,50,true,3,0,거짓,0,0,0,0,0,5,2022/10/26 22:01:55,한남동
용산구,11170000156,홈타운키즈어린이집,가정,폐지,4411,"서울특별시 용산구 장문로 141 105동 102호(한남동, 현대홈타운아파트)",02-749-8137,,,3,54,0,4,0,19,0,37.52829159,127.0037867,미운영,2011/06/29,,,2018/08/21,2022/10/26,일반,1,2,3,0,0,0,13,0,0,19,0,0,0,0,0,0,0,0,0,0,,,,,,,,,,,,,,,,2022/10/26 22:01:55,한남동
용산구,11170000147,조은어린이집,가정,폐지,4410,"서울특별시 용산구 독서당로6길 16 101동 101호(한남동, 리버탑아파트)",02-792-1689,02-792-1689,,4,56,0,4,0,19,0,37.52971037,127.0081327,미운영,2010/10/05,,,2020/03/31,2022/10/26,일반,7,6,1,0,0,0,6,0,0,20,0,0,0,0,0,0,0,0,0,0,,,,,,,,,,,,,,,,2022/10/26 22:01:55,한남동
용산구,11170000119,아이제일어린이집,직장,정상,4348,서울특별시 용산구 이태원로49길 24-7 아이제일어린이집 (한남동),02-797-8551,02-797-8553,,4,169,3,19,12,45,22,37.53746496,126.9992936,미운영,2008/05/21,,,,2022/10/26,일반,0,2,2,0,0,0,0,2,0,6,0,4,12,0,0,0,0,6,0,22,43,14,14,29,0,true,7,0,거짓,1,0,0,2,1,12,2022/10/26 22:01:55,한남동
용산구,11170000102,짐랜드어린이집,민간,폐지,4405,서울특별시 용산구 우사단로10길 39,02-3785-2007,,,5,120,1,0,0,39,0,37.53328735,126.9975493,운영,2006/09/01,,,2017/03/31,2022/10/26,야간연장,0,0,1,1,0,0,1,2,0,5,0,0,0,0,0,0,0,0,0,0,,,,,,,,,,,,,,,,2022/10/26 22:01:55,한남동
용산구,11170000087,드림방과후어린이집,법인?단체등,폐지,4404,서울특별시 용산구 이태원로36길 7 (한남동),070-7579-4554,02-796-8895,,1,85,0,2,0,20,0,37.5347276,126.9994003,미운영,2006/06/01,,,2019/06/01,2022/10/26,방과후 전담,0,0,0,0,0,0,0,0,0,0,0,0,0,0,0,0,0,0,0,0,,,,,,,,,,,,,,,,2022/10/26 22:01:54,한남동
용산구,11170000038,한남어린이집,국공립,정상,4400,서울특별시 용산구 대사관로5길 1 (한남동),02-749-0824,02-749-0825,,4,150,2,8,12,55,49,37.53453304,127.0004722,미운영,2006/02/28,,,,2022/10/26,"장애아통합,야간연장",0,2,2,0,0,0,0,2,1,7,0,10,14,0,0,0,0,22,3,49,0,20,10,10,60,true,10,0,거짓,0,0,0,1,0,12,2022/10/26 22:01:55,한남동
용산구,11170000093,강남어린이집,가정,폐지,4409,서울특별시 용산구 대사관로34가길 2-18,02-794-5888,02-3785-0891,cafe.daum.net/love.kangnam,3,104,0,0,0,20,0,37.53169625,127.0048106,미운영,2004/03/06,,,2016/03/11,2022/10/26,일반,0,1,3,0,0,0,6,0,0,10,0,0,0,0,0,0,0,0,0,0,,,,,,,,,,,,,,,,2022/10/26 22:01:54,한남동
용산구,11170000064,다솔어린이집,가정,폐지,4420,서울특별시 용산구 독서당로20길 9-5,02-796-4996,02-796-4996,,4,52,0,0,0,19,0,37.53336377,127.0092735,,1998/02/06,,,2012/03/02,2022/10/26,일반,0,1,0,0,0,0,2,0,0,3,0,0,0,0,0,0,0,0,0,0,,,,,,,,,,,,,,,,2022/10/26 22:01:54,한남동
용산구,11170000037,하늘빛어린이집,민간,정상,4408,서울특별시 용산구 우사단로10길 115 765-23,02-796-1689,02-790-2926,,6,178,0,12,12,49,41,37.53142258,127.0014234,운영,1997/02/11,,,,2022/10/26,일반,0,1,2,0,0,0,4,2,0,9,0,5,13,0,0,0,8,15,0,41,25,25,13,25,13,true,8,0,거짓,0,0,0,1,0,12,2022/10/26 22:01:55,한남동
성동구,11200000394,구립 왕십리하나어린이집,국공립,정상,4714,서울특별시 성동구 무학봉16길 9-3,02-2296-3990,02-2292-9326,,10,364,2,15,22,135,126,37.5608549372603,127.03203886341,운영,2020/03/01,,,,2022/10/26,일반,0,0,4,3,2,2,0,0,0,11,0,0,27,40,25,34,0,0,0,126,0,14,86,0,0,true,14,0,거짓,1,0,2,3,0,22,2022/10/26 22:02:05,왕십리2동
성동구,11200000390,구립 스위첸숲속어린이집,국공립,정상,4711,서울특별시 성동구 무학봉길 35,02-2282-2847,02-2282-2840,,3,57,0,7,9,20,20,37.5606043973,127.0268737341,미운영,2018/10/25,,,,2022/10/26,일반,3,2,1,0,0,0,1,0,0,7,6,7,7,0,0,0,0,0,0,20,25,13,63,0,0,true,7,0,거짓,0,0,0,1,0,9,2022/10/26 22:02:05,왕십리2동
성동구,11200000381,구립 왕십리자이어린이집,국공립,정상,4711,서울특별시 성동구 난계로 100,02-2296-0901,02-2296-0905,,5,222,1,12,10,50,37,37.5606697161455,127.024831967744,미운영,2017/07/24,,,,2022/10/26,일반,2,3,2,0,0,0,0,1,0,8,6,15,14,0,0,0,0,2,0,37,13,50,13,25,0,true,8,0,거짓,0,0,0,1,0,10,2022/10/26 22:02:05,왕십리2동
성동구,11200000361,구립 금호키움어린이집,국공립,정상,4711,서울특별시 성동구 난계로 114-31 104-102(하왕십리동),02-2292-2240,02-2292-2241,15kium@naver.com,3,78,1,4,8,20,20,37.5612316976099,127.025950393455,미운영,2015/10/01,,,,2022/10/26,일반,2,2,1,0,0,0,0,0,0,5,5,8,7,0,0,0,0,0,0,20,71,14,0,0,14,true,6,0,거짓,0,0,0,1,0,8,2022/10/26 22:02:05,왕십리2동
성동구,11200000059,구립 풍림아름다운어린이집,국공립,정상,4712,서울특별시 성동구 난계로 84 행당역풍림아이원아파트 관리동 (하왕십리동),02-2293-1005,02-2293-2055,,3,85,0,6,10,32,29,37.55891341,127.025261,미운영,2013/08/01,,,,2022/10/26,야간연장,1,2,2,0,0,0,1,0,0,6,3,10,13,0,0,0,3,0,0,29,13,25,50,0,13,true,8,0,거짓,0,0,0,1,0,10,2022/10/26 22:02:05,왕십리2동
성동구,11200000329,하늘어린이집,가정,휴지,4721,"서울특별시 성동구 난계로 73 103동 103호(왕십리제2동, 극동미라주)",02-2281-0773,02-2281-0774,Cafe.naver.com/rose8469,3,84,0,4,0,19,0,37.5594879210754,127.023296861957,미운영,2013/03/25,2017/03/01,2018/02/28,,2022/10/26,일반,4,2,1,0,0,0,5,0,0,12,0,0,0,0,0,0,0,0,0,0,,,,,,,,,,,,,,,,2022/10/26 22:02:05,왕십리2동
성동구,11200000302,금호베스트빌어린이집,가정,폐지,4711,서울특별시 성동구 난계로 114-31 금호베스트빌 104-102,070-8747-7443,02-6238-7443,choie7443@naver.com,4,80,0,0,0,20,0,37.562050996838,127.026331197893,미운영,2012/01/02,,,2015/10/01,2022/10/26,일반,1,2,1,0,0,0,3,0,0,7,0,0,0,0,0,0,0,0,0,0,,,,,,,,,,,,,,,,2022/10/26 22:02:05,왕십리2동
성동구,11200000225,아이원어린이집,가정,정상,4712,"서울특별시 성동구 난계로 84 107동 101호(하왕십리동, 풍림아이원아파트)",02-2282-2183,02-2282-2183,,3,84,0,4,8,20,20,37.55891341,127.025261,미운영,2009/09/23,,,,2022/10/26,일반,3,2,1,0,0,0,5,0,0,11,6,9,0,0,0,0,5,0,0,20,57,29,14,0,0,true,6,0,거짓,0,0,0,0,0,8,2022/10/26 22:02:05,왕십리2동
성동구,11200000191,드림몬테소리 어린이집,가정,폐지,4710,서울특별시 성동구 왕십리로31길 9-50 드림아파트 101호 (하왕십리동),02-2296-7840,02-2296-7840,,3,75,0,4,0,17,0,37.563376424719,127.02832463414,미운영,2008/05/14,,,2021/03/31,2022/10/26,일반,1,0,0,0,0,0,2,0,0,3,0,0,0,0,0,0,0,0,0,0,,,,,,,,,,,,,,,,2022/10/26 22:02:05,왕십리2동
성동구,11200000049,신영창의 어린이집,민간,폐지,4714,서울특별시 성동구 무학봉16길 9-3,02-2296-3990,02-2292-9326,,10,509,2,15,0,140,0,37.56088561,127.0320299,운영,2004/12/30,,,2020/03/01,2022/10/26,야간연장,0,0,5,3,2,2,0,0,0,12,0,0,0,0,0,0,0,0,0,0,,,,,,,,,,,,,,,,2022/10/26 22:02:05,왕십리2동
성동구,11200000126,아이들세상 어린이집,가정,폐지,4721,"서울특별시 성동구 난계로 73 101동 110호(하왕십리동, 극동미라주아파트)",02-2295-4002,02-2295-0048,www.cyworld.com/isesang99,4,84,0,4,0,20,0,37.5594879210754,127.023296861957,미운영,1999/06/14,,,2017/02/17,2022/10/26,일반,2,2,1,0,0,0,2,0,0,7,0,0,0,0,0,0,0,0,0,0,,,,,,,,,,,,,,,,2022/10/26 22:02:05,왕십리2동
성동구,11200000127,한빛 어린이집,가정,정상,4711,"서울특별시 성동구 행당로 79 110동 102호(행당동, 대림아파트)",02-2299-1567,02-2299-1567,http://cafe.naver.com/hanbit1004,3,57,0,4,7,20,19,37.56091399,127.0281359,미운영,1997/08/09,,,,2022/10/26,일반,3,4,3,0,0,0,2,0,0,12,3,5,7,0,0,0,4,0,0,19,50,17,17,0,17,true,5,0,거짓,0,0,0,0,0,7,2022/10/26 22:02:05,왕십리2동
성동구,11200000129,두리두리어린이집,가정,정상,4710,"서울특별시 성동구 왕십리로31나길 22 3동 109호(하왕십리동, 한신무학아파트)",02-2295-5689,02-2295-5689,,3,53,0,4,7,20,19,37.56257201,127.0281483,미운영,1996/05/21,,,,2022/10/26,일반,2,1,1,1,0,0,6,0,0,11,0,0,0,0,0,0,19,0,0,19,50,17,17,0,17,true,5,0,거짓,0,0,0,0,0,7,2022/10/26 22:02:05,왕십리2동
성동구,11200000054,쵸코렛어린이집,민간,폐지,4715,서울특별시 성동구 무학봉28길 7 쵸코렛어린이집 (하왕십리동),02-2298-3938,02-2298-3911,,5,178,0,7,0,48,0,37.56288895,127.0320696,운영,1994/10/18,,,2021/03/10,2022/10/26,일반,0,1,1,1,0,0,1,1,0,5,0,0,0,0,0,0,0,0,0,0,,,,,,,,,,,,,,,,2022/10/26 22:02:05,왕십리2동
성동구,11200000023,구립 무학어린이집,국공립,정상,4711,서울특별시 성동구 난계로 114-31 금호베스트빌아파트 임대관리동 (하왕십리동),02-2293-3067,02-2293-3063,,5,129,1,15,12,59,43,37.56132356,127.025791,미운영,1982/11/05,,,,2022/10/26,야간연장,0,2,2,0,0,0,0,2,0,6,0,10,13,0,0,0,0,20,0,43,67,0,0,0,33,true,9,0,거짓,0,0,0,1,0,12,2022/10/26 22:02:05,왕십리2동
성동구,11200000362,구립 별하어린이집,국공립,정상,4753,서울특별시 성동구 마장로39길 31,02-2291-4191,,,5,127,1,6,9,48,37,37.5682112942042,127.042854743032,미운영,2015/11/01,,,,2022/10/26,일반,0,1,2,1,0,0,1,1,0,6,0,5,7,9,0,0,3,13,0,37,57,0,14,14,14,true,7,0,거짓,0,0,0,1,0,9,2022/10/26 22:02:05,마장동
성동구,11200000354,구립 마장현대어린이집,국공립,정상,4753,서울특별시 성동구 마장로35길 76 마장현대아파트 관리동 1층,02-2281-9281,02-2281-9281,,5,252,3,8,13,76,44,37.5702622686283,127.041995630327,미운영,2014/12/01,,,,2022/10/26,야간연장,0,3,2,1,0,0,0,1,0,7,0,14,12,8,0,0,0,10,0,44,40,30,10,0,20,true,10,0,거짓,0,0,0,1,0,13,2022/10/26 22:02:05,마장동
성동구,11200000137,은빛어린이집,민간,폐지,4753,서울특별시 성동구 마장로35길 76 현대아파트내 관리동 1층 은빛 어린이집,02-2281-9281,02-2281-9281,없음,5,582,3,0,0,76,0,37.56952326,127.0424491,운영,2014/06/30,,,2014/11/30,2022/10/26,일반,0,1,3,0,0,0,1,3,0,8,0,0,0,0,0,0,0,0,0,0,,,,,,,,,,,,,,,,2022/10/26 22:02:05,마장동
성동구,11200000179,영재 어린이집,가정,폐지,4753,"서울특별시 성동구 살곶이길 50 103동 101호 (마장동,현대아파트)",02-2295-7077,02-2295-7077,없음,3,59,0,0,0,13,6,37.56813112,127.043668,미운영,2012/05/09,,,2022/03/20,2022/10/26,일반,3,1,0,0,0,0,5,0,0,9,0,0,0,0,0,0,0,0,0,0,,,,,,,,,,,,,,,,2022/10/26 22:02:05,마장동
성동구,11200000300,초록어린이집,가정,폐지,4757,"서울특별시 성동구 마장로42길 14 7동 104호(마장동, 세림아파트)",02-6212-1544,02-6212-1544,http://cate daum.net,3,72,0,4,0,16,0,37.5658873197613,127.045257542434,미운영,2011/12/12,,,2020/09/28,2022/10/26,일반,1,0,0,0,0,0,5,0,0,6,0,0,0,0,0,0,0,0,0,0,,,,,,,,,,,,,,,,2022/10/26 22:02:05,마장동
성동구,11200000298,한양키움 어린이집,민간,정상,4756,서울특별시 성동구 마장로39길 48 (마장동),02-2293-0195,02-2293-0196,,5,172,0,7,12,45,40,37.5688284264638,127.044494079552,운영,2011/10/17,,,,2022/10/26,일반,4,1,0,0,0,0,3,1,0,9,12,5,0,0,0,0,13,10,0,40,67,11,22,0,0,true,9,0,거짓,0,0,0,1,0,12,2022/10/26 22:02:05,마장동
성동구,11200000285,햇님어린이집,가정,정상,4753,"서울특별시 성동구 마장로39길 43 102동 102호(마장동, 신성미소지움아파트)",02-2299-1533,02-2298-1532,http://cafe.naver.com/solarkids,3,58,0,4,3,19,3,37.56952326,127.0424491,미운영,2010/10/13,,,,2022/10/26,일반,2,1,0,0,0,0,1,0,0,4,3,0,0,0,0,0,0,0,0,3,50,0,50,0,0,true,1,0,거짓,0,0,0,0,0,3,2022/10/26 22:02:05,마장동
성동구,11200000280,행복한 어린이집,가정,폐지,4757,"서울특별시 성동구 마장로42길 14 8동 104호(마장동, 세림아파트)",02-2298-1554,02-2296-1554,http://cafe.naver.com/majangdonghappy,3,76,0,4,0,16,0,37.56499505,127.0451705,미운영,2010/02/04,,,2018/06/22,2022/10/26,일반,2,2,1,0,0,0,2,0,0,7,0,0,0,0,0,0,0,0,0,0,,,,,,,,,,,,,,,,2022/10/26 22:02:05,마장동
성동구,11200000170,솔아어린이집,민간,폐지,133816,서울특별시 성동구 마조로15길 17 (마장동),02-2281-4523,02-2299-9046,http://cafe.daum.net/sola-sola,5,107,0,0,0,32,0,37.5636135,127.0396961,운영,2006/12/18,,,2013/02/28,2022/10/26,일반,1,1,2,0,0,0,0,1,0,5,0,0,0,0,0,0,0,0,0,0,,,,,,,,,,,,,,,,2022/10/26 22:02:05,마장동
성동구,11200000109,세림 어린이집,가정,정상,4757,"서울특별시 성동구 마장로42길 14 6동 104호(마장동, 세림아파트)",02-2298-1553,02-2298-1553,https://blog.naver.com/serimc1009,3,84,1,4,5,20,11,37.56499505,127.0451705,미운영,2005/08/26,,,,2022/10/26,일반,2,2,1,0,0,0,5,0,0,10,3,0,0,0,0,0,8,0,0,11,50,25,25,0,0,true,3,0,거짓,0,0,0,0,0,5,2022/10/26 22:02:05,마장동
성동구,11200000133,금빛 어린이집,가정,정상,4755,"서울특별시 성동구 마장로37길 7 101동 102호(마장동, 대성유니드아파트)",02-2291-0555,,,3,116,0,4,6,20,17,37.56682902,127.0387742,미운영,2005/01/26,,,,2022/10/26,일반,0,2,2,0,0,0,4,0,0,8,0,5,0,0,0,0,12,0,0,17,40,0,0,20,40,true,4,0,거짓,0,0,0,0,0,6,2022/10/26 22:02:05,마장동
성동구,11200000143,다예린 어린이집,민간,폐지,4753,서울특별시 성동구 마장로39길 31 (마장동),02-2291-4191,02-2298-4029,http://dayerin.ukid.kr,5,328,1,5,0,52,0,37.56810066,127.0430232,운영,2004/02/27,,,2015/10/31,2022/10/26,일반,0,3,3,1,0,0,0,3,0,10,0,0,0,0,0,0,0,0,0,0,,,,,,,,,,,,,,,,2022/10/26 22:02:05,마장동
성동구,11200000128,라온어린이집,가정,정상,4753,"서울특별시 성동구 살곶이길 50 107동 102호(마장동, 현대아파트)",02-2297-9229,,,3,84,0,4,7,20,19,37.56952326,127.0424491,미운영,2002/01/28,,,,2022/10/26,일반,3,1,1,0,0,0,3,0,0,8,9,5,0,0,0,0,5,0,0,19,17,50,0,33,0,true,5,0,거짓,0,0,0,1,0,7,2022/10/26 22:02:05,마장동
성동구,11200000122,성동종합사회복지관 부설 방과후 어린이집,국공립,정상,4704,서울특별시 성동구 청계천로 506 성동종합사회복지관 부설 방과후어린이집 3층(늘푸른통합교실),02-2290-3163,,http://omni.or.kr/　,1,93,0,1,7,20,20,37.57046833,127.0338088,미운영,1999/01/07,,,,2022/10/26,방과후 전담,0,0,0,0,0,0,0,0,3,3,0,0,0,0,0,0,0,0,9,9,50,25,0,0,25,true,2,1,거짓,0,0,0,0,0,7,2022/10/26 22:02:05,마장동
성동구,11200000052,예지어린이집,민간,정상,4705,서울특별시 성동구 마장로27가길 15,02-2292-8800,02-2292-8805,없음,4,190,0,8,11,49,24,37.56691832,127.0352515,운영,1997/09/26,,,,2022/10/26,일반,2,2,2,1,0,0,8,2,0,17,6,5,7,0,0,0,0,6,0,24,63,0,0,0,38,true,8,0,거짓,0,0,0,1,0,11,2022/10/26 22:02:05,마장동
성동구,11200000140,아이나무어린이집,가정,정상,4757,"서울특별시 성동구 마장로42길 16 1동 106호(마장동, 세림아파트)",02-2281-4543,02-2299-9046,http://cafe.daum.net/sora-sora,3,84,0,4,11,20,20,37.56499505,127.0451705,미운영,1997/03/24,,,,2022/10/26,일반,3,2,1,0,0,0,5,0,0,11,6,0,0,0,0,0,14,0,0,20,60,10,0,30,0,true,9,0,거짓,0,0,0,0,0,11,2022/10/26 22:02:05,마장동
성동구,11200000142,구립 성모어린이집,국공립,정상,4704,서울특별시 성동구 청계천로 506 (성동종합사회복지관3층),02-2290-3182,02-2291-3182,sungmochildkid.co.kr,5,207,1,10,17,104,53,37.57046833,127.0338088,미운영,1993/12/21,,,,2022/10/26,"장애아통합,야간연장",0,0,2,1,2,2,0,0,6,13,0,0,7,10,11,13,0,0,12,53,31,8,23,0,39,true,9,4,거짓,0,0,0,1,0,17,2022/10/26 22:02:05,마장동
성동구,11200000018,구립 마장어린이집,국공립,정상,4757,서울특별시 성동구 마장로44길 10 (마장동),02-2293-9394,02-2299-4872,,7,358,1,20,30,116,103,37.56642292,127.0454704,미운영,1981/11/04,,,,2022/10/26,"장애아통합,야간연장",0,2,4,1,0,1,0,2,4,14,0,10,25,13,0,15,0,28,12,103,29,5,24,14,29,true,17,4,거짓,1,0,0,2,0,30,2022/10/26 22:02:05,마장동
성동구,11200000032,구립 서마어린이집,국공립,정상,4704,서울특별시 성동구 청계천로 546 (마장동),02-2293-5369,02-2293-5369,club.cyworld.com/seomastory,4,129,1,7,13,59,49,37.57169914,127.0368947,미운영,1981/09/01,,,,2022/10/26,야간연장,0,2,2,0,0,0,0,2,0,6,0,9,13,0,0,0,0,27,0,49,20,10,20,10,40,true,10,0,거짓,0,0,0,1,0,13,2022/10/26 22:02:05,마장동
중구,11140000110,늘푸른어린이집,국공립,정상,4500,서울특별시 중구 만리동2가 만리재로21길 9,02-2088-1318,02-2088-1312,,3,101,0,11,14,38,36,37.5528170627,126.9630705681,미운영,2018/04/16,,,,2022/10/26,일반,3,3,2,0,0,0,0,0,0,8,9,15,12,0,0,0,0,0,0,36,46,27,27,0,0,true,11,0,거짓,0,0,0,1,0,14,2022/10/26 06:18:44,중림동
중구,11140000090,마주어린이집,가정,정상,4502,서울특별시 중구 중림로 10 삼성사이버빌리지 112-102,02-6324-6325,02-6324-6326,,3,61,0,4,8,19,16,37.5575828371032,126.965604177823,미운영,2012/07/25,,,,2022/10/26,야간연장,1,0,0,0,0,0,4,0,0,5,3,0,0,0,0,0,13,0,0,16,43,14,43,0,0,true,6,0,거짓,0,0,0,0,0,8,2022/10/26 06:18:44,중림동
중구,11140000089,리원어린이집,가정,폐지,4501,"서울특별시 중구 만리재로33길 21 (만리동1가, LIG서울역리가) 102-102",02-313-5355,02-313-5355,htt//cafe.naver.com/riwonhouse,3,59,0,4,0,19,0,37.5562606010445,126.967003638895,미운영,2012/05/11,,,2022/03/01,2022/10/26,야간연장,3,2,0,0,0,0,3,0,0,8,0,0,0,0,0,0,0,0,0,0,,,,,,,,,,,,,,,,2022/10/26 06:18:44,중림동
중구,11140000060,엔젤어린이집,가정,정상,4502,"서울특별시 중구 중림로 10 106동 103호(중림동, 사이버빌리지)",02-364-3642,02-364-3652,,4,85,0,4,7,20,16,37.5581639,126.9652466,미운영,2008/05/26,,,,2022/10/26,야간연장,2,1,0,0,0,0,1,0,0,4,6,5,0,0,0,0,5,0,0,16,67,0,0,17,17,true,5,0,거짓,0,0,0,0,0,7,2022/10/26 06:18:44,중림동
중구,11140000014,가명어린이집,법인?단체등,정상,4506,서울특별시 중구 청파로 447-1,02-365-7021,02-365-7025,www.gamyung.com,4,239,1,10,15,74,54,37.5589741,126.9670146,미운영,1997/03/06,,,,2022/10/26,장애아통합,0,2,2,1,0,0,2,1,1,9,0,10,14,7,0,0,10,12,1,54,18,18,18,18,27,true,10,1,거짓,0,0,0,2,0,15,2022/10/26 06:18:44,중림동
중구,11140000011,중림어린이집,국공립,정상,4508,서울특별시 중구 만리재로35길 12 (만리동1가),02-364-7534,02-363-5808,http://iutv.co.kr/jlcentergz,6,234,1,21,20,89,71,37.55562297,126.9677162,미운영,1991/10/22,,,,2022/10/26,"장애아통합,야간연장",0,2,2,1,1,1,0,0,2,9,0,10,14,13,17,11,0,0,6,71,15,23,39,8,15,true,13,0,거짓,0,0,0,2,0,20,2022/10/26 06:18:44,중림동
중구,11140000020,만리어린이집,국공립,정상,4500,서울특별시 중구 만리동2가 만리재로 175 (만리동2가),02-312-8718,02-312-8789,,7,309,3,35,26,98,98,37.5530803784,126.9637947247,미운영,1983/06/24,,,,2022/10/26,야간연장,2,2,4,2,1,2,0,0,0,13,5,10,27,15,17,24,0,0,0,98,33,29,14,24,0,true,21,0,거짓,0,0,0,2,0,26,2022/10/26 06:18:44,중림동
성동구,11200000387,구립 맑은샘어린이집,국공립,정상,4731,서울특별시 성동구 매봉길 51 (옥수동 528-2),02-2293-0509,02-2297-8701,,5,203,1,16,10,68,28,37.5465907739,127.0133800346,미운영,2018/02/12,,,,2022/10/26,"장애아통합,야간연장",2,2,2,0,0,0,0,0,0,6,6,10,12,0,0,0,0,0,0,28,29,0,71,0,0,true,7,0,거짓,0,0,0,1,0,10,2022/10/26 22:02:05,옥수동
성동구,11200000382,공룡 어린이집,가정,정상,4734,"서울특별시 성동구 독서당로 218 107동 104호(옥수동, 삼성아파트)",02-2298-8212,,,3,63,0,4,7,20,19,37.5430005914988,127.014650684231,미운영,2017/10/11,,,,2022/10/26,일반,1,2,1,0,0,0,0,0,0,4,3,10,6,0,0,0,0,0,0,19,67,17,17,0,0,true,5,0,거짓,0,0,0,0,0,7,2022/10/26 22:02:05,옥수동
성동구,11200000370,구립 옥수파크어린이집,국공립,정상,4731,"서울특별시 성동구 매봉길 50 110동 (옥수동, 옥수파크힐스 1단지)",02-2282-3241,02-2282-3242,,4,121,0,7,12,41,37,37.5485350516836,127.014049174906,미운영,2016/09/09,,,,2022/10/26,일반,3,3,2,0,0,0,0,0,0,8,9,15,13,0,0,0,0,0,0,37,44,0,22,33,0,true,9,0,거짓,0,0,0,1,0,12,2022/10/26 22:02:05,옥수동
성동구,11200000371,구립 옥수힐스어린이집,국공립,정상,4731,"서울특별시 성동구 매봉길 50 (옥수동, 옥수파크힐스 2단지)",02-2281-7979,,,4,145,0,6,11,45,29,37.5472936889,127.0121218096,미운영,2016/09/09,,,,2022/10/26,일반,2,2,2,1,0,0,0,0,0,7,6,10,11,2,0,0,0,0,0,29,13,25,38,25,0,true,8,0,거짓,0,0,0,1,0,11,2022/10/26 22:02:05,옥수동
성동구,11200000355,구립 매봉도담어린이집,국공립,정상,4731,서울특별시 성동구 매봉길 88,02-2293-3330,02-2295-3330,,4,214,1,8,12,49,30,37.5492109193114,127.013013851816,미운영,2015/01/09,,,,2022/10/26,야간연장,2,3,2,1,0,0,0,0,0,8,6,15,9,0,0,0,0,0,0,30,67,11,22,0,0,true,9,0,거짓,0,0,0,1,0,12,2022/10/26 22:02:05,옥수동
성동구,11200000345,구립 극동그린어린이집,국공립,정상,4732,서울특별시 성동구 독서당로 175,02-2281-9297,02-2281-9296,,4,297,4,4,11,59,43,37.5416176076759,127.009812580579,미운영,2014/05/01,,,,2022/10/26,야간연장,0,2,2,1,0,0,0,1,0,6,0,10,14,9,0,0,0,10,0,43,13,25,38,13,13,true,8,0,거짓,0,0,0,1,0,11,2022/10/26 22:02:05,옥수동
성동구,11200000336,구립 독서당어린이집,국공립,정상,4733,서울특별시 성동구 매봉길 17 래미안리버젠 2단지,02-2299-2929,02-2299-2928,,3,119,0,5,8,26,24,37.5465005447959,127.014475405636,미운영,2013/05/20,,,,2022/10/26,야간연장,1,2,2,0,0,0,0,0,0,5,3,9,12,0,0,0,0,0,0,24,33,0,17,33,17,true,6,0,거짓,0,0,0,1,0,8,2022/10/26 22:02:05,옥수동
성동구,11200000334,리틀리버젠어린이집,가정,폐지,4733,서울특별시 성동구 매봉길 17 옥수래미안리버젠아파트 103동 105호,02-2295-7713,02-2295-7714,,3,110,0,4,0,20,0,37.5465017964358,127.014476041499,미운영,2013/04/30,,,2015/05/01,2022/10/26,일반,3,2,1,1,0,0,2,0,0,9,0,0,0,0,0,0,0,0,0,0,,,,,,,,,,,,,,,,2022/10/26 22:02:05,옥수동
성동구,11200000333,한울어린이집,가정,정상,4734,"서울특별시 성동구 독서당로 218 110-102(옥수동, 옥수삼성아파트)",02-2291-0903,02-2295-0903,,3,114,0,4,7,20,19,37.5426310116861,127.015552588822,미운영,2013/04/30,,,,2022/10/26,일반,1,2,1,0,0,0,2,0,0,6,3,10,6,0,0,0,0,0,0,19,33,17,17,0,33,true,5,0,거짓,0,0,0,0,0,7,2022/10/26 22:02:05,옥수동
성동구,11200000325,다온어린이집,가정,정상,4733,"서울특별시 성동구 매봉길 15 111동 105호(옥수동, 래미안옥수리버젠",02-2281-2777,02-2281-2777,,3,48,0,4,7,18,17,37.5447282804961,127.014467141954,미운영,2013/02/28,,,,2022/10/26,일반,3,4,0,0,0,0,0,0,0,7,8,9,0,0,0,0,0,0,0,17,83,17,0,0,0,true,5,0,거짓,0,0,0,0,0,7,2022/10/26 22:02:05,옥수동
성동구,11200000324,코코어린이집,가정,폐지,4733,"서울특별시 성동구 매봉길 15 101동 101호(옥수동, 래미안옥수리버젠)",070-4045-8695,070-8245-8695,,3,59,0,4,0,16,0,37.5459504521098,127.013892050349,미운영,2013/02/25,,,2016/03/04,2022/10/26,일반,2,2,1,0,0,0,4,0,0,9,0,0,0,0,0,0,0,0,0,0,,,,,,,,,,,,,,,,2022/10/26 22:02:05,옥수동
성동구,11200000322,구립 래미안리버젠어린이집,국공립,정상,4733,서울특별시 성동구 매봉길 15 래미안리버젠아파트 관리동,02-2291-2013,02-2291-2014,,7,270,1,16,19,102,85,37.5451920224386,127.016543678168,미운영,2013/02/08,,,,2022/10/26,야간연장,2,4,3,1,1,1,0,0,0,12,6,20,21,12,10,16,0,0,0,85,53,27,13,7,0,true,15,0,거짓,0,0,0,2,0,19,2022/10/26 22:02:05,옥수동
성동구,11200000320,햇살어린이집,가정,폐지,4736,"서울특별시 성동구 독서당로 156 8동 109호(옥수동, 한남하이츠아파트)",02-2281-3901,,,3,60,0,4,0,20,0,37.5395173780392,127.013786890774,미운영,2012/11/26,,,2022/03/15,2022/10/26,일반,3,1,1,0,0,0,0,0,0,5,0,0,0,0,0,0,0,0,0,0,,,,,,,,,,,,,,,,2022/10/26 22:02:05,옥수동
성동구,11200000319,아이으뜸어린이집,가정,정상,4739,"서울특별시 성동구 뚝섬로 51 102동 101호(옥수동, 옥수풍림아이원)",02-2297-4650,02-2297-4650,,3,56,0,4,6,20,19,37.5420322212421,127.019476593642,미운영,2012/11/02,,,,2022/10/26,일반,2,5,3,0,0,0,5,0,0,15,3,0,7,0,0,0,9,0,0,19,80,0,20,0,0,true,4,0,거짓,0,0,0,0,0,6,2022/10/26 22:02:05,옥수동
성동구,11200000307,어울림 어린이집,가정,폐지,4739,서울특별시 성동구 독서당로40길 37 옥수어울림 103동 102호,02-843-2088,02-2293-2089,,4,63,0,4,0,20,0,37.5418738806105,127.017865272257,미운영,2012/04/02,,,2018/02/28,2022/10/26,일반,1,1,1,0,0,0,1,0,0,4,0,0,0,0,0,0,0,0,0,0,,,,,,,,,,,,,,,,2022/10/26 22:02:05,옥수동
성동구,11200000293,예꿈어린이집,가정,폐지,4736,"서울특별시 성동구 한림말길 48 105동 101호(옥수동, 옥수하이츠아파트)",02-2281-8942,,,2,114,0,0,0,11,0,37.54013958,127.016384,미운영,2011/05/02,,,2013/04/16,2022/10/26,일반,1,1,0,0,0,0,5,0,0,7,0,0,0,0,0,0,0,0,0,0,,,,,,,,,,,,,,,,2022/10/26 22:02:05,옥수동
성동구,11200000291,크레아트어린이집,가정,폐지,4734,"서울특별시 성동구 독서당로 218 107동 104호(옥수동, 삼성아파트)",070-8235-1012,,,3,84,0,3,0,20,0,37.54224776,127.0141915,미운영,2011/04/12,,,2017/10/11,2022/10/26,일반,2,1,2,0,0,0,7,0,0,12,0,0,0,0,0,0,0,0,0,0,,,,,,,,,,,,,,,,2022/10/26 22:02:05,옥수동
성동구,11200000289,큰사랑어린이집,가정,폐지,4734,"서울특별시 성동구 독서당로 218 105동 110호(옥수동, 삼성아파트)",02-2296-0308,02-2297-0307,,3,60,0,0,0,20,0,37.54224776,127.0141915,미운영,2011/03/24,,,2017/03/24,2022/10/26,일반,1,2,1,0,0,0,4,0,0,8,0,0,0,0,0,0,0,0,0,0,,,,,,,,,,,,,,,,2022/10/26 22:02:05,옥수동
성동구,11200000150,꿈나무 어린이집,가정,정상,4734,"서울특별시 성동구 독서당로 218 104동 103호(옥수동, 삼성아파트)",02-2294-3297,02-2294-3297,,3,103,0,4,6,20,20,37.54224776,127.0141915,미운영,2009/02/02,,,,2022/10/26,일반,1,1,1,0,0,0,3,0,0,6,0,5,7,0,0,0,8,0,0,20,20,40,0,0,40,true,4,0,거짓,0,0,0,0,0,6,2022/10/26 22:02:05,옥수동
성동구,11200000192,밤비어린이집,가정,폐지,133839,서울특별시 성동구 한림말3길 23-6,02-2292-4614,02-2292-7250,,3,63,0,0,0,14,0,37.5430202775726,127.015235831543,미운영,2008/05/14,,,2012/11/06,2022/10/26,일반,0,0,0,0,0,0,2,0,0,2,0,0,0,0,0,0,0,0,0,0,,,,,,,,,,,,,,,,2022/10/26 22:02:05,옥수동
성동구,11200000134,옥수종합사회복지관 부설 좋은벗방과후교실어린이집,국공립,정상,4736,서울특별시 성동구 한림말길 16-5 옥수종합사회복지관 (옥수동),02-2282-1100,02-2282-1101,www.oksoocwc.or.kr,2,89,0,3,8,20,15,37.54043785,127.012716,미운영,2000/03/06,,,,2022/10/26,방과후 전담,0,0,0,0,0,0,0,0,7,7,0,0,0,0,0,0,0,0,15,15,20,20,20,0,40,true,3,1,거짓,0,0,0,0,0,8,2022/10/26 22:02:05,옥수동
성동구,11200000165,극동 어린이집,민간,폐지,4732,"서울특별시 성동구 독서당로 175 (옥수동, 극동그린아파트 관리동2층)",02-6215-9790,02-2281-9297,http://cafe.daum.net/gekdong,2,148,0,0,0,32,0,37.5416176076759,127.009812580579,미운영,1999/03/03,,,2014/04/30,2022/10/26,일반,0,0,0,1,1,0,0,0,0,2,0,0,0,0,0,0,0,0,0,0,,,,,,,,,,,,,,,,2022/10/26 22:02:05,옥수동
성동구,11200000013,구립 연꽃어린이집,국공립,정상,4736,서울특별시 성동구 한림말길 16-5,02-2282-1105,02-2282-1103,http://cafe.daum.net/yeunkot,7,294,1,11,22,120,86,37.54043785,127.012716,미운영,1998/03/26,,,,2022/10/26,"장애아통합,야간연장",2,2,4,1,1,1,0,0,3,14,6,10,27,15,11,8,0,0,9,86,22,11,33,6,28,true,17,1,거짓,0,0,0,2,0,22,2022/10/26 22:02:05,옥수동
성동구,11200000104,클나무몬테소리어린이집,민간,폐지,133759,서울 성동구 옥수동 437극동그린아파트 관리동,02-2281-9297,02-2281-9297,http://cafe.daum.net/kulnamoo,2,148,0,0,0,32,0,37.54184165,127.0102375,운영,1997/03/11,,,2014/04/30,2022/10/26,일반,0,1,3,0,0,0,0,0,0,4,0,0,0,0,0,0,0,0,0,0,,,,,,,,,,,,,,,,2022/10/26 22:02:05,옥수동
성동구,11200000090,에벤에셀어린이집,민간,폐지,4734,서울특별시 성동구 독서당로 190,02-2297-6405,,,3,97,0,3,0,23,0,37.54244555,127.0124146,미운영,1992/08/25,,,2019/03/01,2022/10/26,일반,0,1,1,0,0,0,4,0,0,6,0,0,0,0,0,0,0,0,0,0,,,,,,,,,,,,,,,,2022/10/26 22:02:05,옥수동
성동구,11200000012,구립 금옥어린이집,국공립,정상,4731,서울특별시 성동구 매봉18길 1 (옥수동),02-2297-6738,02-2298-1639,,10,386,1,36,24,133,100,37.54955905,127.0127112,미운영,1983/01/02,,,,2022/10/26,야간연장,5,4,4,2,1,1,0,0,0,17,12,20,28,20,7,13,0,0,0,100,47,26,16,5,5,true,19,0,거짓,0,0,0,1,0,24,2022/10/26 22:02:05,옥수동
성동구,11200000036,구립 매봉어린이집,국공립,폐지,133846,서울특별시 성동구 매봉9길 16 옥수동 556-2,02-2297-3751,02-2292-3286,,5,139,1,0,0,64,0,37.54628215,127.0112255,미운영,1982/12/27,,,2012/12/31,2022/10/26,일반,0,1,1,0,0,0,1,1,0,4,0,0,0,0,0,0,0,0,0,0,,,,,,,,,,,,,,,,2022/10/26 22:02:05,옥수동
중구,11140000053,경동어린이집,법인?단체등,정상,4614,서울특별시 중구 장충단로 204,02-2272-7158,02-2272-7158,,4,129,0,12,11,49,43,37.56319426,127.0073109,미운영,1993/03/31,,,,2022/10/26,일반,0,1,2,1,0,0,0,1,0,5,0,5,12,10,0,0,0,16,0,43,13,25,38,13,13,true,8,0,거짓,0,0,0,1,0,11,2022/10/26 06:18:44,장충동
중구,11140000008,충무어린이집,국공립,정상,4618,서울특별시 중구 동호로27길 21 (묵정동),02-2264-3679,02-2273-5019,cafe.daum.net/cmchild,5,150,2,13,10,48,27,37.56024397,127.0017202,미운영,1992/04/08,,,,2022/10/26,"장애아통합,야간연장",2,2,2,1,0,0,3,2,1,13,5,9,0,0,0,0,0,13,0,27,38,0,25,13,25,true,8,0,거짓,0,0,0,1,0,10,2022/10/26 06:18:44,장충동
중구,11140000085,CJ키즈빌 어린이집,직장,정상,4560,서울특별시 중구 동호로 330 (쌍림동),02-722-1070,02-722-1074,,7,399,2,16,33,120,78,37.56396399,127.0032756,미운영,2011/05/27,,,,2022/10/26,일반,3,7,5,3,0,0,0,4,0,22,6,20,19,15,0,0,0,18,0,78,48,28,12,4,8,true,25,0,거짓,1,0,1,5,0,33,2022/10/26 06:18:44,광희동
중구,11140000007,중구청직장어린이집,국공립,정상,4559,서울특별시 중구 마른내로12길 17-19,02-3396-4049,02-2278-4489,cafe.naver.com/junggu07,5,251,1,16,11,63,33,37.5638483739249,127.001200163208,미운영,1992/09/15,,,,2022/10/26,야간연장,1,1,1,1,0,0,1,2,0,7,3,1,7,8,0,0,4,10,0,33,25,13,38,25,0,true,8,0,거짓,0,0,0,2,0,11,2022/10/26 06:18:44,광희동
성동구,11200000357,구립 서울숲더샵어린이집,국공립,정상,4765,서울특별시 성동구 왕십리로 241 서울숲더샵아 1층,02-2296-2014,02-2296-2015,,3,179,1,7,13,41,34,37.5570759698665,127.04002802388,미운영,2014/11/26,,,,2022/10/26,야간연장,3,3,2,0,0,0,0,0,0,8,6,14,14,0,0,0,0,0,0,34,40,10,30,0,20,true,10,0,거짓,0,0,0,1,0,13,2022/10/26 22:02:05,사근동
성동구,11200000306,에덴어린이집,가정,폐지,4761,서울특별시 성동구 사근동길 21-1,02-2298-1545,02-2295-3232,,2,73,0,3,0,17,0,37.5609505720793,127.0434030193,운영,2012/03/21,,,2017/02/28,2022/10/26,일반,1,0,1,0,0,0,2,0,0,4,0,0,0,0,0,0,0,0,0,0,,,,,,,,,,,,,,,,2022/10/26 22:02:05,사근동
성동구,11200000074,천사 어린이집,가정,폐지,4761,"서울특별시 성동구 사근동길 65 101동 112호(사근동, 중앙하이츠아파트)",02-2298-1888,,blog.naver.com/angelnursery,3,71,0,4,0,14,0,37.56164709,127.048558,미운영,2010/03/15,,,2018/03/02,2022/10/26,일반,1,2,0,0,0,0,3,0,0,6,0,0,0,0,0,0,0,0,0,0,,,,,,,,,,,,,,,,2022/10/26 22:02:05,사근동
성동구,11200000015,구립 사근다솜어린이집,국공립,정상,4761,서울특별시 성동구 사근동길 37 (사근동),02-2281-3308,,http://cafe.naver.com/ds22813308,5,204,1,9,11,67,30,37.56105772,127.0455332,미운영,2004/10/05,,,,2022/10/26,"장애아통합,야간연장",0,3,2,1,0,0,0,1,2,9,0,10,5,5,0,0,0,7,3,30,14,0,29,14,43,true,7,0,거짓,0,0,0,1,0,11,2022/10/26 22:02:05,사근동
성동구,11200000099,한양어린이복지쎈터부속어린이집,직장,폐지,4763,서울특별시 성동구 마조로 22-2 한대동문회관 2층(행당동),02-2220-0713,02-2220-0714,,4,242,0,0,0,39,0,37.55944771,127.0413251,미운영,2002/05/01,,,2014/02/28,2022/10/26,일반,0,2,4,1,0,0,0,0,0,7,0,0,0,0,0,0,0,0,0,0,,,,,,,,,,,,,,,,2022/10/26 22:02:05,사근동
용산구,11170000199,사랑나무어린이집,가정,정상,4336,서울특별시 용산구 후암로 4-8 후암동,02-2213-2929,,,5,125,0,5,7,20,14,37.5463535700926,126.978816521213,미운영,2018/03/05,,,,2022/10/26,야간연장,2,0,1,0,0,0,1,0,0,4,5,0,6,0,0,0,3,0,0,14,17,0,50,33,0,true,5,0,거짓,0,0,0,0,0,7,2022/10/26 22:01:54,후암동
용산구,11170000189,오케이최고어린이집,가정,재개,4336,서울특별시 용산구 두텁바위로31길 28,02-775-2560,,,2,87,1,4,0,20,0,37.5475629767,126.9803551745,미운영,2017/03/02,,,,2022/10/26,일반,0,1,1,0,0,0,3,0,0,5,0,0,0,0,0,0,0,0,0,0,,,,,,,,,,,,,,,,2022/10/26 22:01:55,후암동
용산구,11170000164,노벨어린이집,가정,정상,4331,서울특별시 용산구 후암로22길 10 104호(후암동),02-796-7270,02-796-7270,,3,60,0,4,5,19,10,37.5513978116851,126.977294962797,미운영,2014/03/04,,,,2022/10/26,일반,3,1,1,0,0,0,6,0,0,11,3,0,0,0,0,0,7,0,0,10,25,0,0,25,50,true,3,0,거짓,0,0,0,0,0,5,2022/10/26 22:01:54,후암동
용산구,11170000180,미래어린이집,국공립,정상,4331,서울특별시 용산구 후암로16나길 13,02-752-5506,,,6,184,2,16,14,67,57,37.5490366523856,126.978308788708,미운영,2013/10/25,,,,2022/10/26,야간연장,1,3,2,1,0,0,0,1,0,8,3,15,14,8,0,0,0,17,0,57,67,0,25,0,8,true,12,0,거짓,0,0,0,1,0,14,2022/10/26 22:01:54,후암동
용산구,11170000174,가온누리어린이집,가정,폐지,4332,서울특별시 용산구 후암로15길 4-23 (후암동),02-318-0428,02-318-3135,,4,50,1,4,0,18,0,37.5486588061731,126.977332061035,미운영,2013/02/19,,,2020/12/01,2022/10/26,야간연장,3,2,1,0,0,0,4,0,0,10,0,0,0,0,0,0,0,0,0,0,,,,,,,,,,,,,,,,2022/10/26 22:01:54,후암동
용산구,11170000150,예뜰어린이집,민간,폐지,4333,서울특별시 용산구 후암로35길 38 (후암동),02-310-9494,02-310-9494,,6,123,0,6,0,46,0,37.54972319,126.9759141,미운영,2011/01/06,,,2019/05/01,2022/10/26,야간연장,2,3,3,0,0,0,7,0,0,15,0,0,0,0,0,0,0,0,0,0,,,,,,,,,,,,,,,,2022/10/26 22:01:55,후암동
용산구,11170000149,별똥별어린이집,가정,폐지,140901,서울특별시 용산구 후암로22길 10 후암아파트 104호 (후암동),02-777-7759,02-777-7759,,3,50,0,4,0,19,0,37.54917097,126.9780074,미운영,2010/12/03,,,2020/02/29,2022/10/26,야간연장,1,1,0,0,0,0,0,0,0,2,0,0,0,0,0,0,0,0,0,0,,,,,,,,,,,,,,,,2022/10/26 22:01:54,후암동
용산구,11170000139,하버드어린이집,가정,폐지,4335,서울특별시 용산구 두텁바위로 51 (후암동),02-773-2234,02-773-2234,,3,60,0,4,0,17,0,37.54599559,126.9777859,미운영,2010/02/23,,,2020/08/01,2022/10/26,야간연장,2,1,1,0,0,0,3,0,0,7,0,0,0,0,0,0,0,0,0,0,,,,,,,,,,,,,,,,2022/10/26 22:01:55,후암동
용산구,11170000109,영주어린이집,민간,정상,4336,서울특별시 용산구 두텁바위로 91 (후암동),02-318-2242,02-754-0248,,5,199,1,11,16,72,59,37.54743044,126.9816898,미운영,2007/10/17,,,,2022/10/26,일반,2,2,2,1,0,0,4,1,0,12,3,0,14,12,0,0,17,13,0,59,46,8,8,8,31,true,13,0,거짓,0,0,0,1,0,16,2022/10/26 22:01:55,후암동
용산구,11170000101,오케이어린이집,민간,폐지,4336,서울특별시 용산구 두텁바위로31길 28 (후암동),02-775-2560,02-775-2566,,5,122,3,7,0,46,0,37.54754839,126.9803223,운영,2006/08/22,,,2017/03/01,2022/10/26,일반,2,3,2,0,0,0,3,0,0,10,0,0,0,0,0,0,0,0,0,0,,,,,,,,,,,,,,,,2022/10/26 22:01:55,후암동
용산구,11170000088,후암방과후어린이집,법인?단체등,폐지,4332,서울특별시 용산구 후암로13길 8 (후암동),02-777-8347,02-777-8349,,1,132,0,1,0,20,0,37.54794647,126.9771764,미운영,2003/12/12,,,2020/03/01,2022/10/26,방과후 전담,0,0,0,0,0,0,0,0,0,0,0,0,0,0,0,0,0,0,0,0,,,,,,,,,,,,,,,,2022/10/26 22:01:55,후암동
용산구,11170000076,두툼돌어린이집,민간,정상,4332,서울특별시 용산구 후암로13길 8 (후암동),02-777-8346,02-777-8349,,4,286,1,4,9,95,27,37.54794647,126.9771764,운영,2003/02/28,,,,2022/10/26,일반,0,0,1,0,0,2,4,5,0,12,0,0,0,0,0,8,9,10,0,27,40,40,20,0,0,true,5,0,거짓,0,0,0,1,0,9,2022/10/26 22:01:54,후암동
용산구,11170000066,목화어린이집,민간,폐지,4336,서울특별시 용산구 후암로 4-8 목화어린이집 (후암동),02-777-2788,02-777-5377,,5,100,0,5,0,36,0,37.55153034,126.9779559,운영,1997/09/01,,,2018/03/01,2022/10/26,야간연장,0,1,1,0,0,0,2,1,0,5,0,0,0,0,0,0,0,0,0,0,,,,,,,,,,,,,,,,2022/10/26 22:01:54,후암동
용산구,11170000033,예다운어린이집,민간,폐지,4330,서울특별시 용산구 두텁바위로69길 3-4,02-757-6655,02-757-6656,ydu43170@hanmail.net,3,85,0,0,0,44,0,37.55132014,126.9808447,운영,1997/02/10,,,2015/06/01,2022/10/26,일반,0,1,1,0,0,0,2,2,0,6,0,0,0,0,0,0,0,0,0,0,,,,,,,,,,,,,,,,2022/10/26 22:01:55,후암동
용산구,11170000024,남산중앙어린이집,법인?단체등,정상,4328,서울특별시 용산구 두텁바위로60길 74 남산중앙교회내 (후암동),02-754-9919,,,4,164,0,8,10,49,25,37.54829648,126.9835883,미운영,1996/03/22,,,,2022/10/26,야간연장,0,0,0,0,0,0,3,2,0,5,0,0,0,0,0,0,8,17,0,25,0,0,29,14,57,true,7,0,거짓,0,0,0,1,0,10,2022/10/26 22:01:54,후암동
용산구,11170000009,후암어린이집,국공립,정상,4335,서울특별시 용산구 두텁바위로1길 86 (후암동),02-752-7223,02-771-7223,,6,208,2,8,15,86,68,37.54765193,126.9758361,미운영,1995/04/01,,,,2022/10/26,"야간연장,시간제보육",0,2,2,1,1,1,0,0,0,7,0,10,13,15,10,20,0,0,0,68,42,8,17,0,33,true,12,0,거짓,0,0,0,1,0,15,2022/10/26 22:01:55,후암동
용산구,11170000030,영락어린이집,사회복지법인,정상,4336,서울특별시 용산구 후암로4길 70 (후암동),02-775-2157,02-775-2150,영락어린이집(다음카페),4,153,1,8,9,52,42,37.54843004,126.9813118,미운영,1994/03/15,,,,2022/10/26,장애아통합,0,1,2,0,0,0,1,2,1,7,0,0,7,0,0,0,5,27,3,42,33,17,17,0,33,true,5,1,거짓,0,0,0,1,0,9,2022/10/26 22:01:55,후암동
용산구,11170000078,남산어린이집,민간,폐지,4339,서울특별시 용산구 신흥로16길 17 (용산동2가),02-749-6334,02-792-8784,ns9171@naver.com,4,130,1,6,0,39,0,37.54500978,126.9873978,미운영,2005/09/30,,,2020/02/29,2022/10/26,일반,3,2,3,1,1,0,1,1,0,12,0,0,0,0,0,0,0,0,0,0,,,,,,,,,,,,,,,,2022/10/26 22:01:54,용산2가동
용산구,11170000086,주신어린이집,민간,폐지,4338,서울특별시 용산구 신흥로11길 39 (용산동2가),02-797-5375,02-798-3910,,9,118,2,12,0,45,0,37.54431203,126.9863073,운영,2005/01/07,,,2018/03/02,2022/10/26,일반,1,1,1,1,1,0,0,2,0,7,0,0,0,0,0,0,0,0,0,0,,,,,,,,,,,,,,,,2022/10/26 22:01:55,용산2가동
용산구,11170000007,소월어린이집,국공립,정상,4339,서울특별시 용산구 신흥로18길 3-5,02-749-5391,02-792-2203,,5,114,2,12,9,55,33,37.54613603,126.9858175,미운영,2003/09/01,,,,2022/10/26,야간연장,0,0,0,0,0,0,2,2,0,4,0,0,0,0,0,0,7,26,0,33,17,17,50,17,0,true,6,0,거짓,0,0,0,1,0,9,2022/10/26 22:01:55,용산2가동
용산구,11170000023,해방어린이집,국공립,정상,4338,서울특별시 용산구 소월로20길 43 해방어린이집 (용산동2가),02-795-8450,02-795-8456,,5,180,2,10,13,86,51,37.54428402,126.9851444,미운영,1992/10/01,,,,2022/10/26,야간연장,1,2,2,1,0,0,1,1,0,8,3,9,11,7,0,0,2,19,0,51,18,0,18,27,36,true,11,0,거짓,0,0,0,1,0,13,2022/10/26 22:01:55,용산2가동
용산구,11170000181,DB손해보험 아이사랑 어린이집,직장,정상,4323,서울특별시 용산구 후암로 107 게이트웨이타워 3층,02-771-8607,02-771-8606,,4,176,1,13,12,49,28,37.553461388771,126.973563405144,미운영,2014/02/20,,,,2022/10/26,일반,1,4,3,0,0,1,0,3,0,12,0,7,7,0,0,0,0,14,0,28,22,11,22,22,22,true,9,0,거짓,0,0,0,1,0,12,2022/10/26 22:01:54,남영동
용산구,11170000077,새꿈어린이집,국공립,정상,4323,서울특별시 용산구 후암로57길 26 (동자동),02-775-6514,02-775-6655,,5,203,1,8,11,45,44,37.55238518,126.9733573,운영,2002/03/08,,,,2022/10/26,야간연장,3,0,1,0,0,0,2,2,0,8,6,0,5,0,0,0,8,25,0,44,43,0,14,0,43,true,7,0,거짓,0,0,0,1,0,11,2022/10/26 22:01:54,남영동
용산구,11170000012,절제어린이집,사회복지법인,정상,4324,서울특별시 용산구 후암로57길 57 (동자동),02-771-4937,02-773-4919,http://julje.ukid.kr,3,200,2,14,8,37,25,37.55092073,126.9741571,미운영,1991/10/01,,,,2022/10/26,야간연장,2,0,1,0,0,0,1,2,0,6,3,0,4,0,0,0,5,13,0,25,60,0,40,0,0,true,5,0,거짓,0,0,0,1,0,8,2022/10/26 22:01:55,남영동
용산구,11170000192,새순어린이집,국공립,정상,4361,"서울특별시 용산구 원효로35길 37-7 1,2층",02-716-7930,02-717-7930,,3,130,1,9,11,40,30,37.5348941342334,126.955191410616,미운영,2017/07/01,,,,2022/10/26,야간연장,2,2,3,0,0,0,0,0,0,7,6,10,14,0,0,0,0,0,0,30,67,11,0,22,0,true,9,0,거짓,0,0,0,1,0,11,2022/10/26 22:01:54,원효로2동
용산구,11170000194,위드어린이집,가정,폐지,4365,서울특별시 용산구 원효로4가 원효로 40 101-105,02-701-5554,02-701-5554,,3,53,0,4,0,20,0,37.5341805348857,126.948028585108,미운영,2017/05/01,,,2019/03/04,2022/10/26,일반,2,1,1,0,0,0,0,0,0,4,0,0,0,0,0,0,0,0,0,0,,,,,,,,,,,,,,,,2022/10/26 22:01:55,원효로2동
용산구,11170000188,샘물어린이집,국공립,정상,4361,서울특별시 용산구 원효로4가 원효로19길 49,02-701-0505,02-701-4900,,5,179,1,8,14,62,55,37.5342102717727,126.954594151122,미운영,2016/10/01,,,,2022/10/26,장애아통합,0,2,2,1,0,0,0,1,1,7,0,10,12,14,0,0,0,17,2,55,36,18,36,9,0,true,10,1,거짓,0,0,0,1,0,14,2022/10/26 22:01:54,원효로2동
용산구,11170000047,앤젤어린이집,가정,폐지,4358,"서울특별시 용산구 효창원로 17 103동 104호(산천동, 삼성리버힐아파트)",02-706-5519,,,3,79,3,4,0,20,0,37.53487888,126.9508027,미운영,2014/03/11,,,2020/02/29,2022/10/26,야간연장,1,1,2,0,0,0,3,0,0,7,0,0,0,0,0,0,0,0,0,0,,,,,,,,,,,,,,,,2022/10/26 22:01:55,원효로2동
용산구,11170000122,푸른숲속어린이집,가정,정상,4358,"서울특별시 용산구 효창원로 17 104동 103호(산천동, 리버힐삼성아파트)",02-701-5437,02-701-5457,blueforest.kidsnote.ac,4,68,0,5,8,20,20,37.53487888,126.9508027,미운영,2014/03/11,,,,2022/10/26,일반,2,1,1,0,0,0,1,0,0,5,6,5,6,0,0,0,3,0,0,20,57,14,14,14,0,true,6,0,거짓,0,0,0,0,0,8,2022/10/26 22:01:55,원효로2동
용산구,11170000178,다성심어린이집,가정,폐지,4358,"서울특별시 용산구 효창원로 17 112동 106동(산천동,리버힐삼성아파트)",02-713-3002,,,4,61,1,4,0,19,0,37.5349978094381,126.949091822138,운영,2013/04/11,,,2018/03/02,2022/10/26,야간연장,1,2,3,0,0,0,2,0,0,8,0,0,0,0,0,0,0,0,0,0,,,,,,,,,,,,,,,,2022/10/26 22:01:54,원효로2동
용산구,11170000177,딩동댕어린이집,가정,정상,4358,"서울특별시 용산구 효창원로 17 101동 101호(산천동,리버힐삼성아파트)",02-6010-5437,02-6010-5437,,4,76,0,5,9,20,19,37.5349978094381,126.949091822138,미운영,2013/04/01,,,,2022/10/26,일반,2,1,1,0,0,0,4,0,0,8,6,4,5,0,0,0,4,0,0,19,50,25,13,0,13,true,7,0,거짓,0,0,0,0,0,9,2022/10/26 22:01:54,원효로2동
용산구,11170000158,행복한어린이집,민간,정상,4368,서울특별시 용산구 원효로 216 신계동49 이편한테마트 1층 101호,02-711-6401,02-6401-9355,,4,101,0,5,8,32,31,37.5339696378575,126.95522925384,미운영,2011/11/15,,,,2022/10/26,일반,0,2,3,0,0,0,0,0,0,5,0,10,21,0,0,0,0,0,0,31,50,0,33,17,0,true,6,0,거짓,0,0,0,1,0,8,2022/10/26 22:01:55,원효로2동
용산구,11170000152,한강수어린이집,가정,폐지,4360,"서울특별시 용산구 효창원로8길 16 101동 103호(원효로4가, 한성한강수아파트)",02-3273-3244,,,4,53,0,0,0,20,0,37.5334175,126.9514229,미운영,2011/02/16,,,2014/04/22,2022/10/26,야간연장,0,0,1,0,0,0,2,0,0,3,0,0,0,0,0,0,0,0,0,0,,,,,,,,,,,,,,,,2022/10/26 22:01:55,원효로2동
용산구,11170000141,맘앤키즈어린이집,가정,정상,4358,"서울특별시 용산구 효창원로 17 107동 105호(산천동, 삼성리버힐아파트)",02-719-4183,,,3,84,1,4,7,20,20,37.53487888,126.9508027,미운영,2010/04/01,,,,2022/10/26,일반,1,1,1,0,0,0,4,0,0,7,3,5,6,0,0,0,6,0,0,20,17,0,0,50,33,true,5,0,거짓,0,0,0,0,0,7,2022/10/26 22:01:54,원효로2동
용산구,11170000123,피노키오어린이집,가정,폐지,4365,"서울특별시 용산구 원효로 40 101동 105호(원효로4가, 강변삼성아파트)",02-706-3085,02-706-3085,yus3085@naver.com,3,60,1,4,0,20,0,37.53410905,126.9486366,미운영,2009/03/02,,,2017/05/01,2022/10/26,야간연장,0,2,1,0,0,0,3,0,0,6,0,0,0,0,0,0,0,0,0,0,,,,,,,,,,,,,,,,2022/10/26 22:01:55,원효로2동
용산구,11110000109,아름다운어린이집,민간,폐지,4360,서울특별시 용산구 원효로 67-8,02-718-7357,02-718-7358,,1,102,0,0,0,39,0,37.53324035,126.9516663,운영,2008/01/04,,,2015/02/28,2022/10/26,일반,0,4,5,0,0,0,0,0,0,9,0,0,0,0,0,0,0,0,0,0,,,,,,,,,,,,,,,,2022/10/26 22:01:55,원효로2동
용산구,11170000104,또래어린이집,민간,폐지,4361,서울특별시 용산구 원효로35길 37-7,02-704-8717,,,5,70,1,0,0,26,0,37.53487239,126.9551522,운영,2006/12/01,,,2016/02/29,2022/10/26,야간연장,0,0,1,1,0,0,6,0,0,8,0,0,0,0,0,0,0,0,0,0,,,,,,,,,,,,,,,,2022/10/26 22:01:54,원효로2동
용산구,11170000083,선인방과후교실어린이집,법인?단체등,정상,4360,서울특별시 용산구 효창원로8길 17 선인중앙교회 (원효로4가),02-718-0691,02-717-7103,,3,105,0,1,1,20,16,37.53389122,126.9521087,미운영,2006/04/06,,,,2022/10/26,방과후 전담,0,0,0,0,0,0,0,0,0,0,0,0,0,0,0,0,0,0,0,0,100,0,0,0,0,true,0,0,거짓,0,0,0,0,0,1,2022/10/26 22:01:54,원효로2동
용산구,11170000053,성심 어린이집,민간,폐지,4362,서울특별시 용산구 원효로25길 16-5 (원효로4가),02-704-3005,02-704-3005,s79156@nate.com,5,55,0,6,0,32,0,37.53291064,126.9534009,운영,2003/08/08,,,2018/03/02,2022/10/26,야간연장,0,0,1,0,0,0,4,1,0,6,0,0,0,0,0,0,0,0,0,0,,,,,,,,,,,,,,,,2022/10/26 22:01:54,원효로2동
용산구,11170000039,아가꿈어린이집,가정,재개,4362,"서울특별시 용산구 원효로25길 14 라동 518호(원효로4가, 풍전)",02-719-2288,02-717-8106,,5,100,0,5,4,20,3,37.53433337,126.95147,미운영,1993/03/28,,,,2022/10/26,"영아전담,야간연장",1,0,0,0,0,0,0,0,0,1,3,0,0,0,0,0,0,0,0,3,100,0,0,0,0,true,2,0,거짓,0,0,0,1,0,4,2022/10/26 22:01:55,원효로2동
용산구,11170000014,원효어린이집,국공립,정상,4363,서울특별시 용산구 원효로41가길 14-19,02-704-2463,02-711-2463,http://cafe.daum.net/wonhyokids,5,386,1,9,12,89,50,37.53480088,126.9566433,미운영,1989/11/30,,,,2022/10/26,야간연장,0,0,2,1,0,0,4,2,0,9,0,0,7,11,0,0,6,26,0,50,11,0,44,33,11,true,9,0,거짓,0,0,0,1,0,12,2022/10/26 22:01:55,원효로2동
용산구,11170000205,용산캐슬어린이집,국공립,정상,4317,"서울특별시 용산구 백범로 313 키즈클럽(효창동,롯데캐슬센터포레)",02-712-7942,02-712-7943,,3,171,1,7,10,24,24,37.5398174501512,126.963073585923,미운영,2020/02/04,,,,2022/10/26,일반,2,1,0,0,0,0,3,0,0,6,6,5,0,0,0,0,13,0,0,24,57,14,29,0,0,true,7,0,거짓,0,0,0,1,0,10,2022/10/26 22:01:55,효창동
용산구,11170000202,작은별어린이집,가정,폐지,4311,서울특별시 용산구 효창원로93길 12 1층,02-6367-0707,02-6261-0867,,2,52,0,6,0,15,0,37.5485354469,126.9628418282,미운영,2018/04/26,,,2022/03/01,2022/10/26,일반,1,0,0,0,0,0,1,0,0,2,0,0,0,0,0,0,0,0,0,0,,,,,,,,,,,,,,,,2022/10/26 22:01:55,효창동
용산구,11170000190,푸른꿈어린이집,국공립,정상,4355,"서울특별시 용산구 백범로 260 효창파크푸르지오아파트 104동, 1층",02-719-9989,02-719-9979,,3,70,0,4,8,20,20,37.5402393423765,126.958332377708,미운영,2017/03/20,,,,2022/10/26,야간연장,0,2,1,0,0,0,2,0,0,5,0,7,5,0,0,0,8,0,0,20,14,29,29,29,0,true,6,0,거짓,0,0,0,1,0,8,2022/10/26 22:01:55,효창동
용산구,11170000166,아이누리어린이집,가정,폐지,4311,서울특별시 용산구 효창원로93길 12,02-718-0866,02-6261-0867,,2,43,0,3,0,14,0,37.5485288063733,126.962829263887,미운영,2012/03/22,,,2018/04/25,2022/10/26,일반,1,1,1,0,0,0,1,0,0,4,0,0,0,0,0,0,0,0,0,0,,,,,,,,,,,,,,,,2022/10/26 22:01:55,효창동
용산구,11170000151,효창푸르지오어린이집,민간,폐지,4355,서울특별시 용산구 백범로 260 효창파크푸르지오아파트 관리동 (효창동),02-715-9988,02-715-9986,kyseri@naver.com,3,56,1,3,0,21,0,37.54019329,126.9581399,미운영,2011/02/28,,,2017/02/28,2022/10/26,일반,0,1,2,1,0,0,1,0,0,5,0,0,0,0,0,0,0,0,0,0,,,,,,,,,,,,,,,,2022/10/26 22:01:55,효창동
용산구,11170000035,꿈꾸는어린이집,가정,정상,4319,"서울특별시 용산구 효창원로69길 57 101동 104호(효창동, 효창베네스빌)",02-719-6545,02-719-6545,,3,52,0,3,7,18,18,37.54166978,126.9612742,미운영,2009/03/05,,,,2022/10/26,일반,0,1,1,0,0,0,4,0,0,6,0,0,7,0,0,0,11,0,0,18,50,33,0,0,17,true,5,0,거짓,0,0,0,0,0,7,2022/10/26 22:01:54,효창동
용산구,11170000106,돈우어린이집,가정,폐지,4363,서울특별시 용산구 효창원로 88 브라운스톤용산 104동 103호,02-701-3113,02-701-3330,,3,67,1,4,0,20,0,37.54850957,126.9628134,미운영,2007/05/04,,,2017/09/30,2022/10/26,야간연장,2,2,1,0,0,0,5,0,0,10,0,0,0,0,0,0,0,0,0,0,,,,,,,,,,,,,,,,2022/10/26 22:01:54,효창동
용산구,11170000036,백송어린이집,국공립,정상,4312,서울특별시 용산구 효창원로76길 25-6,02-718-3103,02-703-6103,,6,349,1,10,13,79,53,37.54354693,126.9633574,미운영,2004/08/31,,,,2022/10/26,"장애아통합,야간연장",0,3,2,1,1,1,0,4,3,15,0,12,8,0,0,0,0,30,3,53,27,9,36,0,27,true,9,2,거짓,0,0,0,1,0,13,2022/10/26 22:01:54,효창동
용산구,11170000043,대성어린이집,민간,정상,4318,서울특별시 용산구 백범로51길 1 (효창동),02-713-0344,,,4,93,0,7,7,31,17,37.54059605,126.958854,미운영,2004/02/28,,,,2022/10/26,야간연장,4,2,2,0,0,0,1,0,0,9,9,5,0,0,0,0,3,0,0,17,17,0,50,17,17,true,5,0,거짓,0,0,0,0,0,7,2022/10/26 22:01:54,효창동
용산구,11170000100,효창방과후어린이집,법인?단체등,정상,4317,서울특별시 용산구 효창원로 146-12,070-4713-9433,02-711-3364,www.hyochang.or.kr,1,177,0,1,2,20,20,37.54123427,126.9629821,미운영,2002/08/02,,,,2022/10/26,방과후 전담,0,0,0,0,0,0,0,0,0,0,0,0,0,0,0,0,0,0,0,0,0,0,0,0,100,true,0,0,거짓,0,0,0,0,0,2,2022/10/26 22:01:55,효창동
용산구,11170000063,효창어린이집,민간,정상,4319,서울특별시 용산구 효창원로69길 14-3 (효창동),02-711-5408,02-3272-5061,,7,238,2,15,17,84,60,37.53984324,126.9621821,운영,1999/03/02,,,,2022/10/26,일반,3,2,1,0,0,0,4,2,0,12,5,9,7,0,0,0,14,25,0,60,64,0,14,14,7,true,14,0,거짓,0,0,0,1,0,17,2022/10/26 22:01:55,효창동
용산구,11170000059,상록어린이집,민간,정상,4319,서울특별시 용산구 백범로45길 4 (효창동),02-715-1009,02-715-4008,http://cafe.daum.net/srchild,7,410,1,10,22,99,95,37.54095702,126.9583035,운영,1995/11/20,,,,2022/10/26,일반,3,4,2,2,1,1,0,0,0,13,6,20,14,20,16,19,0,0,0,95,56,13,13,0,19,true,16,0,거짓,0,0,0,2,0,22,2022/10/26 22:01:54,효창동
용산구,11170000062,초록별어린이집,민간,폐지,4317,서울특별시 용산구 효창원로64길 32 (효창동),02-3272-5010,02-3272-5061,,1,210,1,0,0,64,0,37.54031286,126.9635357,운영,1995/05/23,,,2016/05/01,2022/10/26,일반,0,2,1,0,1,0,3,3,0,10,0,0,0,0,0,0,0,0,0,0,,,,,,,,,,,,,,,,2022/10/26 22:01:55,효창동
용산구,11170000050,만리현어린이집,법인?단체등,폐지,4311,서울특별시 용산구 효창원로93길 24 (효창동),02-716-5211,02-716-5210,,5,316,1,0,0,79,0,37.54818285,126.9619307,미운영,1984/05/04,,,2016/02/02,2022/10/26,야간연장,0,1,2,1,0,0,0,1,0,5,0,0,0,0,0,0,0,0,0,0,,,,,,,,,,,,,,,,2022/10/26 22:01:54,효창동
용산구,11170000041,도담어린이집,가정,폐지,4354,서울특별시 용산구 새창로 70 105동 101호,070-4407-2993,02-703-2993,,3,56,1,3,0,19,0,37.5380714684588,126.955671798864,미운영,2013/03/07,,,2022/03/01,2022/10/26,일반,2,1,1,0,0,0,3,0,0,7,0,0,0,0,0,0,0,0,0,0,,,,,,,,,,,,,,,,2022/10/26 22:01:54,용문동
용산구,11170000146,숲속키즈어린이집,가정,정상,4354,"서울특별시 용산구 새창로 70 103동 102호 (도원동,삼성래미안아파트)",02-702-5437,,,3,84,0,4,7,20,19,37.53643829,126.9591188,미운영,2010/10/05,,,,2022/10/26,야간연장,3,2,1,1,0,0,3,0,0,10,9,4,6,0,0,0,0,0,0,19,50,17,17,0,17,true,5,0,거짓,0,0,0,0,0,7,2022/10/26 22:01:55,용문동
용산구,11170000145,도원삼성어린이집,가정,정상,4356,"서울특별시 용산구 새창로 70 112동 104호(도원동, 삼성래미안아파트)",02-712-4242,,,3,55,0,4,8,20,19,37.5383072,126.9552593,미운영,2010/09/30,,,,2022/10/26,일반,3,1,1,0,0,0,4,0,0,9,9,5,0,0,0,0,5,0,0,19,43,0,43,0,14,true,6,0,거짓,0,0,0,0,0,8,2022/10/26 22:01:54,용문동
용산구,11170000111,천사어린이집,가정,폐지,4356,"서울특별시 용산구 새창로 70 103동 102호(도원동, 삼성래미안아파트)",02-713-9373,02-713-9373,,3,55,1,4,0,20,0,37.5383072,126.9552593,미운영,2008/10/14,,,2021/03/01,2022/10/26,야간연장,3,1,1,1,0,0,6,0,0,12,0,0,0,0,0,0,0,0,0,0,,,,,,,,,,,,,,,,2022/10/26 22:01:55,용문동
용산구,11170000085,참나무방과후 어린이집,법인?단체등,정상,4356,서울특별시 용산구 새창로12길 11-18 용산제일교회내 참나무방과후교실 (도원동),02-714-0693,,,3,146,0,3,3,40,26,37.53871489,126.9581627,미운영,2005/01/25,,,,2022/10/26,방과후 전담,0,0,0,0,0,0,0,0,0,0,0,0,0,0,0,0,0,0,0,0,50,0,0,0,50,true,2,0,거짓,0,0,0,0,0,3,2022/10/26 22:01:55,용문동
용산구,11170000098,둥지어린이집,민간,폐지,4356,서울특별시 용산구 효창원로25다길 38 (용문동),02-3275-0984,02-3275-0986,http://cafe.daum.net/doongjikids,6,249,2,0,0,64,0,37.53795781,126.9574242,운영,2003/11/11,,,2017/03/10,2022/10/26,일반,0,3,3,2,0,1,1,3,0,13,0,0,0,0,0,0,0,0,0,0,,,,,,,,,,,,,,,,2022/10/26 22:01:54,용문동
용산구,11170000080,새랑꿈이랑 어린이집,민간,정상,4354,서울특별시 용산구 새창로 70 삼성래미안아파트 단지내 (도원동),02-3273-2992,02-3273-2993,http://cafe.daum.net/serang1004,9,309,1,12,17,117,94,37.5383072,126.9552593,미운영,2003/01/24,,,,2022/10/26,일반,2,5,5,2,1,1,1,4,0,21,5,15,35,13,0,0,0,26,0,94,43,7,43,7,0,true,14,0,거짓,0,0,0,1,0,17,2022/10/26 22:01:54,용문동
용산구,11170000073,새날어린이집,민간,정상,4354,서울특별시 용산구 새창로8길 7 삼성래미안아파트 2단지내 관리동1층 (도원동),02-718-6635,02-711-6635,,4,99,0,4,12,31,30,37.5383072,126.9552593,운영,2002/02/22,,,,2022/10/26,일반,3,2,1,0,0,0,1,0,0,7,9,9,7,0,0,0,5,0,0,30,78,0,11,0,11,true,9,0,거짓,0,0,0,0,0,12,2022/10/26 22:01:54,용문동
용산구,11170000022,도원어린이집,국공립,정상,4356,서울특별시 용산구 효창원로37마길 8 도원어린이집 (용문동),02-701-1284,02-701-1287,,5,160,2,12,16,70,59,37.53825626,126.9585708,미운영,1995/05/01,,,,2022/10/26,야간연장,3,2,2,1,0,0,0,3,0,11,9,10,14,0,0,0,0,26,0,59,46,23,23,8,0,true,13,0,거짓,0,0,0,1,0,16,2022/10/26 22:01:54,용문동
용산구,11170000153,서머힐어린이집,가정,정상,4392,"서울특별시 용산구 장문로 27 상가동, 102호 (이태원동, 청화아파트)",02-6241-0081,070-4795-0081,http://cafe.daum.net/summerhillyongsan,3,70,0,4,8,20,20,37.5291083519578,126.993673571741,미운영,2022/01/26,,,,2022/10/26,야간연장,2,2,0,0,0,0,2,0,0,6,6,6,0,0,0,0,8,0,0,20,57,0,29,0,14,true,6,0,거짓,0,0,0,0,0,8,2022/10/26 22:01:54,이태원1동
용산구,11170000157,하랑어린이집,가정,정상,4392,서울특별시 용산구 장문로 27 청화아파트 3동 103호,02-797-3103,,,3,66,0,4,6,20,11,37.530752957228,126.994756127183,미운영,2011/11/10,,,,2022/10/26,일반,1,1,1,0,0,0,2,0,0,5,3,0,0,0,0,0,8,0,0,11,20,20,20,20,20,true,4,0,거짓,0,0,0,0,0,6,2022/10/26 22:01:55,이태원1동
용산구,11170000140,용산구청직장어린이집,직장,정상,4390,서울특별시 용산구 녹사평대로 150 종합행정타운 1층 (이태원동),02-794-2543,02-794-2544,,5,193,1,10,14,73,48,37.53244208,126.9903466,미운영,2010/04/13,,,,2022/10/26,일반,0,1,1,1,1,1,1,0,0,6,0,5,6,15,11,8,3,0,0,48,64,9,9,9,9,true,11,0,거짓,0,0,0,1,0,14,2022/10/26 22:01:55,이태원1동
용산구,11170000051,이태원삼성어린이집,민간,정상,4349,서울특별시 용산구 이태원로27길 34-30,02-3785-2478,02-3785-2477,,4,198,2,23,15,65,47,37.53532514,126.9953858,미운영,1997/04/18,,,,2022/10/26,일반,0,2,2,2,0,0,0,1,0,7,0,10,14,12,0,0,0,11,0,47,33,22,11,11,22,true,9,0,거짓,1,0,0,2,1,15,2022/10/26 22:01:55,이태원1동
용산구,11170000028,사무엘 어린이집,법인?단체등,정상,4351,서울특별시 용산구 이태원로15길 1 (이태원동),02-796-7470,02-792-7470,,4,253,1,7,11,52,39,37.53458993,126.9902135,미운영,1996/03/07,,,,2022/10/26,야간연장,2,0,0,0,0,0,2,2,0,6,6,0,0,0,0,0,8,25,0,39,63,13,25,0,0,true,8,0,거짓,0,0,0,1,0,11,2022/10/26 22:01:54,이태원1동
성동구,11200000384,구립 이편한세상금호어린이집,국공립,정상,4727,"서울특별시 성동구 금호로 140 (금호동1가, e편한세상 금호파크힐스아파트 104동 앞)",02-2282-2018,,http://cafe.daum.net/i-love2018,3,146,1,7,10,43,35,37.5553227446624,127.022606340657,미운영,2017/12/14,,,,2022/10/26,일반,0,2,2,1,0,0,0,0,0,5,0,10,14,11,0,0,0,0,0,35,43,0,0,57,0,true,7,0,거짓,0,0,0,1,0,10,2022/10/26 22:02:05,금호1가동
성동구,11200000335,아이젤어린이집,가정,폐지,4718,"서울특별시 성동구 금호동1가 독서당로 343 201-103(금호동1가, 금호삼성래미안아파트)",02-2298-8022,02-2291-8025,,3,84,0,4,0,19,0,37.5488704402964,127.02800794476,미운영,2013/07/01,,,2020/10/30,2022/10/26,일반,2,1,1,0,0,0,3,0,0,7,0,0,0,0,0,0,0,0,0,0,,,,,,,,,,,,,,,,2022/10/26 22:02:05,금호1가동
성동구,11200000070,구립 벽산어린이집,국공립,정상,4718,"서울특별시 성동구 금호동1가 행당로6길 2 (금호동1가, 금호벽산제2관리소 2층)",02-2296-3062,02-2299-4736,없음,5,320,1,8,14,66,43,37.5553933612572,127.025373448555,운영,2013/05/21,,,,2022/10/26,야간연장,0,1,3,1,0,0,0,1,0,6,0,5,19,9,0,0,0,10,0,43,50,10,30,0,10,true,10,0,거짓,0,0,0,1,0,14,2022/10/26 22:02:05,금호1가동
성동구,11200000332,호야어린이집,가정,폐지,4718,서울특별시 성동구 금호동1가 금호로 100 303-104(금호벽산아파트),02-6071-6557,02-6071-6556,,3,84,0,4,0,20,0,37.55463,127.02586,미운영,2013/04/26,,,2021/02/28,2022/10/26,일반,0,0,0,0,0,0,6,0,0,6,0,0,0,0,0,0,0,0,0,0,,,,,,,,,,,,,,,,2022/10/26 22:02:05,금호1가동
성동구,11200000316,으뜸꼬마숲어린이집,가정,정상,4718,"서울특별시 성동구 금호동1가 독서당로 343 203동 102호 (금호동1가, 삼성래미안아파트)",02-2293-3555,02-2296-3555,,3,85,0,4,7,20,15,37.5490462652336,127.027453508533,미운영,2012/10/08,,,,2022/10/26,일반,2,2,1,0,0,0,1,0,0,6,6,3,6,0,0,0,0,0,0,15,33,33,17,0,17,true,5,0,거짓,0,0,0,0,0,7,2022/10/26 22:02:05,금호1가동
성동구,11200000226,엘림몬테소리어린이집,가정,정상,4718,"서울특별시 성동구 금호로 100 101동 103호(금호동1가, 벽산아파트)",02-2291-2769,,네이버 엘림몬테소리 어린이집,3,75,0,4,7,19,17,37.5505238920891,127.027499316861,미운영,2009/05/25,,,,2022/10/26,일반,2,1,1,0,0,0,0,0,0,4,6,5,6,0,0,0,0,0,0,17,33,0,0,50,17,true,5,0,거짓,0,0,0,0,0,7,2022/10/26 22:02:05,금호1가동
성동구,11200000161,코알라 베이비 어린이집,가정,정상,4718,"서울특별시 성동구 금호로 100 108동 101호(금호동1가, 벽산아파트)",02-2236-7942,02-2297-1070,www.babynkoala.com,3,84,0,4,4,19,2,37.55192909,127.0271854,미운영,2008/12/01,,,,2022/10/26,일반,2,2,2,1,0,0,4,0,0,11,2,0,0,0,0,0,0,0,0,2,33,33,0,33,0,true,2,0,거짓,0,0,0,0,0,4,2022/10/26 22:02:05,금호1가동
성동구,11200000068,꼬마에디슨 어린이집,민간,정상,4718,서울특별시 성동구 금호동1가 금호로 100 벽산아파트 관리동,02-2293-8090,02-2293-8090,없음,5,247,2,7,13,80,42,37.55192909,127.0271854,미운영,2002/01/08,,,,2022/10/26,일반,5,7,6,3,0,0,1,6,0,28,9,20,0,0,0,0,0,0,0,29,46,27,9,18,0,true,11,0,거짓,0,0,0,1,0,13,2022/10/26 22:02:05,금호1가동
성동구,11200000062,중앙 어린이집,민간,폐지,4727,서울특별시 성동구 난계로 13 (금호동1가),02-2295-7602,02-2291-6611,다음카페검색어 성동중앙어린이집,4,136,0,0,0,47,0,37.55331146,127.0244749,운영,2001/03/25,,,2014/03/05,2022/10/26,일반,0,1,2,1,0,0,1,1,0,6,0,0,0,0,0,0,0,0,0,0,,,,,,,,,,,,,,,,2022/10/26 22:02:05,금호1가동
성동구,11200000117,해담솔 어린이집,가정,정상,4718,"서울특별시 성동구 금호로 100 106동 104호(금호동1가, 벽산아파트)",02-2293-8431,,,3,84,0,4,6,19,16,37.55192909,127.0271854,미운영,2000/10/13,,,,2022/10/26,일반,2,2,2,0,0,0,2,0,0,8,3,0,10,0,0,0,3,0,0,16,20,0,40,0,40,true,4,0,거짓,0,0,0,0,0,6,2022/10/26 22:02:05,금호1가동
성동구,11200000044,예원몬테소리 어린이집,민간,폐지,4718,서울특별시 성동구 금호동1가 금호로 70 2층,02-2296-9946,02-2295-9946,http://club.cyworld.com/happiness2009,5,101,0,0,0,39,0,37.54949637,127.026212,운영,1999/06/11,,,2013/07/02,2022/10/26,일반,0,1,1,0,0,0,0,1,0,3,0,0,0,0,0,0,0,0,0,0,,,,,,,,,,,,,,,,2022/10/26 22:02:05,금호1가동
성동구,11200000031,본향어린이집,법인?단체등,정상,4721,서울특별시 성동구 난계로 61  -46 본향어린이집,02-2291-2350,,(http://cafe.daum.net/bon2350),5,227,1,8,17,79,79,37.55757731,127.0229887,운영,1996/07/25,,,,2022/10/26,일반,0,2,2,2,0,1,0,1,0,8,0,10,14,18,0,20,0,17,0,79,67,8,17,0,8,true,12,0,거짓,0,0,0,1,0,17,2022/10/26 22:02:05,금호1가동
성동구,11200000035,구립 금일어린이집,국공립,정상,4718,서울특별시 성동구 난계로 18 (금호동1가),02-2291-8629,02-2291-8628,cafe.daum.net/keum-il 구립금일어린이집,5,254,2,18,20,91,80,37.55368497,127.0248605,미운영,1983/09/12,,,,2022/10/26,"장애아통합,야간연장",0,2,2,1,1,1,1,0,2,10,0,10,14,15,15,16,5,0,5,80,25,25,13,13,25,true,16,0,거짓,0,0,0,2,0,20,2022/10/26 22:02:05,금호1가동
성동구,11200000017,구립 대현어린이집,국공립,정상,4721,서울특별시 성동구 행당로 15 (금호동1가),02-2299-5935,02-2299-6935,http://iseoul.seoul.go.kr/homepage/main.do?stCode=11200000017,5,170,2,12,13,79,53,37.55486873,127.0216773,미운영,1983/09/01,,,,2022/10/26,야간연장,0,2,2,1,1,1,0,0,0,7,0,10,14,13,7,9,0,0,0,53,80,20,0,0,0,true,10,0,거짓,0,0,0,1,0,13,2022/10/26 22:02:05,금호1가동
성동구,11200000014,구립 금봉어린이집,국공립,정상,4719,서울특별시 성동구 독서당로57가길 24 금봉어린이집,02-2291-5803,02-2291-5809,http://cafe.daum.net/kbkids,5,224,1,12,14,79,75,37.55361447,127.0277837,운영,1983/07/14,,,,2022/10/26,야간연장,0,2,2,1,0,1,0,1,0,7,0,10,14,15,0,19,0,17,0,75,64,0,9,9,18,true,11,0,거짓,0,0,0,1,0,14,2022/10/26 22:02:05,금호1가동
성동구,11200000385,구립 힐스테이트서울숲리버어린이집,국공립,정상,4743,서울특별시 성동구 금호동4가 금호로 40 힐스테이트서울숲리버아파트 관리동,02-2295-7100,02-2295-7101,,4,206,1,11,12,60,39,37.5467040992,127.0255334536,미운영,2017/12/14,,,,2022/10/26,일반,2,2,2,1,0,0,0,1,0,8,6,10,14,9,0,0,0,0,0,39,22,44,22,11,0,true,9,0,거짓,0,0,0,1,0,12,2022/10/26 22:02:05,금호4가동
성동구,11200000353,하나린어린이집,민간,폐지,4737,서울특별시 성동구 금호동4가 독서당로48길 6,02-2299-3633,,,4,108,0,0,0,33,0,37.5475553830311,127.021840155139,,2014/09/24,,,2015/06/16,2022/10/26,일반,1,0,0,0,0,0,3,1,0,5,0,0,0,0,0,0,0,0,0,0,,,,,,,,,,,,,,,,2022/10/26 22:02:05,금호4가동
성동구,11200000331,구립 서울숲어린이집,국공립,정상,4737,서울특별시 성동구 금호동4가 금호로 17 서울숲 푸르지오2차 관리동,02-2295-2333,02-2295-4333,seoul2333@hanmail.net,4,149,1,9,10,45,39,37.5462359400747,127.023808744265,미운영,2013/03/12,,,,2022/10/26,야간연장,0,3,2,1,0,0,0,0,0,6,0,15,14,10,0,0,0,0,0,39,38,25,0,25,13,true,8,0,거짓,0,0,0,1,0,10,2022/10/26 22:02:05,금호4가동
성동구,11200000327,키즈코아어린이집,가정,폐지,4740,서울특별시 성동구 금호동4가 금호로 15 101동 102호,02-2298-4270,,,4,61,0,0,0,20,0,37.5437868119511,127.022744925544,미운영,2013/02/28,,,2015/03/31,2022/10/26,일반,1,2,0,0,0,0,2,0,0,5,0,0,0,0,0,0,0,0,0,0,,,,,,,,,,,,,,,,2022/10/26 22:02:05,금호4가동
성동구,11200000321,한별어린이집,가정,폐지,4740,"서울특별시 성동구 금호동4가 금호로 15 109-103(금호4가동, 서울숲푸르지오1차)",02-2281-9878,02-2281-9878,,3,62,0,4,0,20,0,37.546968871885,127.024058479386,미운영,2012/11/22,,,2021/02/28,2022/10/26,일반,1,2,1,1,0,0,5,0,0,10,0,0,0,0,0,0,0,0,0,0,,,,,,,,,,,,,,,,2022/10/26 22:02:05,금호4가동
성동구,11200000318,예인꼬마숲어린이집,가정,정상,4740,서울특별시 성동구 금호동4가 금호로 15 서울숲푸르지오 1차 105동 102호,02-2296-8665,,꼬마숲어린이집 금호동점,3,86,0,4,8,20,19,37.546968871885,127.024058479386,미운영,2012/10/12,,,,2022/10/26,일반,3,2,1,0,0,0,1,0,0,7,7,0,7,0,0,0,5,0,0,19,57,14,0,14,14,true,6,0,거짓,0,0,0,0,0,8,2022/10/26 22:02:05,금호4가동
성동구,11200000314,토토어린이집,가정,정상,4737,"서울특별시 성동구 금호동4가 금호로 17 203동 104호(금호동4가, 서울숲2차푸르지오)",02-6326-3977,02-6326-3977,,3,95,0,4,7,20,20,37.5468810020801,127.024071481562,미운영,2012/09/19,,,,2022/10/26,일반,3,2,1,0,0,0,1,0,0,7,5,10,0,0,0,0,5,0,0,20,50,0,33,17,0,true,5,0,거짓,0,0,0,0,0,7,2022/10/26 22:02:05,금호4가동
성동구,11200000006,영재원어린이집,민간,폐지,4737,서울특별시 성동구 독서당로48길 6 (금호동4가),02-2291-8423,,,4,124,0,0,0,27,0,37.54753458,127.0218252,미운영,2011/03/01,,,2013/11/20,2022/10/26,일반,1,1,0,0,0,0,3,0,0,5,0,0,0,0,0,0,0,0,0,0,,,,,,,,,,,,,,,,2022/10/26 22:02:05,금호4가동
성동구,11200000197,푸르지오 어린이집,가정,정상,4738,"서울특별시 성동구 금호동4가 독서당로 272 102동 101호(금호동4가, 금호동대우아파트)",02-2235-2026,02-2235-2026,,3,84,0,4,9,20,20,37.5459458,127.0195147,미운영,2008/07/04,,,,2022/10/26,일반,2,6,1,0,0,0,6,0,0,15,3,10,0,0,0,0,7,0,0,20,63,13,13,0,13,true,7,0,거짓,0,0,0,0,0,9,2022/10/26 22:02:05,금호4가동
성동구,11200000188,키즈맘 어린이집,가정,폐지,4740,"서울특별시 성동구 금호로 15 101동 101호(금호동4가, 서울숲푸르지오아파트)",02-2298-4290,02-2298-4280,www.cyworld.com,3,101,0,4,0,20,0,37.54472037,127.0223384,미운영,2008/03/25,,,2022/03/01,2022/10/26,일반,1,2,0,0,0,0,1,0,0,4,0,0,0,0,0,0,0,0,0,0,,,,,,,,,,,,,,,,2022/10/26 22:02:05,금호4가동
성동구,11200000177,행복한아기나라 어린이집,가정,폐지,4738,"서울특별시 성동구 독서당로 270 112동 102호(금호동4가, 대우아파트)",02-2294-8663,,http://cafe.naver.com/22948663,3,84,0,4,0,19,0,37.5459458,127.0195147,미운영,2007/11/22,,,2021/02/28,2022/10/26,일반,3,3,3,1,0,0,5,0,0,15,0,0,0,0,0,0,0,0,0,0,,,,,,,,,,,,,,,,2022/10/26 22:02:05,금호4가동
성동구,11200000123,서울숲미래연 어린이집,민간,정상,4740,서울특별시 성동구 금호로 15 서울숲푸르지오아파트 관리동 1층 (금호동4가),02-2298-4280,02-2298-4280,www.cyworld.com,5,275,1,4,12,53,44,37.54472037,127.0223384,운영,2003/04/03,,,,2022/10/26,일반,2,3,4,0,0,0,0,0,0,9,6,14,24,0,0,0,0,0,0,44,50,10,10,10,20,true,10,0,거짓,0,0,0,1,0,12,2022/10/26 22:02:05,금호4가동
성동구,11200000072,하니삐아제 어린이집,민간,정상,4738,서울특별시 성동구 독서당로 272 대우아파트 관리사무소내 하니삐아제 어린이집,02-2297-9501,02-2296-9501,www.hami.ukid.kr,7,247,3,8,16,69,53,37.5459458,127.0195147,운영,2003/01/21,,,,2022/10/26,야간연장,0,5,3,0,0,0,6,1,0,15,0,10,20,0,0,0,17,6,0,53,62,15,15,8,0,true,13,0,거짓,0,0,0,1,0,16,2022/10/26 22:02:05,금호4가동
성동구,11200000019,구립 금사어린이집,국공립,정상,4738,서울특별시 성동구 독서당로46길 26 (금호동4가),02-2293-4544,02-2293-4644,,4,222,1,14,10,59,35,37.54715933,127.022319,미운영,1995/02/08,,,,2022/10/26,야간연장,0,2,2,1,0,0,0,1,0,6,0,10,14,0,0,0,0,11,0,35,57,29,0,0,14,true,7,0,거짓,0,0,0,1,0,10,2022/10/26 22:02:05,금호4가동
성동구,11200000388,구립 트리마제어린이집,국공립,정상,4773,"서울특별시 성동구 성수동1가 왕십리로 16 관리동 (성수동1가, 트리마제)",02-465-7717,02-465-7718,www.kidsnote.com,3,200,0,6,12,34,30,37.5392561544,127.0446711778,미운영,2018/01/08,,,,2022/10/26,일반,3,2,2,0,0,0,0,0,0,7,9,10,11,0,0,0,0,0,0,30,56,22,22,0,0,true,9,0,거짓,0,0,0,1,0,12,2022/10/26 22:02:05,성수1가1동
성동구,11200000060,구립 빛초롱어린이집,국공립,정상,4773,서울특별시 성동구 왕십리로 36 강변건영아파트 관리동 2층 (성수동1가),02-499-8599,02-499-8598,cafe.daum/kybitcholong,5,130,0,8,9,30,27,37.54034501,127.0450335,미운영,2013/01/01,,,,2022/10/26,야간연장,2,2,1,0,0,0,1,0,0,6,6,10,6,0,0,0,5,0,0,27,29,0,29,0,43,true,7,0,거짓,0,0,0,1,0,9,2022/10/26 22:02:05,성수1가1동
성동구,11200000033,구립 성원어린이집,국공립,정상,4780,서울특별시 성동구 뚝섬로3길 18 (성수동1가),02-461-1690,02-461-1691,sw.ukid.kr,5,205,2,8,14,77,65,37.54188615,127.0496567,미운영,2005/12/05,,,,2022/10/26,"장애아통합,야간연장",0,1,2,1,1,1,0,0,2,8,0,5,14,15,8,18,0,0,5,65,73,0,18,0,9,true,11,0,거짓,0,0,0,1,0,14,2022/10/26 22:02:05,성수1가1동
성동구,11200000079,별초롱 어린이집,민간,정상,4774,서울특별시 성동구 성수동1가 성덕정길 25-96,02-468-0190,02-468-0190,,5,210,0,5,12,47,39,37.53974058,127.0472851,운영,2005/01/27,,,,2022/10/26,야간연장,2,2,2,0,0,0,4,2,0,12,3,5,7,0,0,0,11,13,0,39,70,0,30,0,0,true,10,0,거짓,0,0,0,1,0,12,2022/10/26 22:02:05,성수1가1동
성동구,11200000076,뽀뽀뽀어린이집,민간,폐지,4774,서울특별시 성동구 성덕정길 45 (성수동1가),02-467-8195,02-466-8195,,3,94,0,5,0,22,0,37.53863368,127.0486864,미운영,2001/01/02,,,2021/03/20,2022/10/26,야간연장,1,1,1,0,0,0,2,0,0,5,0,0,0,0,0,0,0,0,0,0,,,,,,,,,,,,,,,,2022/10/26 22:02:05,성수1가1동
성동구,11200000024,구립 진터마루어린이집,국공립,정상,4774,서울특별시 성동구 둘레3길 18 (성수동1가),02-2205-5004,02-498-6794,http://jintu.kidis.co.kr,6,192,1,16,15,96,62,37.53871802,127.0474124,미운영,1999/11/11,,,,2022/10/26,"장애아통합,야간연장",2,2,2,1,1,1,0,0,0,9,6,10,13,14,9,10,0,0,0,62,27,0,9,18,46,true,11,0,거짓,0,0,0,2,0,15,2022/10/26 22:02:05,성수1가1동
성동구,11200000081,경성 어린이집,민간,폐지,4775,서울특별시 성동구 성덕정길 56 (성수동1가),02-3409-3324,02-3409-3354,,4,165,0,6,0,32,0,37.53806318,127.0495649,운영,1998/01/12,,,2017/09/30,2022/10/26,일반,3,2,1,0,0,0,4,1,0,11,0,0,0,0,0,0,0,0,0,0,,,,,,,,,,,,,,,,2022/10/26 22:02:05,성수1가1동
성동구,11200000040,개나리동산어린이집,법인?단체등,정상,4774,서울특별시 성동구 둘레5길 14-1,02-469-1325,02-469-1325,dongsan1325@daum.net,3,85,2,4,5,44,7,37.53811167,127.0483129,미운영,1997/11/17,,,,2022/10/26,야간연장,0,1,1,0,0,0,0,0,0,2,0,3,4,0,0,0,0,0,0,7,50,0,0,50,0,true,2,0,거짓,0,0,0,1,0,5,2022/10/26 22:02:05,성수1가1동
성동구,11200000350,구립 성이어린이집,국공립,정상,4776,서울특별시 성동구 성수동2가 성수이로6길 10-2,02-464-5757,02-464-5454,sunge2014@hanmail.net,4,118,1,12,7,44,40,37.536458651726,127.055092393669,미운영,2014/07/31,,,,2022/10/26,야간연장,0,3,2,1,0,0,0,0,0,6,0,15,14,11,0,0,0,0,0,40,40,0,40,0,20,true,5,0,거짓,0,0,0,1,0,7,2022/10/26 22:02:05,성수2가1동
성동구,11200000288,이마트어린이집,직장,정상,4781,서울특별시 성동구 성수동2가 뚝섬로 377,02-380-9105,,,3,79,0,8,10,28,21,37.5400204028534,127.052908955709,미운영,2011/03/01,,,,2022/10/26,일반,0,2,3,2,0,0,0,0,0,7,0,5,9,7,0,0,0,0,0,21,86,14,0,0,0,true,7,0,거짓,0,0,0,2,0,10,2022/10/26 22:02:05,성수2가1동
성동구,11200000283,힐스테이트 어린이집,민간,정상,4780,서울특별시 성동구 성수일로4길 26 서울숲힐스테이트 아파트 단지내 관리노인정 1층 (성수동2가),02-466-5331,,다음카페(힐스테이어린이집),3,141,1,5,9,28,28,37.54123386,127.0521307,미운영,2010/06/17,,,,2022/10/26,일반,2,2,2,0,0,0,0,0,0,6,6,9,13,0,0,0,0,0,0,28,71,29,0,0,0,true,7,0,거짓,0,0,0,1,0,9,2022/10/26 22:02:05,성수2가1동
성동구,11200000282,초록향기어린이집,가정,폐지,4775,"서울특별시 성동구 성수동2가 성수이로 3 101동 103호(성수동2가, 한신한강아파트)",02-2215-0003,02-2215-0003,http://club.cyworld.com/greenchild,3,84,0,7,0,19,0,37.5359122392126,127.052014479856,미운영,2010/02/23,,,2020/03/01,2022/10/26,일반,2,0,1,0,0,0,5,0,0,8,0,0,0,0,0,0,0,0,0,0,,,,,,,,,,,,,,,,2022/10/26 22:02:05,성수2가1동
성동구,11200000203,임광 어린이집,가정,폐지,4776,"서울특별시 성동구 둘레19길 5 102동 101호(성수동2가, 강변임광아파트)",02-498-1979,02-498-1979,,3,59,0,0,0,13,0,37.53508412,127.0571825,미운영,2008/11/03,,,2014/03/05,2022/10/26,일반,0,1,0,0,0,0,2,0,0,3,0,0,0,0,0,0,0,0,0,0,,,,,,,,,,,,,,,,2022/10/26 22:02:05,성수2가1동
성동구,11200000094,딩동댕어린이집,민간,정상,4775,서울특별시 성동구 둘레13길 15 (성수동2가),02-497-1919,02-466-8195,http://dingdong.ukid.kr,4,122,0,7,11,46,35,37.53610286,127.052973,운영,2005/12/30,,,,2022/10/26,야간연장,0,1,2,0,0,0,2,1,0,6,0,3,13,0,0,0,6,13,0,35,25,25,13,0,38,true,8,0,거짓,0,0,0,1,0,11,2022/10/26 22:02:05,성수2가1동
성동구,11200000097,즐거운어린이집,가정,정상,4776,서울특별시 성동구 둘레15길 15-1,02-469-9566,02-469-9566,joykids.ukid.kr,3,59,0,9,4,19,19,37.53622527,127.0554313,미운영,2005/01/20,,,,2022/10/26,일반,0,0,2,0,0,0,4,2,0,8,0,0,6,0,0,0,2,11,0,19,75,25,0,0,0,true,3,0,거짓,0,0,0,0,0,4,2022/10/26 22:02:05,성수2가1동
성동구,11200000085,리라 어린이집,민간,폐지,4776,서울특별시 성동구 성수이로6길 10-2,02-468-6159,02-468-6158,http://cafe.daum.net/sungsulila,4,210,1,0,0,39,0,37.53644409,127.0550778,미운영,2002/09/16,,,2013/03/07,2022/10/26,일반,0,1,1,0,0,0,2,1,0,5,0,0,0,0,0,0,0,0,0,0,,,,,,,,,,,,,,,,2022/10/26 22:02:05,성수2가1동
성동구,11200000156,광개토어린이집,민간,폐지,4776,서울특별시 성동구 성수동2가 둘레21길 15 (성수동2가),02-498-4980,02-498-4985,,4,184,1,0,0,43,0,37.5358233777606,127.057133038346,미운영,2001/02/28,,,2015/10/08,2022/10/26,일반,0,1,2,0,0,0,1,1,0,5,0,0,0,0,0,0,0,0,0,0,,,,,,,,,,,,,,,,2022/10/26 22:02:05,성수2가1동
성동구,11200000110,우리두리 어린이집,가정,폐지,4776,서울특별시 성동구 성수동2가 둘레15길 20-17 서울특별시 성동구 성수2가1동 582-1,02-469-3664,02-461-3664,cafe.naver.com/sungsu2ga,3,74,0,0,0,17,0,37.5365663202344,127.056051940823,미운영,2001/02/28,,,2015/08/03,2022/10/26,야간연장,0,0,1,0,0,0,2,0,0,3,0,0,0,0,0,0,0,0,0,0,,,,,,,,,,,,,,,,2022/10/26 22:02:05,성수2가1동
성동구,11200000146,신광성 어린이집,민간,폐지,4777,서울특별시 성동구 성수동2가 뚝섬로 426 2층 신광성 어린이집,02-464-8740,02-497-5762,,4,158,0,4,0,37,0,37.53787702,127.0578172,운영,2000/06/30,,,2020/03/01,2022/10/26,일반,0,3,1,0,0,0,1,1,0,6,0,0,0,0,0,0,0,0,0,0,,,,,,,,,,,,,,,,2022/10/26 22:02:05,성수2가1동
성동구,11200000075,신나는 어린이집,민간,폐지,4786,서울특별시 성동구 동일로 65 (성수동2가),02-469-1999,02-469-1999,주소없음,4,168,0,0,0,39,0,37.53883794,127.0616026,미운영,1998/08/31,,,2015/11/30,2022/10/26,일반,1,1,1,0,0,0,6,2,0,11,0,0,0,0,0,0,0,0,0,0,,,,,,,,,,,,,,,,2022/10/26 22:02:05,성수2가1동
성동구,11200000073,예사랑 어린이집,민간,폐지,4775,서울특별시 성동구 둘레9길 20-5,02-498-9733,02-436-1100,,4,193,0,4,0,39,0,37.53764046,127.0514532,운영,1998/07/21,,,2019/05/10,2022/10/26,야간연장,1,3,2,0,0,0,2,1,0,9,0,0,0,0,0,0,0,0,0,0,,,,,,,,,,,,,,,,2022/10/26 22:02:05,성수2가1동
성동구,11200000118,동화나라 어린이집,가정,폐지,4775,서울특별시 성동구 성수동2가 둘레11가길 9,02-497-1026,02-497-1026,http://cafe.daum.net/donghwa1026,3,85,0,4,0,18,0,37.5368243228797,127.05139507769,미운영,1996/07/26,,,2017/07/31,2022/10/26,일반,1,1,1,0,0,0,2,0,0,5,0,0,0,0,0,0,0,0,0,0,,,,,,,,,,,,,,,,2022/10/26 22:02:05,성수2가1동
성동구,11200000030,구립 성덕어린이집,국공립,정상,4775,서울특별시 성동구 성수이로3길 14-7,02-464-9746,02-466-9748,http://cafe.naver.com/sungduk1004,3,89,1,8,8,44,23,37.53715143,127.0530548,미운영,1992/11/09,,,,2022/10/26,야간연장,2,2,2,0,0,0,0,0,0,6,6,9,8,0,0,0,0,0,0,23,0,50,50,0,0,true,6,0,거짓,0,0,0,1,0,8,2022/10/26 22:02:05,성수2가1동
성동구,11200000365,구립 송정햇살어린이집,국공립,정상,4801,서울특별시 성동구 송정12길 1,02-467-5002,02-466-7368,,6,254,1,17,15,95,69,37.550148537903,127.065481992473,미운영,2015/12/01,,,,2022/10/26,"일반,시간제보육",0,3,2,1,0,0,0,2,0,8,0,15,14,14,0,0,0,26,0,69,25,33,17,17,8,true,12,0,거짓,0,0,0,1,0,15,2022/10/26 22:02:05,송정동
성동구,11200000176,새솔 어린이집,가정,폐지,133757,"서울특별시 성동구 동일로 263 103동 103호(송정동, 건영아파트)",02-462-4917,02-462-4917,,4,84,0,0,0,19,0,37.55592699,127.0708094,,2007/10/08,,,2011/12/06,2022/10/26,일반,0,0,0,0,0,0,2,0,0,2,0,0,0,0,0,0,0,0,0,0,,,,,,,,,,,,,,,,2022/10/26 22:02:05,송정동
성동구,11200000136,건영아이자람어린이집,가정,정상,4800,"서울특별시 성동구 동일로 263 102동 101호(송정동, 건영아파트)",02-466-8417,02-466-8417,,3,84,0,4,6,17,16,37.55592699,127.0708094,미운영,2004/03/25,,,,2022/10/26,일반,2,1,0,0,0,0,1,0,0,4,6,5,0,0,0,0,5,0,0,16,40,40,20,0,0,true,4,0,거짓,0,0,0,0,0,6,2022/10/26 22:02:05,송정동
성동구,11200000088,성진어린이집,민간,폐지,4801,서울특별시 성동구 동일로 221 서울 특별시 성동구 송정동 18-1 (1층),02-466-2389,,,3,137,0,3,0,32,0,37.5516508,127.0690008,미운영,2003/04/18,,,2018/08/08,2022/10/26,일반,0,0,0,0,0,0,1,1,0,2,0,0,0,0,0,0,0,0,0,0,,,,,,,,,,,,,,,,2022/10/26 22:02:05,송정동
성동구,11200000084,행복가득어린이집,민간,정상,4800,서울특별시 성동구 송정18가길 34 (송정동),02-498-7383,02-498-7383,,7,193,0,9,8,45,18,37.55525641,127.0695253,운영,1997/08/08,,,,2022/10/26,야간연장,5,3,2,1,0,1,5,3,0,20,0,0,0,0,0,0,7,11,0,18,50,0,33,17,0,true,6,0,거짓,0,0,0,1,0,8,2022/10/26 22:02:05,송정동
성동구,11200000080,송정어린이집,민간,정상,4801,서울특별시 성동구 동일로 187 (송정동),02-498-6198,02-498-3442,songjung.ukid.kr,3,264,0,8,6,39,6,37.54888600913,127.067490670296,미운영,1996/06/01,,,,2022/10/26,일반,0,2,0,0,0,0,3,1,0,6,0,0,0,0,0,0,4,2,0,6,20,20,40,0,20,true,4,0,거짓,0,0,0,0,0,6,2022/10/26 22:02:05,송정동
성동구,11200000087,유림어린이집,민간,휴지,4801,서울특별시 성동구 광나루로11길 22-1,02-468-8878,02-468-8878,http://doitkka@naver.com,4,210,1,6,0,35,0,37.54981163,127.0668146,운영,1996/05/21,2017/01/02,2017/01/16,,2022/10/26,일반,2,1,1,1,0,0,2,1,0,8,0,0,0,0,0,0,0,0,0,0,,,,,,,,,,,,,,,,2022/10/26 22:02:05,송정동
성동구,11200000051,구립 송화어린이집,국공립,정상,4800,서울특별시 성동구 송정18가길 29 (송정동),02-499-5292,02-465-7333,,6,197,1,32,12,88,46,37.55493618,127.0692508,미운영,1992/02/24,,,,2022/10/26,"장애아통합,야간연장",0,2,2,1,0,0,2,1,1,9,0,10,14,11,0,0,3,8,0,46,30,40,0,30,0,true,10,0,거짓,0,0,0,1,0,12,2022/10/26 22:02:05,송정동
성동구,11200000383,서울교통공사 어린이집,직장,정상,4806,서울특별시 성동구 자동차시장길 22 인재개발원 1층,02-6110-8093,02-6110-8098,https://metrokids.modoo.at/,4,150,0,12,10,49,19,37.5617940964775,127.056433020795,미운영,2017/09/27,,,,2022/10/26,일반,1,2,2,1,0,0,0,0,0,6,3,6,7,3,0,0,0,0,0,19,75,13,13,0,0,true,8,0,거짓,0,0,0,1,0,10,2022/10/26 22:02:05,용답동
성동구,11200000296,사과나무어린이집,가정,폐지,4804,서울특별시 성동구 용답29길 29 덕현해밀아파트 102호,070-7584-6565,02-2215-0343,,3,85,0,4,0,20,0,37.56694667,127.0509775,미운영,2011/08/05,,,2020/04/30,2022/10/26,일반,2,1,1,0,0,0,3,0,0,7,0,0,0,0,0,0,0,0,0,0,,,,,,,,,,,,,,,,2022/10/26 22:02:05,용답동
성동구,11200000210,은광 어린이집,민간,폐지,4805,서울특별시 성동구 용답중앙길 94 진명빌딩 1층 (용답동),02-3394-4620,02-2242-6173,http://cafe.naver.com/33944620,3,61,0,3,0,23,0,37.56189482,127.0550575,미운영,2008/12/15,,,2017/04/30,2022/10/26,일반,2,1,2,0,0,0,2,0,0,7,0,0,0,0,0,0,0,0,0,0,,,,,,,,,,,,,,,,2022/10/26 22:02:05,용답동
성동구,11200000113,예영어린이집,가정,폐지,4804,서울특별시 성동구 용답중앙길 58-12 인삼빌라101호 (용답동),02-2243-0102,,,3,66,0,4,0,15,0,37.5640306161669,127.051970639008,미운영,2005/04/08,,,2020/05/30,2022/10/26,일반,0,0,1,0,0,0,3,0,0,4,0,0,0,0,0,0,0,0,0,0,,,,,,,,,,,,,,,,2022/10/26 22:02:05,용답동
성동구,11200000093,삼성어린이집,민간,폐지,4804,서울특별시 성동구 용답중앙11다길 22 (용답동),02-2244-3775,02-2244-3771,,5,230,1,6,0,44,0,37.56580617,127.0524635,미운영,2005/02/25,,,2022/03/01,2022/10/26,야간연장,0,1,1,0,0,0,2,1,0,5,0,0,0,0,0,0,0,0,0,0,,,,,,,,,,,,,,,,2022/10/26 22:02:05,용답동
성동구,11200000089,새싹어린이집,민간,폐지,4804,서울특별시 성동구 용답중앙길 43 (용답동),02-2215-3787,02-2215-3767,"www.cyworld.com,",3,137,0,4,0,31,0,37.56529536,127.0512384,미운영,2002/02/05,,,2018/03/01,2022/10/26,"야간연장,휴일보육",1,1,1,0,0,0,6,1,0,10,0,0,0,0,0,0,0,0,0,0,,,,,,,,,,,,,,,,2022/10/26 22:02:05,용답동
성동구,11200000041,구립 단비어린이집,국공립,정상,4804,서울특별시 성동구 용답중앙길 49 (용답동),02-2249-3215,02-2242-7488,,5,183,1,12,11,57,26,37.56476418,127.0517421,미운영,1998/06/30,,,,2022/10/26,일반,3,2,2,0,0,0,0,0,0,7,6,10,10,0,0,0,0,0,0,26,25,13,25,0,38,true,8,0,거짓,0,0,0,1,0,11,2022/10/26 22:02:05,용답동
성동구,11200000007,꿈터 어린이집,민간,정상,4805,서울특별시 성동구 용답중앙길 89-2,02-2242-2989,02-2242-9149,,12,750,3,16,29,169,105,37.562335299657,127.055152188811,운영,1997/11/21,,,,2022/10/26,야간연장,3,4,4,3,2,2,0,0,0,18,9,18,23,22,20,13,0,0,0,105,29,21,21,0,29,true,24,0,거짓,0,0,0,2,0,29,2022/10/26 22:02:05,용답동
성동구,11200000106,피노키오어린이집,민간,정상,4805,서울특별시 성동구 용답중앙15길 10 (용답동),02-2215-0526,02-2215-0526,,3,98,0,3,8,23,16,37.56443411,127.0538392,미운영,1992/04/17,,,,2022/10/26,"야간연장,휴일보육,24시간",1,1,2,0,0,0,4,1,0,9,2,0,1,0,0,0,8,5,0,16,29,29,14,14,14,true,6,0,거짓,0,0,0,0,0,8,2022/10/26 22:02:05,용답동
성동구,11200000025,구립 용답어린이집,국공립,정상,4806,서울특별시 성동구 자동차시장길 22 용답어린이집,02-2245-8538,02-2245-8533,http://cafe.naver.com/yongdabkids,13,408,1,23,28,206,127,37.5616001,127.0563991,운영,1983/07/15,,,,2022/10/26,야간연장,3,4,4,2,2,1,0,1,0,17,5,13,25,21,30,18,0,15,0,127,29,19,24,10,19,true,21,0,거짓,1,0,0,2,0,28,2022/10/26 22:02:05,용답동
성북구,11290000630,엔젤어린이집,국공립,정상,2702,"서울특별시 성북구 보국문로 116 , 단지내 1층(정릉동)",02-918-4477,02-918-4477,,4,102,0,6,10,24,24,37.6144973934069,127.007520649311,미운영,2018/06/01,,,,2022/10/26,일반,1,1,2,0,0,0,3,0,0,7,3,5,9,0,0,0,7,0,0,24,25,50,25,0,0,true,8,0,거짓,0,0,0,1,0,10,2022/10/26 22:02:46,정릉4동
성북구,11290000629,파아란어린이집,국공립,정상,2712,"서울특별시 성북구 솔샘로24길 15 , 단지내 1층(정릉동)",02-916-7942,,,5,183,1,7,11,49,41,37.6154815317461,127.01008901605,미운영,2018/06/01,,,,2022/10/26,일반,2,3,2,0,0,0,0,1,0,8,6,15,14,0,0,0,0,6,0,41,89,0,11,0,0,true,9,0,거짓,0,0,0,1,0,11,2022/10/26 22:02:46,정릉4동
성북구,11290000596,한사랑어린이집,국공립,정상,2702,"서울특별시 성북구 솔샘로25길 28 112동 101호(정릉동, 풍림아이원)",02-910-7150,02-910-7150,,3,60,0,4,7,20,20,37.6169480419495,127.008123473955,미운영,2015/09/01,,,,2022/10/26,일반,2,2,2,0,0,0,0,0,0,6,5,9,6,0,0,0,0,0,0,20,33,17,0,33,17,true,5,0,거짓,0,0,0,1,0,7,2022/10/26 22:02:46,정릉4동
성북구,11290000584,원정어린이집,국공립,정상,2701,서울특별시 성북구 보국문로28길 10,02-913-1004,,,6,196,2,14,15,65,47,37.6165625684928,127.00554096897,미운영,2015/03/01,,,,2022/10/26,"장애아통합,야간연장",2,2,2,1,0,0,0,1,1,9,6,9,13,7,0,0,0,9,3,47,39,8,15,8,31,true,13,0,거짓,0,0,0,1,0,15,2022/10/26 22:02:46,정릉4동
성북구,11290000572,성북생명숲어린이집,국공립,정상,2712,서울특별시 성북구 서경로 173,02-3292-1671,02-3292-1633,http://sblife.kidswon.com/,6,317,2,21,14,79,77,37.6160325601005,127.009183535874,미운영,2014/12/01,,,,2022/10/26,야간연장,0,2,2,1,1,1,0,0,0,7,0,10,14,13,20,20,0,0,0,77,50,25,8,0,17,true,12,0,거짓,0,0,0,1,0,14,2022/10/26 22:02:46,정릉4동
성북구,11290000350,힐스테이트 어린이집,가정,폐지,2702,"서울특별시 성북구 보국문로 116 311동 102호(정릉동, 정릉힐스테이트3차아파트)",02-943-0230,02-943-0230,,3,65,0,5,0,20,0,37.61399102,127.0076351,미운영,2008/05/26,,,2020/03/02,2022/10/26,일반,0,2,2,0,0,0,3,0,0,7,0,0,0,0,0,0,0,0,0,0,,,,,,,,,,,,,,,,2022/10/26 22:02:46,정릉4동
성북구,11290000349,정릉현대어린이집,민간,폐지,2702,서울특별시 성북구 보국문로 116 현대 힐스테이트 3차 306동 관리동내 (정릉동),02-918-4477,02-918-4497,,4,76,0,6,0,26,0,37.61444785,127.0077434,미운영,2008/05/15,,,2018/05/31,2022/10/26,일반,0,2,2,0,0,0,1,0,0,5,0,0,0,0,0,0,0,0,0,0,,,,,,,,,,,,,,,,2022/10/26 22:02:46,정릉4동
성북구,11290000346,수아어린이집,가정,폐지,2702,"서울특별시 성북구 보국문로 116 318동 102호(정릉동, 정릉힐스테이트3차아파트)",02-909-4610,02-909-4610,,3,60,0,0,0,15,0,37.61444785,127.0077434,미운영,2008/04/15,,,2016/03/09,2022/10/26,일반,0,1,0,0,0,0,3,0,0,4,0,0,0,0,0,0,0,0,0,0,,,,,,,,,,,,,,,,2022/10/26 22:02:46,정릉4동
성북구,11290000345,보나어린이집,가정,정상,2702,"서울특별시 성북구 보국문로 116 303동 106호(정릉동, 정릉힐스테이트3차아파트)",02-917-4601,02-917-4601,,4,52,0,4,5,15,5,37.61399102,127.0076351,미운영,2008/04/03,,,,2022/10/26,일반,2,1,1,0,0,0,5,0,0,9,2,0,0,0,0,0,3,0,0,5,25,0,25,0,50,true,3,0,거짓,0,0,0,0,0,5,2022/10/26 22:02:46,정릉4동
성북구,11290000343,한사랑어린이집,가정,폐지,2702,"서울특별시 성북구 솔샘로25길 20 112동 101호(정릉동, 풍림아이원)",02-910-7150,02-910-7150,cyworld.com/hanlovekids,4,57,0,6,0,20,0,37.61864386,127.0073048,미운영,2008/02/25,,,2016/03/31,2022/10/26,일반,2,5,2,0,0,0,0,0,0,9,0,0,0,0,0,0,0,0,0,0,,,,,,,,,,,,,,,,2022/10/26 22:02:46,정릉4동
성북구,11290000339,깔깔숲 어린이집,가정,폐지,2702,"서울특별시 성북구 솔샘로25길 20 109동 102호(정릉동, 풍림아이원)",070-7581-1030,02-912-1031,cafe.naver.com/preschoolmaria,3,56,1,4,0,20,0,37.61864386,127.0073048,미운영,2008/02/25,,,2017/02/28,2022/10/26,일반,0,0,0,0,0,0,0,2,0,2,0,0,0,0,0,0,0,0,0,0,,,,,,,,,,,,,,,,2022/10/26 22:02:45,정릉4동
성북구,11290000321,완두콩어린이집,가정,정상,2702,"서울특별시 성북구 솔샘로25길 28 108동 102호(정릉동, 풍림아이원)",02-913-7888,,luck7017@naver.com,5,55,0,5,3,20,6,37.61864386,127.0073048,미운영,2007/10/19,,,,2022/10/26,일반,3,3,0,0,0,0,3,0,0,9,1,0,0,0,0,0,5,0,0,6,33,0,33,0,33,true,2,0,거짓,0,0,0,0,0,3,2022/10/26 22:02:46,정릉4동
성북구,11290000320,금별어린이집,가정,폐지,2702,"서울특별시 성북구 솔샘로25길 28 112동 104호(정릉동, 정릉풍림아이원아파트)",02-983-4958,02-943-4958,".",4,68,0,4,0,19,0,37.61864386,127.0073048,미운영,2007/10/17,,,2018/11/30,2022/10/26,일반,0,0,0,0,0,0,3,0,0,3,0,0,0,0,0,0,0,0,0,0,,,,,,,,,,,,,,,,2022/10/26 22:02:45,정릉4동
성북구,11290000188,라파엘엔젤어린이집,가정,폐지,2712,"서울특별시 성북구 솔샘로24길 15 105동 102호(정릉동, 정릉E-편한세상아파트)",02-916-9878,02-916-9878,,3,57,0,4,0,20,0,37.6150088843987,127.010972974326,미운영,2006/06/28,,,2017/03/01,2022/10/26,일반,1,2,1,0,0,0,2,0,0,6,0,0,0,0,0,0,0,0,0,0,,,,,,,,,,,,,,,,2022/10/26 22:02:46,정릉4동
성북구,11290000019,사랑어린이집,가정,정상,2712,"서울특별시 성북구 솔샘로 120 124동 105호(정릉동, 풍림아이원)",02-913-8931,02-913-8931,,3,46,0,4,7,16,16,37.6171123614712,127.009599357676,미운영,2006/03/17,,,,2022/10/26,야간연장,1,1,1,0,0,0,4,0,0,7,3,0,0,0,0,0,13,0,0,16,50,17,0,33,0,true,5,0,거짓,0,0,0,0,0,7,2022/10/26 22:02:46,정릉4동
성북구,11290000134,연꽃어린이집,법인?단체등,정상,2713,서울특별시 성북구 서경로 108 (정릉동),02-943-7977,02-943-7966,lotusblossom.naver.cafe,5,253,2,12,11,62,51,37.61244834,127.0134241,운영,2004/12/28,,,,2022/10/26,일반,1,0,1,1,0,1,1,1,0,6,3,0,6,12,0,17,3,10,0,51,50,0,25,0,25,true,8,0,거짓,0,0,0,1,0,11,2022/10/26 22:02:46,정릉4동
성북구,11290000110,풍림 어린이집,가정,정상,2702,"서울특별시 성북구 솔샘로25길 20 120동 104호(정릉동, 풍림아이원)",02-6223-0880,02-6223-0880,,3,63,0,4,7,19,19,37.61864386,127.0073048,미운영,2003/08/29,,,,2022/10/26,일반,1,2,1,0,0,0,2,0,0,6,2,10,7,0,0,0,0,0,0,19,50,33,17,0,0,true,5,0,거짓,0,0,0,0,0,7,2022/10/26 22:02:46,정릉4동
성북구,11290000032,보강,가정,폐지,136849,서울특별시 성북구 보국문로8길 115 보강빌라 101호 (정릉동),02-916-8848,,,2,69,0,0,0,15,0,37.61132461,127.0129769,,2003/05/13,,,2011/10/31,2022/10/26,일반,0,0,0,0,0,0,3,0,0,3,0,0,0,0,0,0,0,0,0,0,,,,,,,,,,,,,,,,2022/10/26 22:02:46,정릉4동
성북구,11290000025,파아란어린이집,민간,폐지,136104,서울특별시 성북구 솔샘로24길 15 정릉E-편한세상아파트 관리동 (정릉동),02-916-7942,02-916-7942,,5,183,1,7,0,61,0,37.61527993,127.0101552,미운영,2002/01/11,,,2018/05/31,2022/10/26,일반,0,1,1,1,1,0,0,0,0,4,0,0,0,0,0,0,0,0,0,0,,,,,,,,,,,,,,,,2022/10/26 22:02:46,정릉4동
성북구,11290000130,청아어린이집,민간,정상,2701,"서울특별시 성북구 보국문로30길 15 대우아파트 102동 103, 104호 (정릉동)",02-919-5752,02-6224-5752,,9,138,4,9,6,32,11,37.6178772101568,127.003781368815,미운영,2001/02/02,,,,2022/10/26,야간연장,6,3,3,0,0,0,3,1,0,16,3,0,0,0,0,0,8,0,0,11,100,0,0,0,0,true,4,0,거짓,0,0,0,0,0,6,2022/10/26 22:02:46,정릉4동
성북구,11290000240,원정어린이집,법인?단체등,폐지,2701,서울특별시 성북구 보국문로28길 10 (정릉동),02-913-1004,02-913-1004,,2,135,1,0,0,49,0,37.61664178,127.0055927,운영,2000/02/06,,,2015/02/28,2022/10/26,일반,0,2,3,1,0,0,0,0,0,6,0,0,0,0,0,0,0,0,0,0,,,,,,,,,,,,,,,,2022/10/26 22:02:46,정릉4동
성북구,11290000187,꿈나래어린이집,민간,폐지,2711,서울특별시 성북구 보국문로 68-1,02-909-0810,02-909-0810,http://cafe.naver.com/wings909,10,243,3,16,0,92,0,37.61057971,127.009351,운영,1998/12/19,,,2020/03/02,2022/10/26,일반,0,0,1,1,1,1,0,0,0,4,0,0,0,0,0,0,0,0,0,0,,,,,,,,,,,,,,,,2022/10/26 22:02:45,정릉4동
성북구,11290000171,파란나라어린이집,민간,정상,2711,서울특별시 성북구 보국문로20길 16 (정릉동),02-918-1423,02-918-1424,,6,175,2,11,8,74,33,37.61195526,127.0094188,운영,1997/02/26,,,,2022/10/26,일반,0,1,2,1,0,0,0,1,0,5,0,5,8,9,0,0,0,11,0,33,0,40,40,0,20,true,5,0,거짓,0,0,0,1,0,8,2022/10/26 22:02:46,정릉4동
성북구,11290000159,동그라미어린이집,민간,폐지,2717,서울특별시 성북구 보국문로16길 2 (정릉동),02-941-8525,02-941-8533,,6,198,1,11,0,63,0,37.61008449,127.0098219,운영,1996/02/02,,,2020/03/02,2022/10/26,일반,3,3,2,1,0,0,0,2,0,11,0,0,0,0,0,0,0,0,0,0,,,,,,,,,,,,,,,,2022/10/26 22:02:45,정릉4동
성북구,11290000045,솔샘어린이집,국공립,정상,2717,서울특별시 성북구 보국문로16가길 82 (정릉동),02-943-1177,02-943-1124,http://cafe.naver.com/solsaemhouse,6,187,1,10,16,72,61,37.61376773,127.0110893,미운영,1989/09/01,,,,2022/10/26,야간연장,3,2,1,1,0,0,2,1,0,10,9,10,7,10,0,0,8,17,0,61,36,21,21,14,7,true,14,0,거짓,0,0,0,1,0,16,2022/10/26 22:02:46,정릉4동
성북구,11290000643,바람아래발도르프어린이집,협동,정상,2721,서울특별시 성북구 길음로9길 40 108동 101호,02-942-5090,,http://cafe.daum.net/baramarae,3,85,1,0,6,19,19,37.6057234630929,127.021249850326,미운영,2019/12/31,,,,2022/10/26,일반,0,0,0,0,0,0,1,2,0,3,0,0,0,0,0,0,5,14,0,19,40,40,20,0,0,true,4,0,거짓,0,0,0,1,0,6,2022/10/26 22:02:46,길음1동
성북구,11290000621,해피래미안어린이집,국공립,정상,2724,"서울특별시 성북구 길음로 74 , 관리동 1층",02-914-7979,,http://cafe.daum.net/happy-110-103,3,80,0,7,8,30,30,37.6103444981247,127.020774072063,미운영,2018/03/01,,,,2022/10/26,일반,0,2,2,1,0,0,0,0,0,5,0,7,12,11,0,0,0,0,0,30,17,0,50,33,0,true,6,0,거짓,0,0,0,1,0,8,2022/10/26 22:02:46,길음1동
성북구,11290000618,별숲발도르프어린이집,협동,폐지,2714,"서울특별시 성북구 길음로 119 220동 101호 (길음동, 길음뉴타운)",02-942-0683,02-942-0684,yanghy1999@hanmail.net,3,70,0,0,0,20,0,37.6104997105,127.0163723926,미운영,2018/02/01,,,2020/08/03,2022/10/26,일반,0,0,0,0,0,0,2,2,0,4,0,0,0,0,0,0,0,0,0,0,,,,,,,,,,,,,,,,2022/10/26 22:02:46,길음1동
성북구,11290000588,대림어린이집,국공립,정상,2723,서울특별시 성북구 길음로 118 길음뉴타운대림아파트 관리동 1층(길음동),02-913-6058,02-913-6058,,3,88,0,8,9,28,27,37.6128204645335,127.017713902647,미운영,2015/09/01,,,,2022/10/26,일반,0,1,2,1,0,0,0,0,0,4,0,5,14,8,0,0,0,0,0,27,17,33,50,0,0,true,6,0,거짓,0,0,0,1,0,9,2022/10/26 22:02:45,길음1동
성북구,11290000585,삼부어린이집,가정,폐지,2735,"서울특별시 성북구 동소문로 248 103동 103호(길음동, 삼부아파트)",02-943-3501,02-943-3501,,3,55,0,5,0,20,0,37.6034669674644,127.024556276607,미운영,2015/03/03,,,2018/06/12,2022/10/26,일반,1,0,1,1,0,0,5,0,0,8,0,0,0,0,0,0,0,0,0,0,,,,,,,,,,,,,,,,2022/10/26 22:02:46,길음1동
성북구,11290000574,자연어린이집,가정,폐지,2725,서울특별시 성북구 길음로 16 605동 104호(길음동),02-913-9878,02-913-9878,,4,65,0,4,0,20,0,37.607085602856,127.023275458656,,2014/12/19,,,2018/03/09,2022/10/26,일반,0,1,2,0,0,0,1,0,0,4,0,0,0,0,0,0,0,0,0,0,,,,,,,,,,,,,,,,2022/10/26 22:02:46,길음1동
성북구,11290000571,해맑은어린이집,가정,폐지,2720,서울특별시 성북구 길음로13길 11 101동 109호,02-2696-7002,,http://cafe.naver.com/haemaleunn,3,43,0,4,0,16,0,37.6082214116487,127.020227034525,미운영,2014/12/03,,,2017/11/10,2022/10/26,일반,1,0,0,0,0,0,2,0,0,3,0,0,0,0,0,0,0,0,0,0,,,,,,,,,,,,,,,,2022/10/26 22:02:46,길음1동
성북구,11290000570,단비어린이집,가정,폐지,2721,"서울특별시 성북구 길음로9길 50 903동 103호(길음동, 길음뉴타운9단지)",070-4176-8160,,,3,45,0,0,0,17,0,37.6026964149301,127.02095030587,미운영,2014/10/31,,,2017/04/04,2022/10/26,일반,2,1,1,0,0,0,1,0,0,5,0,0,0,0,0,0,0,0,0,0,,,,,,,,,,,,,,,,2022/10/26 22:02:45,길음1동
성북구,11290000568,꿈솜어린이집,가정,폐지,2725,"서울특별시 성북구 길음로 16 610동 101호(길음동, 길음래미안3차)",02-909-9600,,,3,53,2,4,0,19,0,37.607085602856,127.023275458656,미운영,2014/10/01,,,2022/02/28,2022/10/26,일반,0,1,1,0,0,0,1,0,0,3,0,0,0,0,0,0,0,0,0,0,,,,,,,,,,,,,,,,2022/10/26 22:02:45,길음1동
성북구,11290000564,샛별어린이집,가정,폐지,2720,"서울특별시 성북구 길음로 33 816동 103호(길음동, 길음뉴타운8단지)",02-6013-6262,02-6013-6262,,3,52,0,4,0,19,0,37.6050496083322,127.022010971426,미운영,2014/07/21,,,2017/05/31,2022/10/26,야간연장,1,0,1,0,0,0,3,0,0,5,0,0,0,0,0,0,0,0,0,0,,,,,,,,,,,,,,,,2022/10/26 22:02:46,길음1동
성북구,11290000567,예삐어린이집,가정,정상,2721,서울특별시 성북구 길음로9길 40 111동 101호(길음동),070-5022-0298,02-942-0298,,3,56,0,4,6,19,11,37.6049104939189,127.020258696862,미운영,2014/07/15,,,,2022/10/26,일반,1,1,1,0,0,0,3,0,0,6,2,0,0,0,0,0,9,0,0,11,80,0,0,0,20,true,4,0,거짓,0,0,0,0,0,6,2022/10/26 22:02:46,길음1동
성북구,11290000550,길음아이어린이집,가정,폐지,2714,"서울특별시 성북구 길음로 141 2동 105호(길음동, 신안아파트)",02-941-0977,,,4,48,0,1,0,18,0,37.6141044556946,127.01587407883,미운영,2013/06/03,,,2016/07/14,2022/10/26,일반,0,1,0,0,0,0,3,0,0,4,0,0,0,0,0,0,0,0,0,0,,,,,,,,,,,,,,,,2022/10/26 22:02:45,길음1동
성북구,11290000535,길음성가어린이집,국공립,정상,2721,서울특별시 성북구 길음로9길 50,02-941-3391,02-941-3394,,6,272,1,14,13,76,57,37.6026964149301,127.02095030587,미운영,2010/12/09,,,,2022/10/26,일반,0,3,2,1,0,1,0,1,0,8,0,15,14,10,0,0,0,18,0,57,60,10,10,10,10,true,10,0,거짓,0,0,0,1,0,13,2022/10/26 22:02:45,길음1동
성북구,11290000532,미예뜰 어린이집,민간,정상,2720,서울특별시 성북구 길음로 33 삼성래미안 814동(관리동),02-909-5453,,,9,156,1,10,13,59,49,37.60505,127.022026,미운영,2010/11/16,,,,2022/10/26,일반,2,4,4,1,0,0,0,0,0,11,6,15,20,8,0,0,0,0,0,49,82,9,0,9,0,true,11,0,거짓,0,0,0,1,0,13,2022/10/26 22:02:46,길음1동
성북구,11290000531,까꿍 어린이집,가정,정상,2721,"서울특별시 성북구 길음로9길 50 901동 102호(길음동, 길음뉴타운9단지아파트)",070-4233-8201,02-941-8201,,3,46,0,4,6,17,15,37.6026964149301,127.02095030587,미운영,2010/11/01,,,,2022/10/26,일반,2,1,1,0,0,0,2,0,0,6,3,5,4,0,0,0,3,0,0,15,20,20,40,0,20,true,4,0,거짓,0,0,0,0,0,6,2022/10/26 22:02:45,길음1동
성북구,11290000529,두산위브 어린이집,민간,정상,2715,서울특별시 성북구 길음로13길 22 길음뉴타운 두산위브아파트 관리동 (길음동),02-915-5650,0508-944-8263,,3,88,0,4,6,30,19,37.60961064,127.0186773,미운영,2010/10/26,,,,2022/10/26,일반,3,2,2,0,0,0,2,0,0,9,6,5,8,0,0,0,0,0,0,19,80,0,0,20,0,true,4,0,거짓,0,0,0,0,0,6,2022/10/26 22:02:46,길음1동
성북구,11290000528,꿈터어린이집,민간,정상,2720,서울특별시 성북구 길음로 33 래미안아파트 관리동,02-909-5277,0502-797-5277,,6,159,1,8,12,55,49,37.606515545577,127.019283760635,미운영,2010/10/18,,,,2022/10/26,일반,2,3,4,1,0,0,2,1,0,13,6,15,21,7,0,0,0,0,0,49,80,20,0,0,0,true,10,0,거짓,0,0,0,1,0,12,2022/10/26 22:02:45,길음1동
성북구,11290000519,꿈동이어린이집,가정,재개,2715,"서울특별시 성북구 길음로13길 22 704동 104호(길음동, 길음뉴타운7단지아파트)",010-6573-3667,,,4,78,0,4,1,18,0,37.610272891607,127.017888845802,미운영,2010/09/16,,,,2022/10/26,일반,0,2,0,0,0,0,3,0,0,5,0,0,0,0,0,0,0,0,0,0,100,0,0,0,0,true,0,0,거짓,0,0,0,0,0,1,2022/10/26 22:02:45,길음1동
성북구,11290000517,별뜨랑어린이집,가정,폐지,2720,"서울특별시 성북구 길음로 33 819동 101호(길음동, 길음뉴타운)",02-6397-8900,,,3,47.67,0,0,0,18,0,37.6065669992366,127.021336444,미운영,2010/08/05,,,2016/07/15,2022/10/26,일반,5,4,2,0,0,0,19,0,0,30,0,0,0,0,0,0,0,0,0,0,,,,,,,,,,,,,,,,2022/10/26 22:02:46,길음1동
성북구,11290000516,래미몬테소리 어린이집,가정,폐지,2720,"서울특별시 성북구 길음로 33 815동 101호(길음동, 길음뉴타운8단지아파트)",02-909-7009,,,3,55,0,4,0,20,0,37.6050496083322,127.022010971426,미운영,2010/07/27,,,2020/05/01,2022/10/26,일반,0,0,1,0,0,0,2,0,0,3,0,0,0,0,0,0,0,0,0,0,,,,,,,,,,,,,,,,2022/10/26 22:02:46,길음1동
성북구,11290000515,엄마별 어린이집,가정,폐지,136110,서울 성북구 길음동 1284번지 길음뉴타운 삼성래미안@ 817동 103호,070-8272-9878,,odis1379@naver.com,67,103,0,0,0,20,0,37.60588573,127.0202993,,2010/07/23,,,2012/01/30,2022/10/26,일반,2,1,1,0,0,0,2,0,0,6,0,0,0,0,0,0,0,0,0,0,,,,,,,,,,,,,,,,2022/10/26 22:02:46,길음1동
성북구,11290000514,이삭 어린이집,가정,정상,2725,"서울특별시 성북구 길음로 16 609동 104호(길음동, 길음뉴타운)",02-982-0644,,,3,69,0,4,8,20,20,37.6066569095378,127.022355727775,미운영,2010/07/22,,,,2022/10/26,일반,2,2,1,0,0,0,0,0,0,5,5,10,5,0,0,0,0,0,0,20,71,0,14,0,14,true,6,0,거짓,0,0,0,0,0,8,2022/10/26 22:02:46,길음1동
성북구,11290000513,엄마랑어린이집,가정,폐지,2720,"서울특별시 성북구 길음로 33 817동 103호(길음동, 길음뉴타운8단지아파트)",02-915-4060,,,4,68,0,4,0,20,0,37.60505,127.022026,미운영,2010/07/14,,,2022/02/28,2022/10/26,일반,0,0,0,0,0,0,4,0,0,4,0,0,0,0,0,0,0,0,0,0,,,,,,,,,,,,,,,,2022/10/26 22:02:46,길음1동
성북구,11290000512,시온 어린이집,가정,정상,2720,"서울특별시 성북구 길음로 33 816동101호(길음동,삼성래미안아파트)",02-6053-1595,02-6053-1595,http://cafe.naver.com/zioneducare,3,84,0,4,8,20,20,37.60588573,127.0202993,미운영,2010/07/13,,,,2022/10/26,야간연장,0,3,1,0,0,0,2,0,0,6,0,8,6,0,0,0,6,0,0,20,71,14,0,0,14,true,6,0,거짓,0,0,0,0,0,8,2022/10/26 22:02:46,길음1동
성북구,11290000511,길음꼬마숲 어린이집,가정,폐지,2720,"서울특별시 성북구 길음로 33 819동103호(길음동,삼성래미안아파트)",02-943-1646,,http://www.littleforest.co.kr/home/gilum,4,49,0,4,0,18,0,37.60588573,127.0202993,미운영,2010/07/13,,,2022/02/28,2022/10/26,일반,2,1,1,0,0,0,1,0,0,5,0,0,0,0,0,0,0,0,0,0,,,,,,,,,,,,,,,,2022/10/26 22:02:45,길음1동
성북구,11290000314,은행나무어린이집,민간,폐지,2724,서울특별시 성북구 삼양로9길 14-17,02-945-4567,02-988-7719,,6,289,2,9,0,90,0,37.60914122,127.0218276,운영,2007/07/18,,,2022/02/28,2022/10/26,일반,0,0,0,2,1,1,0,2,0,6,0,0,0,0,0,0,0,0,0,0,,,,,,,,,,,,,,,,2022/10/26 22:02:46,길음1동
성북구,11290000311,꿈나무어린이집,가정,폐지,2721,"서울특별시 성북구 길음로9길 40 114동 101호(길음동, 삼성래미안1차아파트)",02-941-3775,,,3,58,0,4,0,20,0,37.60585,127.02099,미운영,2007/06/04,,,2016/11/17,2022/10/26,일반,0,0,1,0,0,0,2,0,0,3,0,0,0,0,0,0,0,0,0,0,,,,,,,,,,,,,,,,2022/10/26 22:02:45,길음1동
성북구,11290000302,해피래미안어린이집,민간,폐지,2724,서울특별시 성북구 길음로 74 삼성래미안 2차 아파트 관리동1층 (길음동),02-914-7979,02-914-7979,,3,80,0,4,0,33,0,37.60929,127.021034,미운영,2007/03/02,,,2018/02/28,2022/10/26,일반,0,2,2,1,0,0,1,0,0,6,0,0,0,0,0,0,0,0,0,0,,,,,,,,,,,,,,,,2022/10/26 22:02:46,길음1동
성북구,11290000309,엄마마음어린이집,가정,폐지,2725,"서울특별시 성북구 길음로 16 605동 103호(길음동, 래미안길음3차아파트)",02-6225-2001,02-6225-2001,,4,91,0,5,0,20,0,37.607086,127.02328,미운영,2007/02/01,,,2019/02/28,2022/10/26,일반,0,2,2,0,0,0,3,0,0,7,0,0,0,0,0,0,0,0,0,0,,,,,,,,,,,,,,,,2022/10/26 22:02:46,길음1동
성북구,11290000303,별초롱 어린이집,민간,정상,2725,서울특별시 성북구 길음로 16 래미안3차 관리동 1층,02-915-7769,,m.blog.naver.com/annashs/,3,66,0,4,7,25,24,37.607086,127.02328,미운영,2007/01/15,,,,2022/10/26,일반,0,2,2,0,0,0,0,0,0,4,0,10,14,0,0,0,0,0,0,24,83,17,0,0,0,true,5,0,거짓,0,0,0,0,0,7,2022/10/26 22:02:46,길음1동
성북구,11290000294,엄마품어린이집,가정,정상,2725,"서울특별시 성북구 길음로 16 611동 104호(길음동, 래미안길음3차아파트)",02-6221-0098,02-6221-0098,blog.naver.com/ichinaya,3,51,0,4,8,19,16,37.6056342332099,127.022632882614,미운영,2006/12/28,,,,2022/10/26,일반,2,1,2,0,0,0,6,0,0,11,0,0,7,0,0,0,9,0,0,16,71,29,0,0,0,true,6,0,거짓,0,0,0,0,0,8,2022/10/26 22:02:46,길음1동
성북구,11290000190,대림어린이집,민간,폐지,2723,서울특별시 성북구 길음로 118 대림E편한세상아파트 관리동 1층 (길음동),02-913-6058,02-913-6058,http://cafe.naver.com/dykids,3,88,0,0,0,33,0,37.61196439,127.0194675,미운영,2006/04/17,,,2015/08/31,2022/10/26,일반,0,0,3,0,0,0,0,1,0,4,0,0,0,0,0,0,0,0,0,0,,,,,,,,,,,,,,,,2022/10/26 22:02:45,길음1동
성북구,11290000175,래미안어린이집,민간,정상,2721,서울특별시 성북구 길음로9길 40 삼성래미안1차아파트 (길음동),02-919-8086,,,3,120,0,4,10,28,27,37.60585,127.02099,미운영,2005/08/23,,,,2022/10/26,일반,2,1,2,1,0,0,3,0,0,9,6,5,11,0,0,0,5,0,0,27,25,0,63,13,0,true,8,0,거짓,0,0,0,0,0,10,2022/10/26 22:02:46,길음1동
성북구,11290000094,도담 어린이집,가정,폐지,2714,"서울특별시 성북구 길음로 119 216동 101호(길음동, 대우아파트)",02-914-8420,02-914-8420,,3,55,0,4,0,20,0,37.61085066,127.017944,미운영,2005/07/18,,,2021/03/19,2022/10/26,일반,0,1,1,0,0,0,3,0,0,5,0,0,0,0,0,0,0,0,0,0,,,,,,,,,,,,,,,,2022/10/26 22:02:45,길음1동
성북구,11290000107,푸른하늘어린이집,가정,폐지,2714,"서울특별시 성북구 길음로 119 205동 102호(길음동, 대우아파트)",02-911-6227,02-911-6227,,3,63,0,4,0,19,0,37.61085066,127.017944,미운영,2005/07/18,,,2022/02/28,2022/10/26,일반,0,0,1,0,0,0,4,0,0,5,0,0,0,0,0,0,0,0,0,0,,,,,,,,,,,,,,,,2022/10/26 22:02:46,길음1동
성북구,11290000011,아이나라 어린이집,가정,폐지,2714,"서울특별시 성북구 길음로 119 220동 101호(길음동, 길음뉴타운)",02-942-0683,02-942-0684,,4,70,0,0,0,20,0,37.60852754,127.0178036,미운영,2005/06/28,,,2018/01/31,2022/10/26,일반,0,1,1,1,0,0,4,3,0,10,0,0,0,0,0,0,0,0,0,0,,,,,,,,,,,,,,,,2022/10/26 22:02:46,길음1동
성북구,11290000209,노리숲 어린이집,가정,폐지,2714,"서울특별시 성북구 길음로 119 220동 102호(길음동, 대우아파트)",02-6436-4242,070-7590-4241,,4,79,0,4,0,20,0,37.61085066,127.017944,미운영,2005/06/23,,,2018/02/28,2022/10/26,일반,2,2,1,0,0,0,3,0,0,8,0,0,0,0,0,0,0,0,0,0,,,,,,,,,,,,,,,,2022/10/26 22:02:45,길음1동
성북구,11290000286,대림 행복한 어린이집,가정,폐지,2723,"서울특별시 성북구 길음로 118 407동 101호(길음동, 대림아파트)",070-4045-0045,070-4045-0045,,3,64,0,4,0,19,0,37.61196439,127.0194675,미운영,2005/06/18,,,2020/03/02,2022/10/26,일반,3,2,2,2,0,0,4,0,0,13,0,0,0,0,0,0,0,0,0,0,,,,,,,,,,,,,,,,2022/10/26 22:02:45,길음1동
성북구,11290000226,엄마사랑어린이집,가정,폐지,2723,"서울특별시 성북구 길음로 118 421동 104호(길음동, 대림아파트)",02-6224-2001,02-6224-2001,,4,55,0,4,0,20,0,37.61196439,127.0194675,미운영,2005/06/10,,,2021/03/30,2022/10/26,일반,1,3,2,0,0,0,5,0,0,11,0,0,0,0,0,0,0,0,0,0,,,,,,,,,,,,,,,,2022/10/26 22:02:46,길음1동
성북구,11290000023,햇살가득 어린이집,가정,정상,2714,"서울특별시 성북구 길음로 119 212동 103호(길음동, 대우아파트)",02-919-5252,02-919-5252,"club.cyworld.com/sun-full, 키즈노트사용",4,54,0,4,7,20,19,37.61085066,127.017944,미운영,2005/06/08,,,,2022/10/26,일반,1,1,1,0,0,0,1,0,0,4,3,4,7,0,0,0,5,0,0,19,17,33,17,17,17,true,5,0,거짓,0,0,0,0,0,7,2022/10/26 22:02:46,길음1동
성북구,11290000173,대우하나어린이집,가정,폐지,2715,"서울특별시 성북구 길음로13길 39 305동 102호(길음동, 대우아파트)",02-6221-2200,,cyworld.com/hana3699,3,65,0,0,0,19,0,37.60919398,127.0174403,미운영,2005/06/08,,,2017/08/01,2022/10/26,일반,1,1,1,0,0,0,3,0,0,6,0,0,0,0,0,0,0,0,0,0,,,,,,,,,,,,,,,,2022/10/26 22:02:45,길음1동
성북구,11290000034,예능 어린이집,가정,정상,2723,"서울특별시 성북구 길음로 118 418동 102호(길음동, 길음뉴타운)",02-942-7090,,,3,52,0,4,7,19,18,37.61196439,127.0194675,미운영,2005/05/31,,,,2022/10/26,일반,0,1,1,0,0,0,3,0,0,5,0,0,7,0,0,0,11,0,0,18,67,17,0,17,0,true,5,0,거짓,0,0,0,0,0,7,2022/10/26 22:02:46,길음1동
성북구,11290000007,e-편한세상 어린이집,가정,정상,2723,"서울특별시 성북구 길음로 118 418동 104호(길음동, 대림아파트)",02-909-3434,02-909-3434,,3,53,0,4,6,20,18,37.61196439,127.0194675,미운영,2005/05/14,,,,2022/10/26,일반,1,1,1,0,0,0,4,0,0,7,3,0,7,0,0,0,8,0,0,18,80,0,0,0,20,true,4,0,거짓,0,0,0,0,0,6,2022/10/26 22:02:45,길음1동
성북구,11290000048,길음빛어린이집,국공립,정상,2724,서울특별시 성북구 길음로 92 (길음동),02-942-4881,02-942-4886,gileum2 .kidis.co.kr,6,204,2,9,14,77,70,37.61046755,127.0194396,미운영,2005/04/27,,,,2022/10/26,"장애아통합,야간연장",0,1,2,1,1,1,0,0,1,7,0,5,14,15,13,20,0,0,3,70,36,18,18,18,9,true,10,1,거짓,0,0,0,1,0,14,2022/10/26 22:02:45,길음1동
성북구,11290000074,바람아래 어린이집,가정,폐지,2721,"서울특별시 성북구 길음로9길 40 108동 101호(길음동, 삼성래미안1차아파트)",02-942-5090,,,4,55,0,0,0,20,0,37.60585,127.02099,미운영,2003/04/28,,,2016/10/31,2022/10/26,일반,0,0,0,0,0,0,1,2,0,3,0,0,0,0,0,0,0,0,0,0,,,,,,,,,,,,,,,,2022/10/26 22:02:46,길음1동
성북구,11290000096,은빛 어린이집,가정,정상,2721,"서울특별시 성북구 길음로9길 40 103동 103호(길음동, 삼성래미안1차아파트)",02-941-0026,,,4,53,0,4,6,20,18,37.60585,127.02099,미운영,2003/04/01,,,,2022/10/26,일반,1,2,1,0,0,0,0,0,0,4,3,10,5,0,0,0,0,0,0,18,40,0,0,20,40,true,4,0,거짓,0,0,0,0,0,6,2022/10/26 22:02:46,길음1동
성북구,11290000037,우주 어린이집,가정,폐지,2723,"서울특별시 성북구 길음로 118 417동 102호(길음동, 길음뉴타운 e-편한세상)",02-917-1002,02-917-1002,,4,57,0,4,0,19,0,37.61196439,127.0194675,미운영,2003/03/27,,,2020/12/31,2022/10/26,일반,2,2,1,0,0,0,5,0,0,10,0,0,0,0,0,0,0,0,0,0,,,,,,,,,,,,,,,,2022/10/26 22:02:46,길음1동
성북구,11290000057,웅지어린이집,국공립,정상,2721,서울특별시 성북구 길음로9길 113 (길음동),02-917-9400,02-941-9401,cafe.daum.net/woongji2,5,248,2,13,19,87,69,37.60222342,127.0212149,미운영,1991/01/18,,,,2022/10/26,"장애아통합,야간연장",0,2,2,1,1,1,0,0,3,10,0,10,14,13,3,20,0,0,9,69,29,29,21,0,21,true,14,0,거짓,0,0,0,2,0,19,2022/10/26 22:02:46,길음1동
성북구,11290000561,햇살내리는어린이집,가정,정상,2835,서울특별시 성북구 성북로14가길 17-11 101호,02-6093-0701,,,2,37,0,3,5,13,13,37.5947659327707,127.001983840027,미운영,2014/06/09,,,,2022/10/26,일반,0,1,1,0,0,0,2,0,0,4,0,5,0,0,0,0,8,0,0,13,0,50,0,50,0,true,3,0,거짓,0,0,0,0,0,5,2022/10/26 22:02:46,성북동
성북구,11290000124,한빛어린이집,국공립,정상,2880,서울특별시 성북구 성북동1가 성북로 37 한빛 어린이집,02-741-5236,02-741-5237,,5,249,1,8,14,70,49,37.5910307,127.0032273,미운영,2006/03/13,,,,2022/10/26,"장애아통합,야간연장",2,2,2,1,0,0,0,1,1,9,6,10,14,9,0,0,0,7,3,49,42,25,17,0,17,true,12,0,거짓,0,0,0,1,0,14,2022/10/26 22:02:46,성북동
성북구,11290000257,베들레헴 어린이집,사회복지법인,정상,2880,서울특별시 성북구 창경궁로35다길 108 (성북동),02-3676-7705,02-3676-7706,,3,111,0,16,10,30,16,37.59241721,127.0010743,미운영,2005/01/14,,,,2022/10/26,"야간연장,휴일보육,24시간",0,1,1,0,0,0,0,1,0,3,0,4,5,0,0,0,0,7,0,16,33,17,0,17,33,true,6,0,거짓,0,0,0,1,1,10,2022/10/26 22:02:46,성북동
성북구,11290000245,내또래어린이집,민간,폐지,2832,서울특별시 성북구 동소문로3길 124 (동소문동4가),02-929-2755,070-4325-7937,,3,100,1,3,0,27,0,37.59182709,127.0111385,운영,1999/05/27,,,2021/07/31,2022/10/26,일반,0,0,1,0,0,0,3,1,0,5,0,0,0,0,0,0,0,0,0,0,,,,,,,,,,,,,,,,2022/10/26 22:02:45,성북동
성북구,11290000243,엔젤 어린이집,가정,폐지,2832,"서울특별시 성북구 동소문로13길 39-20 103동 101호(동소문동4가, 송산아파트)",02-953-2939,02-953-2939,angel7210@hanmill.net.,4,80,0,5,0,20,0,37.59228898,127.010453,미운영,1996/04/29,,,2016/08/24,2022/10/26,일반,2,2,2,0,0,0,3,0,0,9,0,0,0,0,0,0,0,0,0,0,,,,,,,,,,,,,,,,2022/10/26 22:02:46,성북동
성북구,11290000051,성북어린이집,국공립,정상,2834,서울특별시 성북구 동소문동1가 성북로4길 13-2,02-742-1097,02-762-4386,http://cafe.daum.net/caregogo,6,241,2,10,21,78,72,37.5896129215434,127.005846772429,미운영,1981/01/07,,,,2022/10/26,"장애아통합,야간연장",2,4,2,0,0,1,0,1,2,12,6,20,14,0,0,11,0,15,6,72,53,12,29,0,6,true,17,0,거짓,0,0,0,2,0,21,2022/10/26 22:02:46,성북동
성북구,11290000626,삼선예일어린이집,국공립,정상,2875,"서울특별시 성북구 보문로29다길 31 , 관리동 1층",02-742-6371,,,3,64,0,7,8,24,24,37.5834127433199,127.012861301243,미운영,2018/03/01,,,,2022/10/26,일반,2,2,2,0,0,0,6,0,0,12,0,5,13,0,0,0,6,0,0,24,50,33,17,0,0,true,6,0,거짓,0,0,0,1,0,8,2022/10/26 22:02:46,삼선동
성북구,11290000578,삼선교어린이집,국공립,폐지,2868,서울특별시 성북구 삼선동3가 삼선교로16가길 41,02-766-8872,02-766-8873,,4,140,1,10,0,52,0,37.5844904130977,127.012087080234,미운영,2015/01/01,,,2022/04/08,2022/10/26,야간연장,0,0,1,0,0,0,2,1,0,4,0,0,0,0,0,0,0,0,0,0,,,,,,,,,,,,,,,,2022/10/26 22:02:46,삼선동
성북구,11290000549,행복가득한어린이집,가정,정상,2861,"서울특별시 성북구 삼선동4가 삼선교로23길 23 104-103(코오롱아파트,삼선동)",02-6225-1999,02-6956-1998,,3,55,0,4,8,20,14,37.5903504293022,127.012477525936,미운영,2013/05/30,,,,2022/10/26,야간연장,1,2,1,0,0,0,5,0,0,9,0,0,0,0,0,0,14,0,0,14,50,0,0,33,17,true,5,0,거짓,0,0,0,0,1,8,2022/10/26 22:02:46,삼선동
성북구,11290000542,키즈몬테소리 어린이집,민간,폐지,2863,서울특별시 성북구 삼선교로16길 35 삼선SK뷰아파트 관리동 1층,02-461-3510,02-6402-3538,,4,62,0,4,0,22,0,37.5877277005428,127.011702468785,미운영,2012/07/31,,,2018/02/28,2022/10/26,일반,0,1,1,0,0,0,3,0,0,5,0,0,0,0,0,0,0,0,0,0,,,,,,,,,,,,,,,,2022/10/26 22:02:46,삼선동
성북구,11290000351,삼선예일몬테소리어린이집,민간,폐지,2875,서울특별시 성북구 보문로29다길 31 대우푸르지오아파트 관리동 1층 (삼선동2가),02-742-6371,,,3,64,1,4,0,24,0,37.58350407,127.0133817,미운영,2008/05/15,,,2018/02/28,2022/10/26,일반,2,3,2,0,0,0,3,0,0,10,0,0,0,0,0,0,0,0,0,0,,,,,,,,,,,,,,,,2022/10/26 22:02:46,삼선동
성북구,11290000332,예원어린이집,가정,폐지,2875,"서울특별시 성북구 보문로29다길 31 114동 102호(삼선동2가, 대우푸르지오아파트)",02-2060-1229,02-6414-1239,,5,79,0,5,0,20,0,37.58350407,127.0133817,미운영,2007/12/26,,,2018/06/12,2022/10/26,일반,2,2,1,0,0,0,2,0,0,7,0,0,0,0,0,0,0,0,0,0,,,,,,,,,,,,,,,,2022/10/26 22:02:46,삼선동
성북구,11290000241,뉴제나어린이집,민간,폐지,2862,서울특별시 성북구 삼선동5가 삼선교로18나길 18 (삼선동5가),02-953-9226,02-953-9226,,6,195,1,8,0,73,0,37.58821386,127.0141449,운영,2005/09/22,,,2018/08/09,2022/10/26,일반,0,1,2,1,0,0,5,2,0,11,0,0,0,0,0,0,0,0,0,0,,,,,,,,,,,,,,,,2022/10/26 22:02:45,삼선동
성북구,11290000042,성북구청직장어린이집,직장,정상,2848,서울특별시 성북구 보문로 168 1층 (삼선동5가),02-2241-4861,02-2241-6624,,4,149,0,8,10,49,29,37.58943373,127.0168305,미운영,2004/08/04,,,,2022/10/26,일반,0,2,2,1,0,0,0,1,0,6,0,7,8,9,0,0,0,5,0,29,13,25,25,25,13,true,8,0,거짓,0,0,0,1,0,10,2022/10/26 22:02:46,삼선동
성북구,11290000293,다솜어린이집,가정,정상,2875,"서울특별시 성북구 삼선동2가 보문로29다길 31 115동 102호(삼선동2가, 대우푸르지오아파트)",02-741-7142,02-741-7142,ks043010@naver.com,3,114,0,4,7,20,20,37.58350407,127.0133817,미운영,2003/04/07,,,,2022/10/26,일반,2,2,1,0,0,0,2,0,0,7,6,5,6,0,0,0,3,0,0,20,50,17,17,17,0,true,5,0,거짓,0,0,0,0,0,7,2022/10/26 22:02:45,삼선동
성북구,11290000180,자람어린이집,민간,폐지,2861,서울특별시 성북구 동소문로10길 34,02-921-7945,02-921-7950,,5,100,1,0,0,49,0,37.58905176,127.0115523,운영,1997/05/19,,,2015/09/13,2022/10/26,일반,0,2,1,1,0,0,0,1,0,5,0,0,0,0,0,0,0,0,0,0,,,,,,,,,,,,,,,,2022/10/26 22:02:46,삼선동
성북구,11290000076,예나 어린이집,가정,폐지,136041,서울 성북구 삼선동1가 102번지,02-743-9246,,,4,73,1,5,0,20,0,37.58704776,127.0091761,미운영,1996/03/18,,,2018/02/28,2022/10/26,일반,5,5,3,0,0,0,7,0,0,20,0,0,0,0,0,0,0,0,0,0,,,,,,,,,,,,,,,,2022/10/26 22:02:46,삼선동
성북구,11290000242,제나어린이집,민간,폐지,2862,서울특별시 성북구 삼선교로20길 21 (삼선동5가),02-929-9226,,,7,199,2,10,0,75,0,37.58828286,127.0138836,운영,1995/11/20,,,2021/05/03,2022/10/26,일반,0,0,2,0,0,0,4,3,0,9,0,0,0,0,0,0,0,0,0,0,,,,,,,,,,,,,,,,2022/10/26 22:02:46,삼선동
성북구,11290000079,꿈동산어린이집,가정,폐지,136043,서울 성북구 삼선동3가 98-1 1층,02-763-2788,,,3,107,0,4,0,20,0,37.58516038,127.012651,운영,1992/06/30,,,2016/06/15,2022/10/26,일반,0,1,1,0,0,0,4,0,0,6,0,0,0,0,0,0,0,0,0,0,,,,,,,,,,,,,,,,2022/10/26 22:02:45,삼선동
성북구,11290000053,삼선뜰어린이집,국공립,정상,2863,서울특별시 성북구 보문로29길 86 (삼선동3가),02-747-6776,02-747-6773,samsun2d@hanmail.net,6,302,2,8,16,85,73,37.58638773,127.013638,미운영,1992/05/28,,,,2022/10/26,야간연장,2,2,2,1,0,1,0,1,0,9,6,10,14,11,0,15,0,17,0,73,23,8,31,8,31,true,13,0,거짓,0,0,0,1,0,16,2022/10/26 22:02:46,삼선동
성북구,11290000044,삼선어린이집,국공립,정상,2877,서울특별시 성북구 삼선교로4길 147 (삼선동1가),02-763-3415,02-766-4992,cafe.daum.net/samsunkid,5,177,1,8,14,62,41,37.58176947,127.0091736,미운영,1985/02/07,,,,2022/10/26,야간연장,3,2,2,0,0,0,0,2,0,9,9,8,9,0,0,0,0,15,0,41,25,0,50,17,8,true,12,0,거짓,0,0,0,1,0,14,2022/10/26 22:02:46,삼선동
성북구,11290000540,한울안어린이집,국공립,폐지,2844,서울특별시 성북구 동소문로26길 32,02-924-1259,02-923-7095,,5,130,0,8,0,49,0,37.5936731028161,127.020571476082,미운영,2012/03/02,,,2022/02/28,2022/10/26,일반,2,2,2,0,0,0,0,1,0,7,0,0,0,0,0,0,0,0,0,0,,,,,,,,,,,,,,,,2022/10/26 22:02:46,동선동
성북구,11290000206,다윗어린이집,국공립,정상,2849,서울특별시 성북구 고려대로7길 120 돈암성당 내 (동선동2가),02-925-3224,070-4009-4877,14david.hanmail.net,3,147,0,11,9,49,31,37.59001714,127.0177491,미운영,2006/05/01,,,,2022/10/26,야간연장,0,2,2,0,0,0,1,1,0,6,0,9,14,0,0,0,3,5,0,31,71,14,0,0,14,true,7,0,거짓,0,0,0,1,0,9,2022/10/26 22:02:45,동선동
성북구,11290000157,에덴어린이집,민간,폐지,2830,서울특별시 성북구 동소문로17길 40 (동소문동6가),02-927-0353,02-929-0353,www.에덴어린이집.kr,5,101,0,7,0,39,0,37.59391648,127.0158691,운영,2004/03/01,,,2018/10/04,2022/10/26,"야간연장,24시간",0,1,0,0,0,0,3,1,0,5,0,0,0,0,0,0,0,0,0,0,,,,,,,,,,,,,,,,2022/10/26 22:02:46,동선동
성북구,11290000182,성신어린이집,민간,정상,2826,서울특별시 성북구 동소문동7가 아리랑로5길 36 (동소문동7가),02-923-5756,02-926-5758,www.club.cyworld.com/seongsin24,4,162,1,10,18,46,28,37.5969996545,127.0133392318,운영,2001/06/07,,,,2022/10/26,"야간연장,24시간",3,1,2,0,0,0,2,1,0,9,9,5,0,0,0,0,5,9,0,28,43,21,29,7,0,true,14,0,거짓,0,0,0,1,0,18,2022/10/26 22:02:46,동선동
성북구,11290000141,엘벧엘어린이집,민간,폐지,2844,서울특별시 성북구 보문로30길 64 (동선동2가),02-921-7964,02-921-7964,,3,79,0,4,0,34,0,37.59029577,127.0199421,미운영,2000/03/14,,,2019/02/28,2022/10/26,일반,1,1,2,0,0,0,2,0,0,6,0,0,0,0,0,0,0,0,0,0,,,,,,,,,,,,,,,,2022/10/26 22:02:46,동선동
성북구,11290000244,정덕 어린이집,민간,폐지,2826,서울특별시 성북구 동소문동7가 아리랑로7길 5 .,02-953-2008,,,4,103,0,7,0,39,0,37.5973312,127.0143338,미운영,1999/03/13,,,2019/09/04,2022/10/26,일반,2,2,2,0,0,0,4,0,0,10,0,0,0,0,0,0,0,0,0,0,,,,,,,,,,,,,,,,2022/10/26 22:02:46,동선동
성북구,11290000126,돈암교회어린이집,법인?단체등,정상,2829,서울특별시 성북구 아리랑로4길 45 (동선동5가),02-922-6259,0504-038-6259,http://town.cyword.com/don,4,122,0,7,11,46,40,37.59585688,127.0178728,운영,1996/03/06,,,,2022/10/26,일반,0,1,1,1,0,0,3,1,0,7,0,0,7,11,0,0,10,12,0,40,50,0,25,0,25,true,8,0,거짓,0,0,0,0,0,11,2022/10/26 22:02:45,동선동
성북구,11290000131,성일어린이집,법인?단체등,폐지,2845,서울특별시 성북구 동소문로24가길 13 (동선동1가),02-926-0819,02-926-0819,cafe.daum.net/sungeilcharch,4,116,1,6,0,44,0,37.5917515,127.0194667,운영,1996/03/02,,,2021/02/28,2022/10/26,일반,2,1,1,1,0,0,0,1,0,6,0,0,0,0,0,0,0,0,0,0,,,,,,,,,,,,,,,,2022/10/26 22:02:46,동선동
성북구,11290000186,돈암원광어린이집,법인?단체등,폐지,2844,서울특별시 성북구 동소문로26길 32 (동선동3가),02-924-1259,02-923-7095,inhyo525@hanmail.net,4,210,1,0,0,39,0,37.59373397,127.0205753,,1995/07/08,,,2012/02/29,2022/10/26,일반,0,0,0,0,0,0,2,0,0,2,0,0,0,0,0,0,0,0,0,0,,,,,,,,,,,,,,,,2022/10/26 22:02:45,동선동
성북구,11290000061,동선어린이집,국공립,정상,2830,서울특별시 성북구 아리랑로 27-24,02-923-1745,02-923-1746,,5,165,1,8,11,59,47,37.59536304,127.0151615,미운영,1992/03/01,,,,2022/10/26,야간연장,0,2,2,1,0,0,0,1,0,6,0,10,13,10,0,0,0,14,0,47,11,22,11,22,33,true,9,0,거짓,0,0,0,1,0,11,2022/10/26 22:02:45,동선동
동대문구,11230000493,늘봄어린이집,민간,정상,2437,서울특별시 동대문구 외대역동로1길 60-3 휘경해모로 관리동,02-3390-3094,02-2212-3094,,4,94,0,8,7,32,14,37.5911184340909,127.06244488137,미운영,2020/06/04,,,,2022/06/15,일반,3,2,2,0,0,0,2,0,0,9,2,9,3,0,0,0,0,0,0,14,20,80,0,0,0,true,4,0,거짓,0,0,0,0,1,7,2022/06/15 09:29:55,휘경1동
동대문구,11230000490,휘경SK뷰어린이집,국공립,정상,2434,"서울특별시 동대문구 휘경로 60 휘경SK뷰아파트, 관리동",02-6949-3393,02-6949-3394,,4,110,0,8,10,30,29,37.5935220071109,127.066251450454,미운영,2019/07/01,,,,2022/06/15,일반,3,2,2,0,0,0,0,0,0,7,6,10,13,0,0,0,0,0,0,29,25,25,50,0,0,true,8,0,거짓,0,0,0,1,0,10,2022/06/15 09:29:56,휘경1동
동대문구,11230000446,휘경스마일어린이집,국공립,정상,2445,서울특별시 동대문구 이문로8길 8-7,02-959-6401,02-959-6450,,5,163,0,14,10,49,23,37.5914866136046,127.057777935217,미운영,2014/11/01,,,,2022/06/15,야간연장,2,2,2,0,0,0,3,1,0,10,5,6,12,0,0,0,0,0,0,23,25,0,38,13,25,true,8,0,거짓,0,0,0,1,0,10,2022/06/15 09:29:56,휘경1동
