교육지원청명,자치구,유치원명,공립/사립,유형,주소,,Latitude,Longitude,운영시간,만3세학급수,만4세학급수,만5세학급수,혼합학급수,특수학급수,만3세유아수,만4세유아수,만5세유아수,혼합유아수,특수유아수,보직교사수,일반교사수,특수교사수,기간제교사수,총 교사수
남부교육지원청,금천구,서울정심초등학교병설유치원(금천구),공립,병설,서울특별시 금천구 독산로78다길 89,,37.4715317,126.9082847,07시30분~19시30분,1,1,1,0,1,3,15,16,0,4,1,2,1,0,4
강동송파교육지원청,송파구,서울솔방울유치원(송파구),공립,단설,서울특별시 송파구 오금로24길 25,,37.5047827,127.117784,07시00분~20시00분,2,2,2,0,1,28,31,43,0,6,2,4,0,5,11
강동송파교육지원청,송파구,란키즈유치원(송파구),사립,사인,서울특별시 송파구 새말로8길 22-5,,37.4807699,127.1262724,08시00분~19시00분,1,2,1,0,0,23,31,21,0,0,0,6,0,0,6
동부교육지원청,중랑구,서울신현초등학교병설유치원(중랑구),공립,병설,서울특별시 중랑구 봉화산로 188,,37.6056709,127.0936365,07시30분~19시30분,1,1,1,0,1,12,14,20,0,4,0,3,1,2,6
동부교육지원청,중랑구,서울신묵초등학교병설유치원(중랑구),공립,병설,서울특별시 중랑구 동일로149길 46,,37.6071681,127.0755496,07시30분~19시30분,1,1,1,0,0,13,11,9,0,0,0,3,0,0,3
서부교육지원청,은평구,다우림유치원(은평구),사립,사인,서울특별시 은평구 증산로21길 22,,37.596237,126.9123289,08시00분~20시00분,1,1,1,0,0,13,28,16,0,0,0,6,0,0,6
서부교육지원청,마포구,서울소의초등학교병설유치원(마포구),공립,병설,서울특별시 마포구 마포대로24길 42,,37.5522106,126.9608226,07시00분~19시30분,1,1,1,0,0,6,11,17,0,0,1,2,0,0,3
북부교육지원청,노원구,서울상계초등학교병설유치원(노원구),공립,병설,서울특별시 노원구 상계로9길 39,,37.6591835,127.065985,07시00분~19시30분,0,1,1,0,0,0,6,9,0,0,0,2,0,0,2
강동송파교육지원청,송파구,서울송파위례유치원(송파구),공립,단설,서울특별시 송파구 위례송파로 121,,37.4846825,127.1473532,07시00분~20시00분,2,2,3,0,1,32,36,47,0,4,2,4,1,2,9
북부교육지원청,도봉구,서울월천초등학교병설유치원(도봉구),공립,병설,서울특별시 도봉구 노해로70길 96,,37.6478352,127.0519604,07시30분~19시30분,1,1,1,0,0,8,17,8,0,0,1,2,0,0,3
강남서초교육지원청,강남구,서울신구유치원(강남구),공립,단설,서울특별시 강남구 압구정로18길 28,,37.5231178,127.0241858,07시30분~19시30분,2,2,1,0,1,19,20,19,0,2,2,3,0,5,10
강남서초교육지원청,강남구,서울세명유치원(강남구),공립,단설,서울특별시 강남구 자곡로 55,,37.4686014,127.0909942,07시30분~19시30분,1,2,2,0,1,14,30,36,0,4,2,3,0,3,8
강남서초교육지원청,서초구,한신유치원(서초구),사립,법인,서울특별시 서초구 잠원로3길 31,,37.5090414,127.0046958,09시00분~17시00분,2,2,2,0,0,46,48,45,0,0,0,11,0,0,11
강서양천교육지원청,양천구,서울강월초등학교병설유치원(양천구),공립,병설,서울특별시 양천구 신월로 97,,37.5160671,126.8339911,07시00분~19시00분,0,0,2,1,0,0,0,12,1,0,1,3,0,0,4
강남서초교육지원청,강남구,강남유치원(강남구),사립,사인,서울특별시 강남구 선릉로129길 31,,37.5153758,127.0390967,08시40분~17시40분,0,1,2,0,0,0,21,55,0,0,0,5,0,0,5
서부교육지원청,은평구,서울연광초등학교병설유치원(은평구),공립,병설,서울특별시 은평구 연서로35길 37,,37.6239685,126.9241114,07시00분~19시00분,1,1,1,0,0,5,8,10,0,0,1,2,0,0,3
강남서초교육지원청,서초구,서울원명초등학교병설유치원(서초구),공립,병설,서울특별시 서초구 고무래로 90-6,,37.5005095,127.0167948,07시30분~19시30분,1,1,1,0,0,14,21,24,0,0,1,2,0,0,3
서부교육지원청,마포구,홍익대학교사범대학부속유치원(마포구),사립,법인,서울특별시 마포구 성미산로 111,,37.5630964,126.9194615,09시00분~17시00분,2,2,2,0,0,40,50,55,0,0,2,5,0,1,8
성동광진교육지원청,성동구,서울마장초등학교병설유치원(성동구),공립,병설,서울특별시 성동구 마장로35나길 31,,37.5683436,127.0419269,07시30분~19시30분,1,1,1,0,0,8,11,14,0,0,1,2,0,0,3
강남서초교육지원청,서초구,서울우솔초등학교병설유치원(서초구),공립,병설,서울특별시 서초구 양재대로2길 74,,37.4570244,127.0193154,07시30분~19시30분,2,1,1,0,1,19,15,15,0,4,1,3,1,0,5
강남서초교육지원청,강남구,서울언주초등학교병설유치원(강남구),공립,병설,서울특별시 강남구 남부순환로363길 19,,37.4865471,127.0371722,07시30분~19시30분,1,1,1,0,0,14,22,23,0,0,1,2,0,0,3
강남서초교육지원청,강남구,서울개원초등학교병설유치원(강남구),공립,병설,서울특별시 강남구 선릉로 29,,37.4813655,127.0590553,09시00분~20시00분,1,1,1,0,0,8,5,4,0,0,1,2,0,4,7
동작관악교육지원청,관악구,한별유치원(관악구),사립,사인,서울특별시 관악구 남부순환로144길 65,,37.4783982,126.9134451,08시00분~18시00분,1,2,2,0,0,26,36,46,0,0,0,10,0,0,10
남부교육지원청,금천구,서울백산초등학교병설유치원(금천구),공립,병설,서울특별시 금천구 시흥대로38길 78,,37.4470039,126.9050089,07시00분~19시00분,1,1,1,0,0,7,13,19,0,0,1,2,0,0,3
남부교육지원청,구로구,서울아람유치원(구로구),사립,사인,서울특별시 구로구 고척로25길 62,,37.5041477,126.8460221,09시00분~18시30분,1,1,1,0,0,13,12,26,0,0,0,5,0,0,5
남부교육지원청,영등포구,성모유치원(영등포구),사립,법인,서울특별시 영등포구 가마산로89길 7,,37.5052124,126.9210169,09시50분~18시00분,1,2,2,0,0,23,48,42,0,0,0,8,0,0,8
강서양천교육지원청,양천구,새서울유치원(양천구),사립,사인,서울특별시 양천구 목동서로 340,,37.5185416,126.8624047,08시00분~20시00분,1,1,2,0,0,12,17,37,0,0,0,4,0,0,4
강서양천교육지원청,양천구,샘터유치원(양천구),사립,사인,서울특별시 양천구 신월로 99,,37.5179066,126.8340997,08시00분~19시00분,1,2,1,0,0,25,44,41,0,0,0,8,0,0,8
강서양천교육지원청,양천구,서울경인유치원(양천구),공립,단설,서울특별시 양천구 안양천로 1009,,37.5327839,126.8863757,09시00분~17시00분,1,2,2,0,1,13,26,28,0,4,2,3,1,7,13
강서양천교육지원청,강서구,서울공항초등학교병설유치원(강서구),공립,병설,서울특별시 강서구 마곡서1로 68,,37.5630186,126.8216307,07시30분~19시30분,1,1,2,0,1,11,19,41,0,4,1,4,0,0,5
동부교육지원청,동대문구,새일문유치원(동대문구),사립,사인,서울특별시 동대문구 장한로 165,,37.5751317,127.0716373,07시30분~19시30분,0,0,0,2,0,0,0,0,48,0,0,4,0,0,4
동부교육지원청,중랑구,서울중곡초등학교병설유치원(중랑구),공립,병설,서울특별시 중랑구 면목로23길 20,,37.5743574,127.0836385,07시00분~19시30분,2,1,1,0,0,12,20,19,0,0,1,3,0,1,5
북부교육지원청,노원구,한울유치원(노원구),사립,사인,서울특별시 노원구 덕릉로122길 12-6,,37.667829,127.0816184,08시00분~17시00분,1,1,1,0,0,6,6,14,0,0,0,3,0,1,4
북부교육지원청,도봉구,햇살유치원(도봉구),사립,사인,서울특별시 도봉구 우이천로32길 38,,37.6492775,127.025319,08시00분~18시00분,1,2,2,0,0,17,49,44,0,0,0,8,0,0,8
북부교육지원청,노원구,효천유치원(노원구),사립,사인,서울특별시 노원구 중계로18길 14,,37.6519314,127.0795434,08시00분~19시00분,2,1,1,0,0,26,28,31,0,0,0,7,0,0,7
서부교육지원청,은평구,궁전유치원(은평구),사립,사인,서울특별시 은평구 갈현로33길 24,,37.6221702,126.9141882,09시00분~17시00분,1,1,1,0,0,9,8,19,0,0,0,5,0,0,5
강동송파교육지원청,송파구,꿀벌유치원(송파구),사립,사인,서울특별시 송파구 양산로8길 8,,37.4909346,127.1445265,08시00분~18시00분,2,1,1,0,0,34,29,23,0,0,0,8,0,0,8
강동송파교육지원청,강동구,송원유치원(강동구),사립,사인,서울특별시 강동구 성안로 64,,37.5291993,127.131641,09시00분~18시00분,2,1,2,0,0,40,24,46,0,0,0,8,0,0,8
북부교육지원청,도봉구,행복한유치원(도봉구),사립,사인,서울특별시 도봉구 시루봉로6길 86,,37.6585638,127.031201,07시30분~19시30분,2,1,1,0,0,21,17,18,0,0,0,5,0,0,5
서부교육지원청,은평구,성아유치원(은평구),사립,사인,서울특별시 은평구 응암로14길 21,,37.5899359,126.9197443,07시00분~20시00분,1,2,1,0,0,17,29,35,0,0,0,6,0,0,6
서부교육지원청,은평구,성균관유치원(은평구),사립,사인,서울특별시 은평구 연서로27길 23,,37.6183058,126.916926,07시00분~20시00분,1,3,2,0,0,20,70,45,0,0,0,12,0,0,12
동부교육지원청,동대문구,백주유치원(동대문구),사립,사인,서울특별시 동대문구 서울시립대로18길 19,,37.5806018,127.0527685,08시00분~19시00분,1,1,1,0,0,6,24,12,0,0,0,5,0,0,5
서부교육지원청,은평구,동산유치원(은평구),사립,법인,서울특별시 은평구 증산서길 53-9,,37.5817929,126.9044084,07시30분~19시30분,1,2,2,0,0,23,41,27,0,0,0,8,0,0,8
중부교육지원청,용산구,강변유치원(용산구),사립,법인,서울특별시 용산구 이촌로84길 9-7,,37.5183321,126.9774277,09시00분~17시00분,1,1,1,0,0,6,12,16,0,0,0,4,0,0,4
성북강북교육지원청,성북구,개동유치원(성북구),사립,법인,서울특별시 성북구 보국문로 143,,37.615808,127.0050899,09시00분~17시00분,1,1,1,0,0,9,19,25,0,0,0,4,0,0,4
성북강북교육지원청,성북구,영광유치원(성북구),사립,사인,서울특별시 성북구 북악산로 913,,37.5958945,127.0233972,08시00분~18시30분,2,2,2,0,0,42,43,42,0,0,0,10,0,0,10
성북강북교육지원청,성북구,은영유치원(성북구),사립,법인,서울특별시 성북구 보문사길 18,,37.5846344,127.016642,09시00분~18시00분,2,1,2,0,0,28,25,34,0,0,0,9,0,0,9
강서양천교육지원청,양천구,솔샘유치원(양천구),사립,사인,서울특별시 양천구 목동서로 130,,37.5319314,126.8715915,09시30분~20시00분,2,2,1,0,0,30,34,22,0,0,0,6,0,0,6
강서양천교육지원청,강서구,한나유치원(강서구),사립,사인,서울특별시 강서구 금낭화로 287-19,,37.5771886,126.8102531,07시00분~20시00분,1,1,1,0,0,18,12,19,0,0,0,5,0,0,5
강서양천교육지원청,강서구,화곡유치원(강서구),사립,법인,서울특별시 강서구 까치산로 60,,37.5440112,126.8465873,08시00분~18시00분,0,0,1,0,0,0,0,12,0,0,0,2,0,0,2
남부교육지원청,구로구,정훈유치원(구로구),사립,사인,서울특별시 구로구 경인로 382,,37.4952641,126.8625018,08시00분~19시00분,1,2,2,0,0,39,44,50,0,0,0,10,0,0,10
남부교육지원청,영등포구,큰나무유치원(영등포구),사립,사인,서울특별시 영등포구 도신로 31,,37.5055322,126.8956135,09시00분~18시00분,2,2,1,0,0,34,26,17,0,0,0,8,0,0,8
남부교육지원청,영등포구,평강유치원(영등포구),사립,사인,서울특별시 영등포구 신길로 27,,37.4949273,126.9081218,09시30분~17시30분,2,1,2,0,0,47,24,46,0,0,0,8,0,0,8
북부교육지원청,도봉구,선희유치원(도봉구),사립,사인,서울특별시 도봉구 해등로 241,,37.6570391,127.0313224,08시00분~18시30분,1,1,1,0,0,9,21,17,0,0,0,4,0,0,4
북부교육지원청,도봉구,슬기유치원(도봉구),사립,사인,서울특별시 도봉구 도봉로180나길 33-29,,37.6857362,127.0480605,07시00분~22시00분,3,2,3,0,0,63,58,76,0,0,0,17,0,1,18
북부교육지원청,노원구,영은유치원(노원구),사립,사인,서울특별시 노원구 동일로213길 78,,37.6481378,127.0575649,07시00분~20시00분,1,1,1,0,0,18,20,28,0,0,0,5,0,0,5
서부교육지원청,마포구,서울마포초등학교병설유치원(마포구),공립,병설,서울특별시 마포구 도화2길 64,,37.5385766,126.9490889,07시30분~20시00분,1,1,2,0,0,13,20,38,0,0,1,3,0,1,5
서부교육지원청,마포구,서울상암초등학교병설유치원(마포구),공립,병설,서울특별시 마포구 월드컵북로 353,,37.5760868,126.8921932,07시30분~19시30분,1,1,1,0,0,13,12,22,0,0,1,2,0,0,3
서부교육지원청,은평구,서울신도초등학교병설유치원(은평구),공립,병설,서울특별시 은평구 진관1로 77-23,,37.6328578,126.9291221,07시00분~19시00분,0,1,1,0,1,0,7,14,0,3,1,1,1,0,3
서부교육지원청,마포구,서일유치원(마포구),사립,사인,서울특별시 마포구 새터산16길 14,,37.5674459,126.9081826,07시00분~20시00분,2,2,2,0,0,29,43,45,0,0,0,11,0,0,11
성동광진교육지원청,광진구,선경유치원(광진구),사립,법인,서울특별시 광진구 뚝섬로66길 14,,37.5329367,127.0895315,09시00분~18시00분,2,2,2,0,0,44,44,52,0,0,1,5,0,5,11
성동광진교육지원청,광진구,성산유치원(광진구),사립,법인,서울특별시 광진구 뚝섬로59길 18,,37.5328963,127.0841408,07시00분~19시00분,1,1,1,0,0,14,14,21,0,0,0,5,0,0,5
성동광진교육지원청,광진구,자양유치원(광진구),사립,사인,서울특별시 광진구 자양로5길 36,,37.531206,127.0837497,09시00분~20시00분,0,0,1,1,0,0,0,19,14,0,0,3,0,0,3
성동광진교육지원청,광진구,프라임유치원(광진구),사립,사인,서울특별시 광진구 광나루로56길 5,,37.5373973,127.0976212,08시00분~19시00분,3,2,2,0,0,54,46,46,0,0,0,12,0,2,14
강동송파교육지원청,송파구,서울신천초등학교병설유치원(송파구),공립,병설,서울특별시 송파구 올림픽로 215,,37.5136269,127.0951912,07시00분~20시00분,1,1,2,0,1,7,15,40,0,4,1,3,0,3,7
강동송파교육지원청,송파구,장미유치원(송파구),사립,법인,서울특별시 송파구 올림픽로35길 118,,37.5179162,127.1008463,08시00분~19시00분,1,1,1,0,0,18,23,19,0,0,0,6,0,0,6
서부교육지원청,서대문구,연유치원(서대문구),사립,사인,서울특별시 서대문구 명지대길 39-4,,37.5818847,126.9240957,07시30분~19시30분,1,2,2,0,0,20,29,38,0,0,0,6,0,0,6
강남서초교육지원청,강남구,도곡렉슬유치원(강남구),사립,사인,서울특별시 강남구 선릉로 221,,37.4935415,127.0505473,08시30분~18시00분,0,0,0,8,0,0,0,0,199,0,0,17,0,4,21
성북강북교육지원청,성북구,두산효자유치원(성북구),사립,사인,서울특별시 성북구 화랑로48길 16,,37.6126553,127.0687059,07시30분~19시30분,1,2,1,0,0,17,27,24,0,0,0,6,0,0,6
동작관악교육지원청,관악구,동원유치원(관악구),사립,사인,서울특별시 관악구 행운1길 96,,37.4828602,126.9566444,07시30분~20시00분,1,1,1,0,0,17,19,8,0,0,0,4,0,2,6
동작관악교육지원청,관악구,서울관악초등학교병설유치원(관악구),공립,병설,서울특별시 관악구 청룡4길 49,,37.4806341,126.9432666,07시10분~19시10분,1,1,1,0,1,10,17,16,0,4,1,3,0,1,5
북부교육지원청,노원구,키즈위즈유치원(노원구),사립,사인,서울특별시 노원구 덕릉로86길 65,,37.6610028,127.0784879,08시00분~18시00분,1,1,2,0,0,4,13,40,0,0,0,5,0,0,5
성북강북교육지원청,성북구,새싹유치원(성북구),사립,법인,서울특별시 성북구 정릉로 282,,37.6031297,127.0145273,08시00분~19시00분,2,2,2,0,0,28,38,51,0,0,0,9,0,1,10
강동송파교육지원청,강동구,한영중고등학교병설한영유치원(강동구),사립,법인,서울특별시 강동구 동남로 832,,37.5487478,127.1574651,09시00분~17시00분,3,2,3,0,0,54,51,57,0,0,0,4,0,8,12
강서양천교육지원청,양천구,서울월촌초등학교병설유치원(양천구),공립,병설,서울특별시 양천구 목동중앙로 132,,37.5400198,126.8761842,07시30분~19시30분,2,1,2,0,0,24,20,25,0,0,0,5,0,4,9
강서양천교육지원청,강서구,선미유치원(강서구),사립,법인,서울특별시 강서구 까치산로2길 43,,37.5393081,126.8436329,08시00분~18시00분,1,2,2,0,0,16,42,29,0,0,0,10,0,0,10
강서양천교육지원청,양천구,솔밭유치원(양천구),사립,사인,서울특별시 양천구 신월로10길 2-1,,37.5168783,126.8401423,09시00분~18시00분,0,0,1,2,0,0,0,19,24,0,0,4,0,0,4
남부교육지원청,구로구,미림유치원(구로구),사립,사인,서울특별시 구로구 개봉로18길 37,,37.4908637,126.8579548,07시20분~19시20분,2,0,0,1,0,19,0,0,35,0,0,5,0,0,5
동부교육지원청,동대문구,예일유치원(동대문구),사립,사인,서울특별시 동대문구 사가정로 190,,37.5772715,127.0649582,08시00분~18시00분,2,2,2,0,0,37,43,44,0,0,0,9,0,5,14
남부교육지원청,영등포구,은하유치원(영등포구),사립,법인,서울특별시 영등포구 당산로28길 11,,37.5248499,126.898048,08시30분~18시30분,1,1,1,0,0,28,30,29,0,0,0,6,0,0,6
동작관악교육지원청,동작구,서울은로초등학교병설유치원(동작구),공립,병설,서울특별시 동작구 서달로 115,,37.50336,126.9600697,09시00분~19시00분,1,1,2,0,1,13,21,46,0,4,1,3,1,4,9
동작관악교육지원청,관악구,서울은천초등학교병설유치원(관악구),공립,병설,서울특별시 관악구 은천로 69,,37.4868215,126.9428898,07시00분~20시00분,1,2,1,0,1,13,21,19,0,4,1,4,1,3,9
동작관악교육지원청,동작구,예림유치원(동작구),사립,사인,서울특별시 동작구 현충로 151,,37.5069023,126.969582,07시00분~19시00분,0,0,1,1,0,0,0,8,3,0,0,3,0,0,3
북부교육지원청,도봉구,보나유치원(도봉구),사립,사인,서울특별시 도봉구 해등로 307,,37.6568391,127.0217422,07시00분~20시00분,1,1,2,0,0,14,25,38,0,0,0,7,0,0,7
북부교육지원청,노원구,공릉 사라유치원(노원구),사립,사인,서울특별시 노원구 동일로198가길 13,,37.6298796,127.0719275,08시00분~19시00분,1,2,2,0,0,12,26,33,0,0,0,6,0,0,6
북부교육지원청,노원구,상원유치원(노원구),사립,사인,서울특별시 노원구 노원로19길 33,,37.6434538,127.0696568,08시00분~19시00분,1,2,3,0,0,20,34,54,0,0,0,11,0,0,11
북부교육지원청,노원구,서울수락초등학교병설유치원(노원구),공립,병설,서울특별시 노원구 동일로 1745,,37.6840069,127.0545469,07시00분~19시00분,1,1,1,0,1,4,6,11,0,4,1,2,1,0,4
북부교육지원청,노원구,육사유치원(노원구),사립,사인,서울 노원구 공릉동 24-1,,37.6261603,127.0973309,07시30분~19시00분,1,1,1,0,0,12,16,19,0,0,0,5,0,0,5
북부교육지원청,노원구,이레유치원(노원구),사립,사인,서울특별시 노원구 월계로55길 16,,37.6325655,127.0609172,09시00분~20시00분,0,0,0,5,0,0,0,0,73,0,0,6,0,0,6
북부교육지원청,도봉구,정의유치원(도봉구),사립,법인,서울특별시 도봉구 노해로49길 69,,37.65297,127.0317983,07시30분~19시00분,2,3,2,0,0,29,58,39,0,0,0,14,0,0,14
북부교육지원청,도봉구,청아유치원(도봉구),사립,사인,서울특별시 도봉구 노해로69가길 11,,37.6572501,127.0483041,07시30분~19시30분,1,2,1,0,0,14,41,20,0,0,0,8,0,0,8
서부교육지원청,마포구,배영유치원(마포구),사립,사인,서울특별시 마포구 잔다리로6길 11,,37.5525024,126.9198547,09시00분~18시00분,1,2,1,0,0,28,29,26,0,0,0,9,0,0,9
성북강북교육지원청,성북구,영암유치원(성북구),사립,법인,서울특별시 성북구 안암로7길 66,,37.5822497,127.0234377,09시00분~20시00분,1,1,1,0,0,21,23,24,0,0,0,6,0,0,6
성북강북교육지원청,성북구,성신유치원(성북구),사립,법인,서울특별시 성북구 보문로34다길 2,,37.591939,127.0220201,08시00분~18시00분,2,2,1,0,0,38,42,23,0,0,0,7,0,1,8
강남서초교육지원청,강남구,영동제일유치원(강남구),사립,사인,서울특별시 강남구 삼성로120길 28,,37.5174447,127.0533678,09시00분~17시00분,2,2,2,0,0,39,34,55,0,0,0,9,0,0,9
강남서초교육지원청,서초구,석문유치원(서초구),사립,법인,서울특별시 서초구 서초대로64길 73,,37.4927069,127.0217879,09시00분~18시00분,1,1,2,0,0,22,25,46,0,0,0,8,0,0,8
강남서초교육지원청,서초구,여나유치원(서초구),사립,사인,서울특별시 서초구 서초중앙로 200,,37.4985436,127.0156133,09시00분~17시00분,2,2,2,0,0,41,40,45,0,0,0,10,0,0,10
강남서초교육지원청,서초구,영유유치원(서초구),사립,사인,서울특별시 서초구 효령로34길 72,,37.4786533,127.0007726,09시00분~18시00분,1,2,2,0,0,15,20,27,0,0,0,5,0,0,5
중부교육지원청,중구,서울충무초등학교병설유치원(중구),공립,병설,서울특별시 중구 퇴계로50길 13,,37.5620231,127.0018217,07시30분~19시30분,1,1,1,0,0,5,10,8,0,0,1,2,0,0,3
중부교육지원청,용산구,서울한남초등학교병설유치원(용산구),공립,병설,서울특별시 용산구 한남대로 112,,37.539031,127.0052547,07시30분~19시30분,1,1,1,0,0,5,10,19,0,0,1,2,0,0,3
중부교육지원청,중구,영락유치원(중구),사립,법인,서울특별시 중구 수표로 33,,37.5633994,126.9887784,07시00분~22시00분,1,1,1,0,0,10,18,23,0,0,0,5,0,0,5
중부교육지원청,종로구,옥인유치원(종로구),사립,사인,서울특별시 종로구 자하문로 69,,37.5822149,126.9703488,08시00분~17시10분,1,1,1,0,0,15,24,25,0,0,0,5,0,0,5
중부교육지원청,용산구,충신유치원(용산구),사립,사인,서울특별시 용산구 이촌로71길 14,,37.520716,126.9735261,09시00분~17시00분,2,3,2,0,0,48,60,52,0,0,0,15,0,5,20
강동송파교육지원청,송파구,새움유치원(송파구),사립,사인,서울특별시 송파구 중대로27길 2,,37.5035424,127.128573,09시00분~19시00분,2,1,2,0,0,36,15,38,0,0,0,9,0,0,9
북부교육지원청,도봉구,예랑유치원(도봉구),사립,사인,서울특별시 도봉구 해등로4길 9,,37.6485688,127.0440978,09시00분~19시00분,1,1,1,0,0,9,15,21,0,0,0,5,0,7,12
성북강북교육지원청,성북구,서울장곡초등학교병설유치원(성북구),공립,병설,서울특별시 성북구 장월로23길 16,,37.6166901,127.0481912,07시00분~20시00분,2,1,1,0,0,15,22,23,0,0,1,2,0,1,4
남부교육지원청,구로구,서울세곡초등학교병설유치원(구로구),공립,병설,서울특별시 구로구 고척로33길 34,,37.5047112,126.8491696,07시30분~19시30분,1,1,1,0,1,5,6,12,0,4,1,2,1,3,7
동부교육지원청,중랑구,서울면동초등학교병설유치원(중랑구),공립,병설,서울특별시 중랑구 면목로57길 32,,37.5852697,127.0866741,07시30분~19시30분,1,1,1,0,0,11,12,22,0,0,1,2,0,1,4
동부교육지원청,동대문구,삼성유치원(동대문구),사립,사인,서울특별시 동대문구 사가정로 65,,37.576284,127.0506563,08시00분~18시30분,3,3,2,0,0,69,72,57,0,0,0,17,0,0,17
남부교육지원청,금천구,참사랑유치원(금천구),사립,사인,서울특별시 금천구 벚꽃로 73,,37.462262,126.8903849,08시00분~18시00분,2,3,2,0,0,41,56,43,0,0,0,14,0,1,15
북부교육지원청,노원구,온누리유치원(노원구),사립,사인,서울특별시 노원구 동일로227길 47,,37.666982,127.0542975,07시30분~19시30분,2,2,1,0,0,33,39,26,0,0,0,9,0,0,9
성동광진교육지원청,광진구,서울자양초등학교병설유치원(광진구),공립,병설,서울특별시 광진구 아차산로44길 26,,37.5368302,127.0795451,07시00분~20시00분,1,1,2,0,0,14,9,32,0,0,1,2,0,1,4
성북강북교육지원청,강북구,금성유치원(강북구),사립,사인,서울특별시 강북구 한천로123길 9,,37.6362322,127.0315029,09시00분~19시30분,0,0,0,1,0,0,0,0,31,0,0,2,0,0,2
성북강북교육지원청,강북구,동명유치원(강북구),사립,사인,서울특별시 강북구 오패산로 130,,37.6135948,127.0342577,09시00분~17시00분,1,1,1,0,0,9,16,20,0,0,0,3,0,0,3
성북강북교육지원청,강북구,길물빛유치원(강북구),사립,사인,서울특별시 강북구 인수봉로 260,,37.6418713,127.0120808,09시00분~17시00분,0,0,1,2,0,0,0,30,47,0,0,6,0,0,6
강동송파교육지원청,강동구,준현유치원(강동구),사립,사인,서울특별시 강동구 성내로3가길 61,,37.5307601,127.1259881,08시00분~19시00분,2,2,2,0,0,40,48,52,0,0,0,12,0,0,12
동작관악교육지원청,관악구,서울신성초등학교병설유치원(관악구),공립,병설,서울특별시 관악구 신림로 114,,37.4715828,126.936649,07시30분~19시30분,2,1,2,0,1,21,17,29,0,5,2,3,1,0,6
북부교육지원청,노원구,꽃동산유치원(노원구),사립,법인,서울특별시 노원구 공릉로 257,,37.6302186,127.0745008,09시00분~18시00분,1,1,1,0,0,4,3,8,0,0,0,3,0,0,3
강동송파교육지원청,강동구,고덕유치원(강동구),사립,법인,서울특별시 강동구 구천면로 645,,37.5509688,127.1690239,09시00분~18시00분,1,1,2,0,0,19,23,56,0,0,0,4,0,2,6
서부교육지원청,은평구,서울진관유치원(은평구),공립,단설,서울특별시 은평구 진관2로 111-16,,37.6341342,126.9179996,07시30분~19시30분,2,2,2,0,1,18,18,30,0,5,2,4,1,0,7
서부교육지원청,은평구,서울은빛유치원(은평구),공립,단설,서울특별시 은평구 진관3로 73-11,,37.6407397,126.9206861,07시10분~19시30분,2,2,2,0,1,21,35,45,0,5,2,4,1,0,7
강서양천교육지원청,강서구,서울공진초등학교병설유치원(강서구),공립,병설,서울특별시 강서구 마곡서로 33,,37.5578329,126.8226825,07시00분~19시00분,1,1,1,0,0,15,19,24,0,0,1,3,0,0,4
서부교육지원청,은평구,선일유치원(은평구),사립,법인,서울특별시 은평구 갈현로29길 27,,37.6197355,126.912473,09시30분~18시00분,1,2,2,0,0,22,49,39,0,0,1,4,0,3,8
동작관악교육지원청,동작구,서울상도유치원(동작구),공립,단설,서울특별시 동작구 만양로3길 48,,37.5082504,126.9433247,07시00분~20시00분,2,2,2,0,1,24,32,35,0,3,2,4,1,1,8
동작관악교육지원청,동작구,총신대부속유치원(동작구),사립,법인,서울특별시 동작구 사당로 143,,37.4891828,126.9666401,08시00분~18시00분,2,2,2,0,0,37,52,48,0,0,2,12,0,0,14
동작관악교육지원청,관악구,큰솔유치원(관악구),사립,사인,서울특별시 관악구 관악로30길 12,,37.4849777,126.9595277,09시00분~19시30분,3,2,2,0,0,70,46,48,0,0,0,12,0,0,12
동작관악교육지원청,관악구,현대유치원(관악구),사립,사인,서울특별시 관악구 관악로40길 55,,37.4922659,126.9584734,08시00분~19시00분,2,2,2,0,0,48,50,47,0,0,0,11,0,1,12
남부교육지원청,구로구,서울개봉초등학교병설유치원(구로구),공립,병설,서울특별시 구로구 개봉로16길 30-11,,37.4894288,126.8584501,07시30분~19시30분,1,2,1,0,1,14,23,19,0,4,1,3,0,1,5
남부교육지원청,구로구,서울영서초등학교병설유치원(구로구),공립,병설,서울특별시 구로구 도림로20길 57,,37.4882669,126.8951118,07시00분~19시00분,1,1,1,0,1,6,9,17,0,4,1,2,1,0,4
남부교육지원청,영등포구,서울윤중초등학교병설유치원(영등포구),공립,병설,서울특별시 영등포구 여의나루로2길 14,,37.5194933,126.9228233,07시20분~19시20분,1,1,1,0,0,11,22,10,0,0,1,2,0,4,7
성동광진교육지원청,광진구,광남유치원(광진구),사립,사인,서울특별시 광진구 아차산로70길 40,,37.5406205,127.0986045,08시00분~18시30분,2,2,2,0,0,39,46,56,0,0,0,12,0,0,12
강서양천교육지원청,강서구,보라유치원(강서구),사립,사인,서울특별시 강서구 공항대로39길 100,,37.5626457,126.8466558,07시30분~19시30분,2,2,1,0,0,34,27,23,0,0,0,8,0,1,9
강서양천교육지원청,강서구,서강유치원(강서구),사립,사인,서울특별시 강서구 금낭화로 35,,37.5684684,126.8114401,09시00분~18시30분,1,2,2,0,0,22,42,38,0,0,0,8,0,0,8
동부교육지원청,동대문구,서울전동초등학교병설유치원(동대문구),공립,병설,서울특별시 동대문구 전농로16길 61,,37.5789529,127.0613852,07시20분~19시40분,1,1,1,0,1,6,16,18,0,5,1,2,1,3,7
동부교육지원청,동대문구,자람유치원(동대문구),사립,사인,서울특별시 동대문구 고산자로 534,,37.5889242,127.0391551,09시00분~20시00분,1,1,1,0,0,11,14,9,0,0,0,4,0,0,4
동부교육지원청,중랑구,신일유치원(중랑구),사립,사인,서울특별시 중랑구 면목로44길 55,,37.5810815,127.0916622,07시30분~19시30분,1,1,1,0,0,8,8,14,0,0,0,3,0,0,3
동부교육지원청,중랑구,아랑유치원(중랑구),사립,사인,서울특별시 중랑구 중랑역로 47,,37.5981313,127.0766549,09시00분~20시00분,1,1,1,0,0,14,29,18,0,0,0,4,0,4,8
북부교육지원청,노원구,학여울유치원(노원구),사립,사인,서울특별시 노원구 동일로207길 186,,37.6363492,127.0613398,07시30분~19시30분,2,2,2,0,0,44,48,54,0,0,0,12,0,0,12
북부교육지원청,노원구,효자유치원(노원구),사립,사인,서울특별시 노원구 마들로 111,,37.6245902,127.0654159,07시00분~20시00분,2,2,2,0,0,39,38,31,0,0,0,10,0,3,13
강동송파교육지원청,송파구,우일유치원(송파구),사립,사인,서울특별시 송파구 토성로 38-6,,37.5294308,127.1127416,07시40분~19시00분,3,4,4,0,0,81,96,105,0,0,0,23,0,10,33
강동송파교육지원청,송파구,석촌유치원(송파구),사립,사인,서울특별시 송파구 백제고분로40길 20,,37.5028625,127.106635,08시40분~16시40분,3,3,4,0,0,61,79,100,0,0,0,19,0,2,21
서부교육지원청,마포구,서울상지초등학교병설유치원(마포구),공립,병설,서울특별시 마포구 월드컵로42길 30,,37.5796005,126.8822538,07시30분~19시30분,1,1,1,0,1,8,11,18,0,5,1,2,1,0,4
서부교육지원청,마포구,대진유치원(마포구),사립,법인,서울특별시 마포구 성미산로11길 36,,37.5621939,126.9163779,07시00분~18시00분,5,0,0,0,0,83,0,0,0,0,0,8,0,2,10
강동송파교육지원청,강동구,예슬유치원(강동구),사립,사인,서울특별시 강동구 상암로 11,,37.552396,127.1258146,08시00분~18시00분,2,3,3,0,0,43,50,63,0,0,0,14,0,0,14
강동송파교육지원청,송파구,샛별유치원(송파구),사립,사인,서울특별시 송파구 중대로9길 53-27,,37.4986328,127.1187698,09시00분~19시00분,1,1,1,0,0,18,20,23,0,0,0,6,0,0,6
강동송파교육지원청,송파구,동삼유치원(송파구),사립,사인,서울특별시 송파구 마천로41길 14,,37.4969597,127.1490302,09시00분~18시30분,0,0,0,2,0,0,0,0,14,0,0,2,0,0,2
동부교육지원청,중랑구,로뎅유치원(중랑구),사립,사인,서울특별시 중랑구 봉화산로 90,,37.6019739,127.0846171,07시00분~20시00분,0,0,1,1,0,0,0,12,19,0,0,3,0,1,4
강서양천교육지원청,양천구,원일유치원(양천구),사립,법인,서울특별시 양천구 목동동로 350,,37.5341154,126.882084,08시00분~19시30분,2,1,2,0,0,37,21,30,0,0,1,8,0,0,9
남부교육지원청,구로구,나비유치원(구로구),사립,사인,서울특별시 구로구 고척로 30,,37.497297,126.8396709,09시30분~17시30분,1,1,2,0,0,16,6,28,0,0,0,5,0,0,5
남부교육지원청,금천구,조형유치원(금천구),사립,사인,서울특별시 금천구 독산로1길 3,,37.448898,126.9035285,09시30분~17시30분,1,1,1,0,0,0,18,19,0,0,0,3,0,0,3
남부교육지원청,구로구,준희유치원(구로구),사립,사인,서울특별시 구로구 경인로19길 8,,37.4960688,126.8428415,09시00분~20시00분,0,0,0,1,0,0,0,0,20,0,0,1,0,0,1
성동광진교육지원청,광진구,어린이회관유치원(광진구),사립,법인,서울특별시 광진구 광나루로 441,,37.5468015,127.0778337,08시30분~19시00분,4,4,4,0,0,91,97,82,0,0,3,15,0,6,24
성동광진교육지원청,광진구,영화유치원(광진구),사립,사인,서울특별시 광진구 영화사로 105,,37.5540563,127.0977109,08시00분~19시30분,0,2,1,0,0,0,25,20,0,0,0,5,0,0,5
강남서초교육지원청,서초구,육영유치원(서초구),사립,사인,서울특별시 서초구 방배로6길 18,,37.479191,127.0004898,09시00분~20시00분,0,0,1,1,0,0,0,28,28,0,0,0,0,3,3
강동송파교육지원청,강동구,서울고명초등학교병설유치원(강동구),공립,병설,서울특별시 강동구 고덕로46길 53,,37.5526417,127.1468748,07시30분~19시30분,1,1,1,0,0,5,16,19,0,0,1,2,0,0,3
강동송파교육지원청,강동구,서울명일유치원(강동구),공립,단설,서울특별시 강동구 암사19길 53,,37.5539222,127.1419775,07시00분~19시30분,1,2,3,0,1,15,28,46,0,7,2,4,1,2,9
강서양천교육지원청,강서구,신세기유치원(강서구),사립,사인,서울특별시 강서구 허준로 47,,37.5704953,126.8471746,08시00분~18시00분,2,1,2,0,0,33,23,43,0,0,0,8,0,0,8
강동송파교육지원청,강동구,성보나유치원(강동구),사립,법인,서울특별시 강동구 고덕로83길 68,,37.5602865,127.1693988,08시30분~18시00분,1,1,1,0,0,22,23,19,0,0,0,5,0,0,5
북부교육지원청,노원구,보고유치원(노원구),사립,사인,서울특별시 노원구 석계로13길 23-14,,37.6195942,127.0614235,07시00분~19시30분,1,2,1,0,0,11,22,20,0,0,0,5,0,0,5
성북강북교육지원청,성북구,빛나라유치원(성북구),사립,사인,서울특별시 성북구 종암로9길 78,,37.5973938,127.0329856,09시00분~20시00분,1,1,1,0,0,11,12,17,0,0,0,3,0,0,3
강동송파교육지원청,송파구,생명나무유치원(송파구),사립,사인,서울특별시 송파구 송파대로8길 17,,37.4781727,127.1286551,08시00분~18시00분,3,2,2,0,0,56,44,38,0,0,0,12,0,0,12
성북강북교육지원청,성북구,선한유치원(성북구),사립,법인,서울특별시 성북구 길음로9길 73,,37.6039552,127.0205947,08시00분~19시30분,1,1,1,0,0,18,25,25,0,0,0,8,0,0,8
강서양천교육지원청,양천구,서울영도초등학교병설유치원(양천구),공립,병설,서울특별시 양천구 목동중앙로 70,,37.5357584,126.8715056,07시00분~19시00분,1,2,2,0,0,9,21,25,0,0,1,4,0,0,5
강서양천교육지원청,강서구,서울정곡초등학교병설유치원(강서구),공립,병설,서울특별시 강서구 방화대로50길 22,,37.5766459,126.8189585,07시00분~19시00분,1,1,1,0,0,5,8,17,0,0,1,2,0,3,6
강서양천교육지원청,강서구,신영유치원(강서구),사립,사인,서울특별시 강서구 곰달래로25길 4,,37.5309919,126.8492363,07시30분~19시30분,2,2,2,0,0,31,38,40,0,0,0,11,0,2,13
남부교육지원청,구로구,새두산유치원(구로구),사립,사인,서울특별시 구로구 도림로 59,,37.4893405,126.8892594,07시00분~19시00분,2,2,1,0,0,32,32,18,0,0,0,8,0,3,11
동부교육지원청,중랑구,영은유치원(중랑구),사립,사인,서울특별시 중랑구 신내로19길 42,,37.6152616,127.0910145,07시50분~20시00분,3,2,3,0,0,54,52,64,0,0,0,15,0,0,15
동작관악교육지원청,동작구,동그라미유치원(동작구),사립,사인,서울특별시 동작구 사당로28길 34,,37.481584,126.9793751,08시00분~19시00분,3,4,3,0,0,68,80,80,0,0,0,17,0,0,17
남부교육지원청,구로구,세희유치원(구로구),사립,사인,서울특별시 구로구 도림로 107,,37.4920109,126.8940706,07시00분~20시00분,1,1,1,0,0,12,17,16,0,0,0,5,0,0,5
동작관악교육지원청,관악구,예닮유치원(관악구),사립,사인,서울특별시 관악구 신원로3길 59-9,,37.4825231,126.9252692,09시00분~18시30분,1,1,1,0,0,7,6,12,0,0,0,2,0,0,2
동작관악교육지원청,동작구,은혜유치원(동작구),사립,사인,서울특별시 동작구 성대로6가길 29,,37.4977926,126.933181,08시00분~19시00분,1,1,1,0,0,0,0,0,0,0,0,3,0,0,3
북부교육지원청,도봉구,다솜유치원(도봉구),사립,사인,서울특별시 도봉구 해등로 195,,37.6572508,127.0351747,09시00분~19시30분,1,3,3,0,0,45,79,81,0,0,1,12,0,0,13
북부교육지원청,노원구,대원유치원(노원구),사립,사인,서울특별시 노원구 동일로228길 29,,37.6678103,127.0587367,08시30분~18시30분,0,1,1,0,0,0,4,7,0,0,0,2,0,1,3
북부교육지원청,노원구,보배유치원(노원구),사립,사인,서울특별시 노원구 마들로3길 37,,37.6294153,127.062514,07시30분~19시30분,2,1,1,0,0,16,22,21,0,0,0,6,0,0,6
북부교육지원청,노원구,우리유치원(노원구),사립,사인,서울특별시 노원구 한글비석로 281,,37.6528843,127.0777274,09시00분~18시30분,2,3,2,0,0,41,54,52,0,0,0,10,0,0,10
북부교육지원청,노원구,초안유치원(노원구),사립,사인,서울특별시 노원구 우이천로 102,,37.6313214,127.0429208,08시00분~20시00분,1,1,2,0,0,13,11,33,0,0,0,6,0,0,6
서부교육지원청,서대문구,벧엘유치원(서대문구),사립,사인,서울특별시 서대문구 연희로10길 17-6,,37.5663381,126.9322228,08시00분~19시00분,2,2,2,0,0,28,27,35,0,0,0,8,0,0,8
서부교육지원청,서대문구,예그린유치원(서대문구),사립,사인,서울특별시 서대문구 홍제내길 84,,37.5861575,126.9358687,09시00분~20시00분,1,1,1,0,0,16,19,26,0,0,0,4,0,0,4
서부교육지원청,은평구,색동유치원(은평구),사립,사인,서울특별시 은평구 갈현로 212-1,,37.6160676,126.9142392,07시30분~20시00분,2,2,2,0,0,25,36,51,0,0,0,11,0,0,11
성동광진교육지원청,성동구,아이들세상유치원(성동구),사립,사인,서울특별시 성동구 독서당로 272,,37.5459724,127.0196834,08시20분~17시00분,1,2,2,0,0,23,31,31,0,0,0,9,0,0,9
성북강북교육지원청,성북구,사랑유치원(성북구),사립,사인,서울특별시 성북구 월곡로7길 72,,37.5998619,127.0362887,07시00분~20시00분,1,2,2,0,0,52,55,68,0,0,0,14,0,0,14
강동송파교육지원청,강동구,오송유치원(강동구),사립,사인,서울특별시 강동구 구천면로39길 26,,37.5458538,127.1319106,08시30분~18시00분,2,2,3,0,0,26,30,57,0,0,0,10,0,0,10
강남서초교육지원청,강남구,서울수서초등학교병설유치원(강남구),공립,병설,서울특별시 강남구 광평로51길 46,,37.4908423,127.101657,07시00분~20시00분,1,1,1,0,0,6,5,8,0,0,1,2,0,0,3
서부교육지원청,서대문구,서울인왕초등학교병설유치원(서대문구),공립,병설,서울특별시 서대문구 세무서길 33-9,,37.5902441,126.9453276,07시30분~20시00분,1,1,1,0,0,7,18,20,0,0,1,2,0,1,4
강남서초교육지원청,강남구,선경유치원(강남구),사립,사인,서울특별시 강남구 삼성로 151,,37.4921261,127.0625653,08시30분~18시00분,1,0,0,2,0,8,0,0,19,0,0,3,0,0,3
강남서초교육지원청,강남구,신아유치원(강남구),사립,사인,서울특별시 강남구 개포로110길 15,,37.4922926,127.0783273,07시30분~19시00분,1,1,2,0,0,30,30,60,0,0,0,8,0,0,8
강남서초교육지원청,강남구,신양유치원(강남구),사립,사인,서울특별시 강남구 선릉로10길 18-6,,37.4837054,127.0614047,09시00분~19시30분,1,1,2,0,0,19,17,31,0,0,0,7,0,0,7
강남서초교육지원청,서초구,우정유치원(서초구),사립,사인,서울특별시 서초구 서초대로70길 32,,37.493857,127.0233637,09시30분~18시00분,0,1,2,0,0,0,24,43,0,0,0,6,0,0,6
강서양천교육지원청,강서구,강서유치원(강서구),사립,사인,서울특별시 강서구 까치산로 116,,37.548205,126.8500488,07시30분~19시30분,1,2,3,0,0,16,32,55,0,0,0,9,0,0,9
강서양천교육지원청,강서구,대유유치원(강서구),사립,법인,서울특별시 강서구 곰달래로57길 39,,37.534002,126.8616061,08시00분~20시00분,1,1,2,0,0,16,22,36,0,0,0,4,0,3,7
강서양천교육지원청,양천구,대한유치원(양천구),사립,사인,서울특별시 양천구 오목로13길 31,,37.5257182,126.8447985,08시00분~18시40분,1,1,1,0,0,5,16,14,0,0,0,3,0,0,3
강서양천교육지원청,양천구,동연유치원(양천구),사립,사인,서울특별시 양천구 목동중앙북로7길 22,,37.5488578,126.8676988,09시00분~20시00분,1,1,1,0,0,10,25,24,0,0,1,4,0,0,5
강서양천교육지원청,양천구,목성유치원(양천구),사립,사인,서울특별시 양천구 목동동로 50,,37.5130364,126.8611326,08시30분~17시30분,2,2,2,0,0,40,60,60,0,0,0,13,0,0,13
강서양천교육지원청,강서구,문성유치원(강서구),사립,사인,서울특별시 강서구 우현로 8,,37.5470819,126.8446039,09시00분~17시00분,1,2,3,0,0,13,32,44,0,0,0,7,0,0,7
중부교육지원청,중구,숭의여자대학교부설유치원(중구),사립,법인,서울특별시 중구 소파로2길 10,,37.5569016,126.9874009,09시00분~17시00분,1,1,1,0,0,21,17,22,0,0,0,2,0,2,4
중부교육지원청,용산구,일민유치원(용산구),사립,사인,서울특별시 용산구 효창원로 17,,37.5348038,126.9501037,09시00분~19시00분,2,2,2,0,0,39,43,42,0,0,0,10,0,0,10
중부교육지원청,종로구,한아름유치원(종로구),사립,사인,서울특별시 종로구 혜화로6가길 34,,37.5903112,127.0012583,08시00분~18시00분,0,0,0,3,0,0,0,0,31,0,0,4,0,0,4
동부교육지원청,동대문구,서울휘경유치원(동대문구),공립,단설,서울특별시 동대문구 망우로6길 48,,37.5857748,127.0581642,07시30분~19시30분,2,2,2,0,1,28,22,39,0,5,2,5,0,0,7
강남서초교육지원청,강남구,서울도곡초등학교병설유치원(강남구),공립,병설,서울특별시 강남구 선릉로64길 33,,37.4990608,127.0546706,07시00분~19시00분,2,1,1,0,0,16,20,21,0,0,1,3,0,3,7
서부교육지원청,은평구,하늘유치원(은평구),사립,사인,서울특별시 은평구 진관1로 77-15,,37.6322134,126.9287632,09시00분~19시00분,2,2,2,0,0,31,45,48,0,0,0,10,0,2,12
남부교육지원청,영등포구,무지개영재유치원(영등포구),사립,법인,서울특별시 영등포구 양산로17길 8,,37.5251019,126.8937394,09시00분~17시00분,3,4,3,0,0,66,94,86,0,0,0,20,0,0,20
동작관악교육지원청,관악구,예일유치원(관악구),사립,사인,서울특별시 관악구 낙성대역14길 6,,37.4739179,126.964271,09시00분~19시00분,1,1,1,0,0,16,13,22,0,0,0,5,0,0,5
강동송파교육지원청,강동구,반석유치원(강동구),사립,사인,서울특별시 강동구 양재대로124길 89-18,,37.5428372,127.1473475,07시50분~18시30분,2,1,1,0,0,29,25,27,0,0,0,7,0,0,7
강남서초교육지원청,강남구,청담몬테소리유치원(강남구),사립,사인,서울특별시 강남구 학동로67길 15,,37.5193769,127.0465759,08시30분~18시00분,2,2,2,0,0,33,41,35,0,0,0,10,0,0,10
성동광진교육지원청,광진구,동인유치원(광진구),사립,사인,서울특별시 광진구 자양로30길 6,,37.5436771,127.0852344,09시00분~19시00분,0,0,0,1,0,0,0,0,19,0,0,1,0,0,1
성동광진교육지원청,성동구,경동유치원(성동구),사립,사인,서울특별시 성동구 금호로 100,,37.5518565,127.0271162,08시30분~17시10분,0,3,3,0,0,0,73,84,0,0,1,11,0,4,16
성동광진교육지원청,성동구,송곡유치원(성동구),사립,법인,서울특별시 성동구 무학로6길 41,,37.5651103,127.0347949,09시00분~17시00분,0,1,1,0,0,0,30,31,0,0,0,3,0,0,3
북부교육지원청,도봉구,현대유치원(도봉구),사립,사인,서울특별시 도봉구 삼양로 574-38,,37.6541658,127.0139509,09시00분~17시00분,0,0,1,1,0,0,0,14,14,0,0,3,0,0,3
남부교육지원청,금천구,백상유치원(금천구),사립,사인,서울특별시 금천구 탑골로3길 50,,37.4536019,126.9139174,09시00분~18시00분,0,1,1,0,0,0,11,11,0,0,0,2,0,0,2
중부교육지원청,종로구,서울혜화초등학교병설유치원(종로구),공립,병설,서울특별시 종로구 혜화로 32,,37.5889493,126.9999836,07시00분~19시00분,0,1,1,0,0,0,5,10,0,0,0,2,0,2,4
서부교육지원청,은평구,서울구현초등학교병설유치원(은평구),공립,병설,서울특별시 은평구 갈현로15길 51,,37.6092825,126.9058435,07시20분~19시20분,1,1,1,0,0,3,13,14,0,0,1,3,0,3,7
성북강북교육지원청,성북구,아랑유치원(성북구),사립,사인,서울특별시 성북구 북악산로 844,,37.5978717,127.01779,07시30분~19시30분,2,3,2,0,0,56,71,63,0,0,0,16,0,0,16
성동광진교육지원청,광진구,예일유치원(광진구),사립,사인,서울특별시 광진구 천호대로111길 41,,37.5582882,127.0827758,09시00분~20시00분,0,0,2,1,0,0,0,48,20,0,0,6,0,2,8
강서양천교육지원청,강서구,우람유치원(강서구),사립,사인,서울특별시 강서구 방화대로45길 32,,37.574702,126.8149759,09시00분~17시00분,2,3,3,0,0,51,67,76,0,0,0,13,0,0,13
동부교육지원청,중랑구,서울면목초등학교병설유치원(중랑구),공립,병설,서울특별시 중랑구 면목로 434,,37.5912359,127.0877097,07시30분~19시30분,1,1,2,0,0,7,8,21,0,0,1,3,0,0,4
동작관악교육지원청,동작구,서울문창초등학교병설유치원(동작구),공립,병설,서울특별시 동작구 신대방2길 14,,37.4889443,126.9138717,08시00분~17시00분,1,1,1,0,1,13,16,37,0,6,0,4,1,5,10
강동송파교육지원청,송파구,잠실럭키유치원(송파구),사립,사인,서울특별시 송파구 올림픽로 135,,37.5140588,127.0884544,09시00분~17시00분,2,2,1,0,0,38,42,28,0,0,0,10,0,0,10
강남서초교육지원청,서초구,구룡유치원(서초구),사립,사인,서울특별시 서초구 논현로5길 31-11,,37.4711875,127.0491005,08시00분~19시00분,2,1,1,0,0,33,26,26,0,0,1,6,0,0,7
강남서초교육지원청,강남구,남부유치원(강남구),사립,사인,서울특별시 강남구 언주로 123,,37.4868895,127.0488972,09시00분~17시00분,0,0,0,2,0,0,0,0,73,0,0,4,0,0,4
북부교육지원청,도봉구,서울도봉초등학교병설유치원(도봉구),공립,병설,서울특별시 도봉구 도봉로173길 96,,37.6793606,127.0383592,07시00분~19시00분,0,0,1,1,0,0,0,6,6,0,1,1,0,0,2
북부교육지원청,노원구,서울수암초등학교병설유치원(노원구),공립,병설,서울특별시 노원구 중계로12길 9,,37.6481307,127.0815553,07시00분~19시00분,1,1,2,0,0,14,20,23,0,0,1,2,0,1,4
남부교육지원청,구로구,서울매봉초등학교병설유치원(구로구),공립,병설,서울특별시 구로구 고척로21길 55,,37.5043728,126.8445548,07시00분~20시00분,1,1,1,0,0,9,17,18,0,0,1,2,0,0,3
강서양천교육지원청,양천구,서울서정초등학교병설유치원(양천구),공립,병설,서울특별시 양천구 목동로8길 19,,37.5240406,126.8673425,07시00분~19시00분,1,1,1,0,0,16,19,24,0,0,1,2,0,0,3
동작관악교육지원청,관악구,종인유치원(관악구),사립,사인,서울특별시 관악구 솔밭로 20,,37.4787823,126.9632955,09시00분~20시00분,1,0,0,1,0,12,0,0,16,0,0,2,0,0,2
동작관악교육지원청,관악구,하늘유치원(관악구),사립,법인,서울특별시 관악구 양산길 18,,37.4751021,126.9324828,09시00분~18시00분,1,1,1,0,0,11,7,24,0,0,0,4,0,0,4
북부교육지원청,노원구,고운유치원(노원구),사립,사인,서울특별시 노원구 동일로208길 34,,37.6427206,127.0665677,07시00분~20시00분,3,3,3,0,0,63,61,62,0,0,0,17,0,0,17
북부교육지원청,노원구,까치유치원(노원구),사립,사인,서울특별시 노원구 덕릉로79길 23,,37.6561809,127.0729456,07시00분~22시00분,3,2,2,0,0,35,40,38,0,0,0,12,0,0,12
남부교육지원청,구로구,서울고척초등학교병설유치원(구로구),공립,병설,서울특별시 구로구 경서로 31,,37.5007474,126.8572057,07시30분~19시30분,2,2,1,0,1,32,29,22,0,4,2,1,1,2,6
남부교육지원청,구로구,서울남유치원(구로구),사립,사인,서울특별시 구로구 구로동로17길 37-4,,37.4881057,126.8819015,07시30분~19시30분,2,1,2,0,0,28,21,39,0,0,0,8,0,1,9
남부교육지원청,금천구,서울탑동유치원(금천구),공립,단설,서울특별시 금천구 탑골로 47-3,,37.4526773,126.9144646,07시00분~19시30분,2,2,2,0,0,18,30,29,0,0,2,3,0,5,10
남부교육지원청,영등포구,살레시오성미유치원(영등포구),사립,법인,서울특별시 영등포구 신길로 93,,37.5015884,126.9090208,09시00분~17시00분,3,3,3,0,0,63,62,72,0,0,1,16,0,0,17
서부교육지원청,은평구,피노키오유치원(은평구),사립,사인,서울특별시 은평구 증산로15길 35-8,,37.5894978,126.9077785,09시00분~20시00분,0,0,1,2,0,0,0,30,50,0,0,5,0,0,5
서부교육지원청,서대문구,한양제일유치원(서대문구),사립,법인,서울특별시 서대문구 통일로25길 30,,37.5831663,126.9471178,07시00분~19시00분,1,1,1,0,0,19,19,24,0,0,0,5,0,0,5
강서양천교육지원청,양천구,서울신원초등학교병설유치원(양천구),공립,병설,서울특별시 양천구 남부순환로58길 32,,37.5294135,126.8298312,07시30분~19시30분,1,1,1,0,0,2,11,12,0,0,1,2,0,0,3
북부교육지원청,도봉구,한별유치원(도봉구),사립,사인,서울특별시 도봉구 덕릉로59아길 17,,37.6423702,127.0375315,08시00분~20시00분,1,1,2,0,0,17,28,37,0,0,0,5,0,0,5
서부교육지원청,서대문구,경복유치원(서대문구),사립,사인,서울특별시 서대문구 세검정로1길 95,,37.5953754,126.9448171,08시00분~20시00분,2,2,2,0,0,38,50,52,0,0,0,11,0,0,11
서부교육지원청,마포구,성산아트유치원(마포구),사립,사인,서울특별시 마포구 새터산2길 34,,37.5653484,126.9090461,08시00분~18시30분,2,3,1,0,0,31,52,30,0,0,0,9,0,1,10
강동송파교육지원청,송파구,제일무궁화유치원(송파구),사립,사인,서울특별시 송파구 동남로16길 3,,37.4947786,127.1310008,08시00분~18시00분,2,3,3,0,0,60,69,69,0,0,0,16,0,0,16
북부교육지원청,노원구,동화나라유치원(노원구),사립,사인,서울특별시 노원구 덕릉로 780,,37.6669564,127.0796885,08시00분~20시00분,2,1,1,0,0,18,16,26,0,0,0,3,0,2,5
강동송파교육지원청,송파구,서울송전초등학교병설유치원(송파구),공립,병설,서울특별시 송파구 석촌호수로 159,,37.5084498,127.094814,07시30분~19시30분,1,1,1,0,0,8,8,22,0,0,0,2,0,3,5
동작관악교육지원청,동작구,행복유치원(동작구),사립,법인,서울특별시 동작구 양녕로23길 25,,37.4956669,126.9411522,08시30분~17시30분,3,2,2,0,0,54,47,50,0,0,0,14,0,0,14
강동송파교육지원청,강동구,명덕유치원(강동구),사립,사인,서울특별시 강동구 동남로83길 66,,37.5598781,127.1531743,08시00분~17시30분,2,2,3,0,0,32,39,60,0,0,0,13,0,0,13
강동송파교육지원청,송파구,올림픽유치원(송파구),사립,사인,서울특별시 송파구 양재대로 1218,,37.5175612,127.1363717,09시00분~17시30분,2,2,2,0,0,36,33,34,0,0,0,8,0,0,8
강동송파교육지원청,송파구,예은유치원(송파구),사립,사인,서울특별시 송파구 오금로32길 13,,37.504216,127.1213083,08시20분~18시00분,2,2,2,0,0,39,33,43,0,0,0,10,0,0,10
남부교육지원청,구로구,목원유치원(구로구),사립,사인,서울특별시 구로구 개봉로20길 6,,37.4920769,126.8584966,09시30분~19시00분,3,2,3,0,0,57,48,64,0,0,0,14,0,0,14
동부교육지원청,중랑구,솔방울유치원(중랑구),사립,사인,서울특별시 중랑구 용마산로 250,,37.5736945,127.0878178,09시00분~19시30분,1,1,1,0,0,16,9,13,0,0,0,4,0,0,4
동부교육지원청,중랑구,봄내유치원(중랑구),사립,사인,서울특별시 중랑구 면목로61길 50,,37.5859558,127.0855481,07시50분~19시50분,2,2,3,0,0,18,44,62,0,0,0,11,0,0,11
서부교육지원청,은평구,유정유치원(은평구),사립,사인,서울특별시 은평구 진흥로12길 23,,37.6066599,126.926828,08시00분~18시30분,2,2,2,0,0,40,57,56,0,0,0,12,0,0,12
서부교육지원청,은평구,와우랩유치원(은평구),사립,사인,서울특별시 은평구 응암로28길 34,,37.5938674,126.9215442,09시00분~19시00분,2,4,3,0,0,51,106,89,0,0,0,18,0,0,18
서부교육지원청,마포구,정님유치원(마포구),사립,사인,서울특별시 마포구 숭문6길 19,,37.5500564,126.9469297,08시00분~18시00분,2,2,2,0,0,52,52,44,0,0,1,12,0,0,13
성북강북교육지원청,성북구,서울청덕초등학교병설유치원(성북구),공립,병설,서울특별시 성북구 정릉로9라길 11,,37.611907,127.000529,07시30분~19시30분,1,1,1,0,0,5,4,7,0,0,1,2,0,0,3
중부교육지원청,중구,가명유치원(중구),사립,법인,서울특별시 중구 청파로 447-1,,37.5590744,126.9672483,09시00분~18시00분,1,1,1,0,0,22,27,26,0,0,0,5,0,0,5
중부교육지원청,중구,근화유치원(중구),사립,법인,서울특별시 중구 동호로20길 24,,37.5591852,127.0090355,09시00분~17시00분,1,0,0,3,0,20,0,0,61,0,1,5,0,0,6
중부교육지원청,종로구,배화여자대학교 부속 배화유치원(종로구),사립,법인,서울특별시 종로구 필운대로1길 34,,37.578332,126.966856,09시00분~17시00분,1,1,1,0,0,22,23,29,0,0,0,3,0,1,4
성북강북교육지원청,성북구,탑주유치원(성북구),사립,법인,서울특별시 성북구 화랑로13길 17,,37.6045176,127.0413841,08시00분~18시00분,3,2,2,0,0,59,57,56,0,0,0,15,0,0,15
성북강북교육지원청,강북구,성실유치원(강북구),사립,사인,서울특별시 강북구 삼각산로 143-1,,37.6423794,127.018989,07시00분~16시30분,2,2,1,0,0,39,37,29,0,0,0,8,0,1,9
강서양천교육지원청,강서구,우일유치원(강서구),사립,사인,서울특별시 강서구 곰달래로47길 88,,37.5351904,126.8551911,09시00분~18시30분,2,2,2,0,0,27,33,31,0,0,0,7,0,0,7
남부교육지원청,영등포구,한영유치원(영등포구),사립,사인,서울특별시 영등포구 영중로41길 5,,37.5284252,126.9050396,08시00분~19시00분,1,2,1,0,0,20,46,27,0,0,0,7,0,1,8
성동광진교육지원청,광진구,슬기유치원(광진구),사립,사인,서울특별시 광진구 자양로 296,,37.552066,127.0926105,07시00분~22시00분,1,1,1,0,0,19,21,26,0,0,0,6,0,0,6
성동광진교육지원청,광진구,윤진유치원(광진구),사립,사인,서울특별시 광진구 아차산로21길 15,,37.5427382,127.0650593,09시00분~20시00분,0,0,0,1,0,0,0,0,17,0,0,1,0,0,1
성동광진교육지원청,광진구,자양하나유치원(광진구),사립,사인,서울특별시 광진구 아차산로41길 22-5,,37.5388158,127.078597,07시00분~20시00분,1,1,1,0,0,9,13,20,0,0,0,4,0,0,4
강동송파교육지원청,송파구,서울가락초등학교병설유치원(송파구),공립,병설,서울특별시 송파구 송파대로37길 45,,37.4999216,127.1077796,07시30분~19시30분,1,2,2,0,1,10,19,29,0,2,2,3,1,3,9
강동송파교육지원청,강동구,서울길동초등학교병설유치원(강동구),공립,병설,서울특별시 강동구 양재대로116길 69,,37.5382633,127.1444728,07시00분~19시00분,1,1,2,0,0,13,15,30,0,0,1,3,0,1,5
강동송파교육지원청,송파구,예원유치원(송파구),사립,사인,서울특별시 송파구 마천로 30,,37.5083972,127.123475,09시00분~20시00분,0,1,1,0,0,0,17,26,0,0,0,2,0,1,3
강동송파교육지원청,송파구,햇빛유치원(송파구),사립,사인,서울특별시 송파구 올림픽로 419,,37.5204916,127.1141287,09시00분~17시30분,4,3,3,0,0,81,80,83,0,0,0,20,0,0,20
강서양천교육지원청,양천구,계상유치원(양천구),사립,법인,서울특별시 양천구 남부순환로86길 22,,37.5124455,126.8398458,07시00분~20시00분,2,3,3,0,0,41,56,65,0,0,0,10,0,4,14
서부교육지원청,마포구,나사렛유치원(마포구),사립,법인,서울특별시 마포구 매봉산로 24-1,,37.5743413,126.8903545,08시00분~19시00분,3,2,2,0,0,45,42,48,0,0,0,12,0,4,16
강서양천교육지원청,강서구,우리곰유치원(강서구),사립,사인,서울특별시 강서구 허준로 23,,37.5713845,126.8449875,08시00분~18시00분,2,1,1,0,0,26,23,21,0,0,0,7,0,0,7
북부교육지원청,노원구,희산유치원(노원구),사립,사인,서울특별시 노원구 덕릉로 459-18,,37.6462241,127.0609521,09시00분~20시00분,1,1,1,0,0,10,15,24,0,0,0,5,0,6,11
성북강북교육지원청,성북구,동선유치원(성북구),사립,법인,서울특별시 성북구 보문로 98,,37.584096,127.0203372,07시00분~20시00분,1,1,1,0,0,8,11,10,0,0,0,4,0,0,4
성북강북교육지원청,성북구,명덕유치원(성북구),사립,사인,서울특별시 성북구 삼양로 74,,37.6098364,127.0229669,09시00분~18시00분,0,1,1,0,0,0,4,7,0,0,0,2,0,0,2
강동송파교육지원청,강동구,녹원유치원(강동구),사립,사인,서울특별시 강동구 상암로63길 39-10,,37.5485023,127.1535715,09시30분~18시00분,3,1,0,0,0,74,31,0,0,0,0,7,0,0,7
강서양천교육지원청,양천구,서울양목초등학교병설유치원(양천구),공립,병설,서울특별시 양천구 목동로11길 30,,37.5236893,126.8612281,07시00분~20시00분,1,1,2,0,1,6,11,24,0,4,1,2,1,6,10
강서양천교육지원청,양천구,세진유치원(양천구),사립,사인,서울특별시 양천구 월정로46길 9,,37.5409064,126.8327593,09시00분~18시00분,1,1,1,0,0,14,19,25,0,0,0,4,0,0,4
강서양천교육지원청,양천구,신정유치원(양천구),사립,사인,서울특별시 양천구 신정로7길 81-4,,37.5135691,126.8333561,09시00분~19시00분,4,4,3,0,0,66,82,74,0,0,0,13,0,0,13
남부교육지원청,영등포구,동천유치원(영등포구),사립,사인,서울특별시 영등포구 신길로40길 10,,37.5064838,126.9122039,08시30분~18시00분,1,1,1,0,0,11,24,23,0,0,0,3,0,2,5
남부교육지원청,영등포구,명신유치원(영등포구),사립,법인,서울특별시 영등포구 신길로41라길 13-9,,37.5076932,126.90837,08시00분~20시00분,1,2,2,0,0,16,44,48,0,0,0,8,0,0,8
동부교육지원청,중랑구,윤경유치원(중랑구),사립,사인,서울특별시 중랑구 숙선옹주로 91,,37.6164127,127.0848742,07시00분~19시00분,2,2,2,0,0,23,42,55,0,0,0,12,0,0,12
동부교육지원청,동대문구,한양유치원(동대문구),사립,사인,서울특별시 동대문구 답십리로 184,,37.5714093,127.0603917,09시30분~19시00분,1,2,2,0,0,8,30,29,0,0,0,8,0,0,8
남부교육지원청,금천구,양지유치원(금천구),사립,사인,서울특별시 금천구 독산로108길 37,,37.4797017,126.9059735,09시00분~22시00분,0,1,1,0,0,0,22,17,0,0,0,3,0,0,3
남부교육지원청,영등포구,우성유치원(영등포구),사립,사인,서울특별시 영등포구 도신로 68-1,,37.5053273,126.9004169,07시20분~19시20분,1,1,1,0,0,18,15,18,0,0,1,4,0,0,5
동작관악교육지원청,관악구,서울청룡초등학교병설유치원(관악구),공립,병설,서울특별시 관악구 관악로5길 61,,37.4759585,126.9512194,07시00분~20시00분,0,0,1,2,0,0,0,19,19,0,1,2,0,0,3
동작관악교육지원청,동작구,양문유치원(동작구),사립,사인,서울특별시 동작구 시흥대로 644-1,,37.4892091,126.907342,08시00분~19시00분,0,1,1,0,0,0,8,5,0,0,0,2,0,0,2
서부교육지원청,은평구,보람유치원(은평구),사립,법인,서울특별시 은평구 갈현로4길 42,,37.6000682,126.9142479,09시00분~18시30분,0,0,1,1,0,0,0,19,18,0,0,4,0,0,4
성동광진교육지원청,성동구,성심유치원(성동구),사립,법인,서울특별시 성동구 무학로10길 21,,37.5661136,127.033502,09시00분~18시00분,1,1,1,0,0,16,20,19,0,0,0,6,0,0,6
강동송파교육지원청,강동구,화랑유치원(강동구),사립,사인,서울특별시 강동구 천중로35길 37-1,,37.5429398,127.1377603,09시00분~18시00분,1,0,0,1,0,2,0,0,12,0,0,2,0,0,2
강남서초교육지원청,강남구,서울역삼초등학교병설유치원(강남구),공립,병설,서울특별시 강남구 강남대로66길 21,,37.4928011,127.0327832,07시30분~19시30분,0,1,1,0,1,0,16,14,0,2,1,1,1,0,3
동부교육지원청,동대문구,세하유치원(동대문구),사립,사인,서울특별시 동대문구 장안벚꽃로 107,,37.5697253,127.0746064,08시00분~20시00분,2,1,2,0,0,32,23,41,0,0,0,8,0,2,10
성북강북교육지원청,성북구,서울돈암초등학교병설유치원(성북구),공립,병설,서울특별시 성북구 동소문로13길 38,,37.5933531,127.0129865,07시30분~19시30분,1,1,1,0,0,5,11,20,0,0,1,2,0,3,6
성북강북교육지원청,강북구,서울수유초등학교병설유치원(강북구),공립,병설,서울특별시 강북구 삼양로74길 39,,37.6305928,127.0202757,07시30분~19시30분,1,1,1,0,1,5,12,12,0,3,1,1,1,1,4
강서양천교육지원청,강서구,공항제일유치원(강서구),사립,사인,서울특별시 강서구 개화동로23길 100,,37.5652315,126.810683,09시00분~17시00분,0,0,0,2,0,0,0,0,21,0,0,2,0,0,2
강서양천교육지원청,양천구,목동다솜유치원(양천구),사립,사인,서울특별시 양천구 월정로9길 23-4,,37.5242667,126.8387894,07시00분~22시00분,1,1,1,0,0,19,22,21,0,0,0,3,0,0,3
강서양천교육지원청,강서구,등현유치원(강서구),사립,사인,서울특별시 강서구 화곡로63가길 63,,37.5614768,126.8485409,07시00분~20시00분,2,2,3,0,0,44,52,62,0,0,0,10,0,0,10
중부교육지원청,종로구,상명사대부속유치원(종로구),사립,법인,서울특별시 종로구 홍지문2길 1,,37.6008111,126.956353,08시40분~18시00분,2,2,2,0,0,42,51,53,0,0,0,5,0,7,12
중부교육지원청,중구,서울덕수초등학교병설유치원(중구),공립,병설,서울특별시 중구 덕수궁길 140,,37.5685461,126.9745495,07시20분~19시20분,2,1,1,0,0,13,20,15,0,0,1,3,0,1,5
중부교육지원청,종로구,서울재동초등학교병설유치원(종로구),공립,병설,서울특별시 종로구 북촌로4길 7,,37.5798618,126.9856013,07시00분~19시30분,1,1,1,0,0,7,16,15,0,0,1,2,0,3,6
중부교육지원청,용산구,원유치원(용산구),사립,사인,서울특별시 용산구 이촌로81길 14,,37.5192334,126.9774684,08시00분~19시00분,2,2,3,0,0,48,56,65,0,0,0,14,0,0,14
중부교육지원청,용산구,유성유치원(용산구),사립,사인,서울특별시 용산구 회나무로13가길 16,,37.5405627,126.9906374,08시40분~18시00분,3,2,2,0,0,30,22,44,0,0,0,11,0,0,11
중부교육지원청,종로구,청룡유치원(종로구),사립,사인,서울특별시 종로구 동망산길 62,,37.5794207,127.0166873,07시00분~20시00분,0,0,0,1,0,0,0,0,10,0,0,2,0,0,2
성북강북교육지원청,성북구,희망찬유치원(성북구),사립,법인,서울특별시 성북구 동소문로34길 24,,37.5990277,127.0233139,07시00분~20시00분,3,3,2,0,0,35,53,37,0,0,0,13,0,0,13
강동송파교육지원청,송파구,서울방이초등학교병설유치원(송파구),공립,병설,서울특별시 송파구 위례성대로10길 4,,37.5133996,127.1209514,07시30분~19시30분,1,1,2,0,1,11,16,23,0,5,1,3,1,2,7
강동송파교육지원청,강동구,서울신명초등학교병설유치원(강동구),공립,병설,서울특별시 강동구 명일로24길 33,,37.5413036,127.1495185,09시00분~19시00분,0,1,1,0,0,0,4,16,0,0,0,1,0,1,2
동작관악교육지원청,동작구,샛별유치원(동작구),사립,법인,서울특별시 동작구 상도로50길 36-1,,37.4980421,126.9502645,09시00분~17시00분,3,2,3,0,0,44,49,74,0,0,0,14,0,0,14
강동송파교육지원청,강동구,강동유정유치원(강동구),사립,사인,서울특별시 강동구 상일로10길 41,,37.5505784,127.1749421,08시00분~18시00분,6,6,5,0,0,127,148,134,0,0,0,26,0,0,26
성동광진교육지원청,광진구,보성유치원(광진구),사립,사인,서울특별시 광진구 아차산로 552,,37.5431583,127.1041888,08시00분~18시30분,2,1,1,0,0,28,30,29,0,0,0,7,0,0,7
성북강북교육지원청,강북구,아름유치원(강북구),사립,사인,서울특별시 강북구 도봉로 88,,37.6170265,127.030396,09시00분~20시00분,1,1,1,0,0,2,5,12,0,0,0,2,0,0,2
성북강북교육지원청,성북구,은하유치원(성북구),사립,사인,서울특별시 성북구 돌곶이로 64,,37.6095144,127.0585601,07시00분~20시00분,0,0,1,1,0,0,0,31,37,0,0,4,0,0,4
성북강북교육지원청,성북구,한마음유치원(성북구),사립,사인,서울특별시 성북구 월계로 124,,37.6161996,127.0411978,08시30분~19시00분,2,2,2,0,0,31,45,46,0,0,0,11,0,0,11
성북강북교육지원청,성북구,신암유치원(성북구),사립,사인,서울특별시 성북구 보문로27길 15,,37.586657,127.01727,07시00분~20시00분,1,1,1,0,0,22,28,30,0,0,2,4,0,0,6
남부교육지원청,구로구,서울미래초등학교병설유치원(구로구),공립,병설,서울특별시 구로구 새말로 73,,37.5050456,126.8880056,07시00분~19시00분,1,1,1,0,0,16,21,19,0,0,1,2,0,4,7
남부교육지원청,영등포구,성락유치원(영등포구),사립,법인,서울특별시 영등포구 가마산로51길 9,,37.503982,126.9011573,08시00분~20시00분,0,0,1,1,0,0,0,10,7,0,0,2,0,0,2
성북강북교육지원청,강북구,솔샘유치원(강북구),사립,사인,서울특별시 강북구 솔샘로 159,,37.6211493,127.0108272,07시00분~20시00분,5,3,3,0,0,69,61,64,0,0,0,15,0,0,15
강서양천교육지원청,강서구,유니유치원(강서구),사립,사인,서울특별시 강서구 허준로 175,,37.5632287,126.8592942,09시00분~17시00분,2,2,2,0,0,40,50,52,0,0,0,10,0,0,10
남부교육지원청,영등포구,서울영동초등학교병설유치원(영등포구),공립,병설,서울특별시 영등포구 국회대로53길 20,,37.5265582,126.9073056,07시30분~19시30분,1,1,1,0,1,7,16,15,0,3,1,2,1,0,4
서부교육지원청,은평구,서울연은초등학교병설유치원(은평구),공립,병설,서울특별시 은평구 백련산로2길 35,,37.5907251,126.9248081,07시30분~19시30분,0,1,1,0,1,0,14,20,0,5,1,1,1,1,4
동부교육지원청,중랑구,서울묵현초등학교병설유치원(중랑구),공립,병설,서울특별시 중랑구 동일로157길 75,,37.6089797,127.0736424,07시30분~19시30분,0,1,1,0,1,0,10,16,0,5,1,1,1,0,3
강동송파교육지원청,송파구,서울남천초등학교병설유치원(송파구),공립,병설,서울특별시 송파구 성내천로 207,,37.5011138,127.150812,07시00분~20시00분,0,0,1,0,0,0,0,10,0,0,0,1,0,2,3
성북강북교육지원청,강북구,창문유치원(강북구),사립,법인,서울특별시 강북구 월계로 61,,37.6127845,127.0365211,08시00분~20시00분,2,3,2,0,0,46,69,53,0,0,2,0,0,10,12
동작관악교육지원청,관악구,은아유치원(관악구),사립,사인,서울특별시 관악구 남부순환로246길 25,,37.4753398,126.9643631,07시30분~19시00분,3,3,3,0,0,66,72,71,0,0,0,16,0,0,16
북부교육지원청,노원구,공능유치원(노원구),사립,사인,서울특별시 노원구 동일로186길 27,,37.6251486,127.0741735,09시00분~18시30분,1,1,1,0,0,10,13,14,0,0,0,4,0,0,4
남부교육지원청,금천구,서울국악유치원(금천구),사립,법인,서울특별시 금천구 시흥대로38길 62,,37.4459181,126.906565,09시00분~19시00분,2,2,2,0,0,40,44,49,0,0,0,9,0,0,9
남부교육지원청,영등포구,서울영등포초등학교병설유치원(영등포구),공립,병설,서울특별시 영등포구 경인로 756,,37.5128239,126.8985316,07시30분~19시30분,1,1,1,0,1,5,5,14,0,4,1,2,1,0,4
남부교육지원청,영등포구,성심유치원(영등포구),사립,사인,서울특별시 영등포구 도림로 339,,37.507426,126.9005188,09시00분~17시00분,1,1,2,0,0,17,23,57,0,0,0,5,0,0,5
서부교육지원청,서대문구,조은유치원(서대문구),사립,사인,서울특별시 서대문구 증가로 191,,37.5779334,126.9165623,08시00분~18시30분,1,2,2,0,0,22,42,58,0,0,0,8,0,0,8
서부교육지원청,은평구,충암유치원(은평구),사립,법인,서울특별시 은평구 가좌로5길 5,,37.5849613,126.9214457,09시30분~19시00분,2,2,2,0,0,47,54,57,0,0,0,4,0,6,10
서부교육지원청,서대문구,현대홍익유치원(서대문구),사립,사인,서울특별시 서대문구 모래내로 432,,37.5836695,126.9428865,07시30분~19시30분,1,2,2,0,0,22,36,42,0,0,0,8,0,0,8
강서양천교육지원청,강서구,방화이화유치원(강서구),사립,사인,서울특별시 강서구 양천로17길 4-55,,37.5740474,126.813498,07시00분~22시00분,2,1,1,0,0,21,7,23,0,0,1,5,0,1,7
강서양천교육지원청,양천구,사슴유치원(양천구),사립,사인,서울특별시 양천구 곰달래로9길 12,,37.530912,126.835891,09시00분~20시00분,1,1,2,0,0,19,16,41,0,0,0,7,0,0,7
동부교육지원청,동대문구,서울유치원(동대문구),사립,사인,서울특별시 동대문구 한천로58길 47,,37.5997832,127.0685137,09시00분~18시00분,1,1,2,0,0,23,20,50,0,0,0,7,0,0,7
서부교육지원청,은평구,녹번유치원(은평구),사립,사인,서울특별시 은평구 은평로16길 11,,37.5998638,126.930086,08시00분~18시00분,0,0,1,1,0,0,0,14,8,0,0,2,0,0,2
서부교육지원청,은평구,라라유치원(은평구),사립,사인,서울특별시 은평구 갈현로 170-1,,37.6131626,126.9119587,09시00분~18시00분,0,0,1,1,0,0,0,18,8,0,0,2,0,0,2
강서양천교육지원청,양천구,신예유치원(양천구),사립,사인,서울특별시 양천구 신정로 290,,37.5118985,126.85295,09시00분~17시00분,2,1,1,0,0,17,18,20,0,0,0,5,0,0,5
강동송파교육지원청,송파구,기린유치원(송파구),사립,사인,서울특별시 송파구 백제고분로41길 20,,37.5077743,127.1076088,07시00분~20시00분,0,0,0,1,0,0,0,0,20,0,0,2,0,0,2
남부교육지원청,영등포구,파란나라유치원(영등포구),사립,사인,서울특별시 영등포구 도신로8길 17,,37.5031914,126.8972813,08시00분~17시30분,3,3,3,0,0,63,69,62,0,0,0,15,0,0,15
강동송파교육지원청,송파구,그림유치원(송파구),사립,사인,서울특별시 송파구 동남로23나길 6,,37.5023782,127.133007,09시00분~19시00분,2,3,3,0,0,48,60,63,0,0,0,14,0,0,14
강동송파교육지원청,송파구,아이코리아부속새세대유치원(송파구),사립,법인,서울특별시 송파구 충민로6길 17,,37.4821039,127.1333671,09시00분~14시00분,1,1,2,0,0,29,28,34,0,0,0,5,0,0,5
동부교육지원청,중랑구,나래유치원(중랑구),사립,사인,서울특별시 중랑구 봉우재로41길 12,,37.594037,127.0896277,09시00분~22시00분,1,3,2,0,0,23,59,53,0,0,0,11,0,0,11
동부교육지원청,중랑구,동일유치원(중랑구),사립,법인,서울특별시 중랑구 면목로35길 21,,37.5781933,127.08464,08시00분~20시00분,2,2,2,0,0,32,36,52,0,0,0,10,0,0,10
동부교육지원청,중랑구,미광유치원(중랑구),사립,사인,서울특별시 중랑구 용마산로115나길 7,,37.5979055,127.0966019,07시30분~19시30분,1,1,2,0,0,9,10,30,0,0,2,4,0,0,6
동부교육지원청,동대문구,사군자유치원(동대문구),사립,사인,서울특별시 동대문구 장한로5길 51,,37.5651501,127.0637387,08시00분~20시00분,0,0,0,1,0,0,0,0,18,0,0,1,0,0,1
동부교육지원청,동대문구,산정현유치원(동대문구),사립,법인,서울특별시 동대문구 회기로23가길 33,,37.5926717,127.0540691,07시00분~19시00분,1,1,1,0,0,8,7,15,0,0,1,3,0,1,5
동부교육지원청,중랑구,새샛별유치원(중랑구),사립,사인,서울특별시 중랑구 망우로 458,,37.5999814,127.1027812,09시00분~20시00분,1,1,1,0,0,19,23,28,0,0,0,4,0,0,4
서부교육지원청,마포구,서울용강초등학교병설유치원(마포구),공립,병설,서울특별시 마포구 백범로17길 9,,37.5491133,126.9440541,07시30분~19시30분,0,1,1,0,1,0,9,14,0,5,1,1,1,1,4
서부교육지원청,서대문구,이화여자대학교사범대학부속이화유치원(서대문구),사립,법인,서울특별시 서대문구 이화여대길 52,,37.5625607,126.9474535,09시00분~14시00분,2,2,2,0,0,40,46,55,0,0,0,12,0,3,15
서부교육지원청,서대문구,인왕유치원(서대문구),사립,사인,서울특별시 서대문구 통일로32길 23,,37.5854114,126.9495035,08시00분~20시00분,0,0,0,1,0,0,0,0,19,0,0,1,0,0,1
성북강북교육지원청,성북구,영재유치원(성북구),사립,사인,서울특별시 성북구 종암로15길 1,,37.5974782,127.0347375,07시00분~20시00분,1,1,2,0,0,13,15,23,0,0,0,5,0,0,5
강서양천교육지원청,강서구,예지유치원(강서구),사립,사인,서울특별시 강서구 남부순환로11가길 89,,37.5576751,126.8132196,09시30분~18시00분,1,1,1,0,0,13,20,27,0,0,0,4,0,0,4
강서양천교육지원청,강서구,진일유치원(강서구),사립,사인,서울특별시 강서구 허준로 121,,37.5663469,126.8540309,09시00분~19시30분,0,0,2,0,0,0,0,29,0,0,0,3,0,0,3
남부교육지원청,구로구,개봉샛별유치원(구로구),사립,법인,서울특별시 구로구 개봉로18길 11,,37.4915926,126.8568341,09시00분~18시00분,1,1,1,0,0,9,11,20,0,0,0,4,0,0,4
남부교육지원청,영등포구,파랑새유치원(영등포구),사립,사인,서울특별시 영등포구 가마산로 384,,37.5023747,126.9003062,07시00분~19시00분,2,2,1,0,0,25,29,25,0,0,0,8,0,0,8
남부교육지원청,영등포구,평화유치원(영등포구),사립,사인,서울특별시 영등포구 선유동2로 40,,37.5323989,126.8968285,07시00분~19시00분,0,0,0,2,0,0,0,0,48,0,0,5,0,0,5
북부교육지원청,노원구,선덕유치원(노원구),사립,사인,서울특별시 노원구 섬밭로 190,,37.6337017,127.0678655,07시00분~19시00분,1,1,1,0,0,6,13,22,0,0,0,4,0,0,4
북부교육지원청,노원구,염광유치원(노원구),사립,법인,서울특별시 노원구 월계로45가길 9,,37.6307926,127.0504906,08시00분~19시00분,0,2,2,0,0,0,24,26,0,0,0,5,0,0,5
서부교육지원청,서대문구,서울북성유치원(서대문구),공립,단설,서울특별시 서대문구 북아현로1나길 32,,37.5592385,126.9519867,07시00분~19시00분,2,2,2,0,1,21,35,37,0,5,2,4,1,0,7
성동광진교육지원청,광진구,성수아름유치원(광진구),사립,사인,서울특별시 광진구 뚝섬로 476-15,,37.5363765,127.0623944,09시00분~19시00분,0,0,0,1,0,0,0,0,20,0,0,2,0,0,2
성동광진교육지원청,광진구,정신유치원(광진구),사립,사인,서울특별시 광진구 뚝섬로23길 27,,37.5372775,127.0646348,07시00분~20시00분,1,1,1,0,0,5,13,20,0,0,0,4,0,0,4
강남서초교육지원청,강남구,푸른유치원(강남구),사립,사인,서울특별시 강남구 일원로14길 25,,37.4838689,127.0808707,09시00분~17시00분,1,2,2,0,0,30,58,58,0,0,0,14,0,0,14
강남서초교육지원청,서초구,하나유치원(서초구),사립,사인,서울특별시 서초구 잠원로8길 13,,37.5159681,127.0107817,08시00분~19시00분,3,2,2,0,0,56,57,61,0,0,0,14,0,0,14
강동송파교육지원청,강동구,서울강덕초등학교병설유치원(강동구),공립,병설,서울특별시 강동구 동남로82길 94-54,,37.5588618,127.1608488,09시00분~20시00분,1,1,2,0,1,9,16,41,0,5,0,3,1,1,5
강동송파교육지원청,강동구,근화유치원(강동구),사립,사인,서울특별시 강동구 고덕로 240,,37.5537384,127.1521093,08시30분~18시30분,0,0,1,1,0,0,0,24,34,0,0,4,0,1,5
강동송파교육지원청,송파구,별나라유치원(송파구),사립,사인,서울특별시 송파구 새말로8길 14,,37.4816693,127.1257133,09시00분~19시30분,0,0,1,1,0,0,0,10,19,0,0,3,0,0,3
강동송파교육지원청,강동구,둔촌유치원(강동구),사립,사인,서울특별시 강동구 풍성로63길 73,,37.5313979,127.1397151,09시00분~17시00분,1,1,1,0,0,19,20,24,0,0,0,5,0,1,6
성북강북교육지원청,강북구,운산유치원(강북구),사립,사인,서울특별시 강북구 수유로4길 58,,37.6320616,127.0217005,07시30분~19시30분,0,0,1,1,0,0,0,13,19,0,3,0,0,0,3
동작관악교육지원청,동작구,사랑유치원(동작구),사립,사인,서울특별시 동작구 여의대방로24나길 6,,37.4983962,126.9211957,08시00분~19시00분,0,2,1,0,0,0,26,17,0,0,0,4,0,0,4
북부교육지원청,노원구,산내들유치원(노원구),사립,사인,서울특별시 노원구 공릉로46길 32,,37.6269331,127.0819441,07시00분~20시00분,0,0,1,1,0,0,0,11,9,0,0,3,0,0,3
성북강북교육지원청,성북구,서울베네딕도유치원(성북구),사립,법인,서울특별시 성북구 아리랑로16길 52,,37.5991508,127.0162076,08시50분~18시00분,2,2,2,0,0,44,43,51,0,0,0,12,0,0,12
동작관악교육지원청,동작구,무지개유치원(동작구),사립,사인,서울특별시 동작구 상도로 407-5,,37.4935291,126.9574313,09시00분~18시00분,2,1,1,0,0,25,10,8,0,0,0,4,0,0,4
동작관악교육지원청,동작구,벧엘유치원(동작구),사립,법인,서울특별시 동작구 장승배기로20길 46-3,,37.5089846,126.9426059,09시00분~17시30분,2,2,2,0,0,38,48,47,0,0,0,11,0,0,11
동작관악교육지원청,관악구,서울유치원(관악구),사립,사인,서울특별시 관악구 관악로37길 20,,37.4878982,126.9561805,09시00분~17시10분,0,0,0,2,0,0,0,0,19,0,0,1,0,0,1
서부교육지원청,마포구,월드유치원(마포구),사립,사인,서울특별시 마포구 월드컵로42길 38,,37.5804414,126.8810663,09시00분~17시00분,4,5,5,0,0,95,125,125,0,0,0,28,0,0,28
강동송파교육지원청,송파구,송파유정유치원(송파구),사립,사인,서울특별시 송파구 충민로 177,,37.4857202,127.1330507,08시00분~18시00분,5,5,4,0,0,129,137,118,0,0,0,28,0,0,28
강서양천교육지원청,강서구,예은유치원(강서구),사립,사인,서울특별시 강서구 까치산로4길 101-5,,37.5388436,126.8470532,09시00분~18시00분,0,0,0,0,0,0,0,0,0,0,0,1,0,0,1
남부교육지원청,구로구,서울천왕초등학교병설유치원(구로구),공립,병설,서울특별시 구로구 천왕로1길 11,,37.4814477,126.8370797,07시00분~20시00분,1,1,1,0,0,12,11,17,0,0,1,2,0,0,3
강서양천교육지원청,강서구,수미유치원(강서구),사립,사인,서울특별시 강서구 강서로17길 130,,37.5321821,126.8385537,09시00분~17시00분,0,0,0,1,0,0,0,0,5,0,0,1,0,0,1
강서양천교육지원청,양천구,수영유치원(양천구),사립,사인,서울특별시 양천구 목동서로 38,,37.5396031,126.8793393,07시00분~19시00분,2,2,2,0,0,30,22,23,0,0,0,3,0,3,6
남부교육지원청,구로구,사랑유치원(구로구),사립,사인,서울특별시 구로구 신도림로11가길 36,,37.5073339,126.8764714,07시30분~19시30분,2,2,2,0,0,40,56,60,0,0,0,13,0,0,13
동부교육지원청,동대문구,파스텔유치원(동대문구),사립,사인,서울특별시 동대문구 전농로10길 20,,37.5744795,127.0597451,07시00분~19시00분,1,1,1,0,0,13,8,12,0,0,0,4,0,0,4
동작관악교육지원청,관악구,나랑유치원(관악구),사립,법인,서울특별시 관악구 봉천로33길 57,,37.4845264,126.9428948,08시00분~19시00분,2,2,1,0,0,37,25,22,0,0,0,8,0,0,8
남부교육지원청,금천구,시내유치원(금천구),사립,사인,서울특별시 금천구 가산로 99,,37.4760392,126.8917199,08시00분~17시30분,1,1,2,0,0,18,17,31,0,0,0,6,0,0,6
남부교육지원청,영등포구,여의유치원(영등포구),사립,사인,서울특별시 영등포구 국제금융로7길 3,,37.5225608,126.9311851,07시00분~19시00분,0,0,0,2,0,0,0,0,31,0,0,3,0,0,3
동작관악교육지원청,동작구,성모유치원(동작구),사립,사인,서울특별시 동작구 장승배기로5길 16,,37.501582,126.9399656,09시00분~20시00분,1,1,2,0,0,8,10,33,0,0,0,6,0,0,6
북부교육지원청,도봉구,덕성여자대학교부속유치원(도봉구),사립,법인,서울특별시 도봉구 삼양로144길 33,,37.6512976,127.0165728,08시00분~18시30분,1,1,1,2,0,12,19,16,42,0,0,4,0,3,7
북부교육지원청,노원구,미광유치원(노원구),사립,사인,서울특별시 노원구 공릉로34길 62,,37.6234994,127.0831875,07시30분~19시30분,1,1,1,0,0,13,11,19,0,0,0,4,0,0,4
북부교육지원청,노원구,청암유치원(노원구),사립,사인,서울특별시 노원구 중계로 244,,37.6513427,127.0743606,08시00분~18시00분,0,0,2,0,0,0,0,22,0,0,0,2,0,0,2
북부교육지원청,노원구,풍천유치원(노원구),사립,사인,서울특별시 노원구 노원로 522,,37.6612049,127.0610037,08시00분~19시30분,3,1,2,0,0,39,27,59,0,0,0,9,0,0,9
북부교육지원청,노원구,하늘유치원(노원구),사립,사인,서울특별시 노원구 초안산로 89,,37.6355937,127.0515572,09시00분~17시00분,1,2,2,0,0,15,19,43,0,0,0,7,0,2,9
서부교육지원청,마포구,아이들이야기유치원(마포구),사립,사인,서울특별시 마포구 토정로31길 57-11,,37.5436271,126.9439075,09시00분~16시00분,1,1,1,0,0,26,27,13,0,0,0,6,0,0,6
서부교육지원청,서대문구,삼성유치원(서대문구),사립,사인,서울특별시 서대문구 증가로20나길 12,,37.5816132,126.9192427,08시00분~18시30분,2,2,2,0,0,42,56,55,0,0,0,9,0,0,9
서부교육지원청,서대문구,새나유치원(서대문구),사립,사인,서울특별시 서대문구 가재울로 45,,37.5749915,126.920126,08시00분~18시00분,2,2,2,0,0,44,51,52,0,0,0,10,0,0,10
강서양천교육지원청,강서구,서울염경초등학교병설유치원(강서구),공립,병설,서울특별시 강서구 양천로69길 49,,37.5548339,126.8712719,07시00분~19시00분,1,1,1,0,0,16,22,24,0,0,1,3,0,0,4
강남서초교육지원청,서초구,서울반포초등학교병설유치원(서초구),공립,병설,서울특별시 서초구 신반포로 55-4,,37.5028212,126.9910879,09시00분~13시30분,1,1,1,0,0,0,0,0,0,0,1,2,0,3,6
강남서초교육지원청,강남구,신우주유치원(강남구),사립,사인,서울특별시 강남구 일원로 120,,37.484275,127.0826129,09시00분~17시00분,0,0,0,2,0,0,0,0,34,0,0,3,0,1,4
중부교육지원청,중구,서울장충유치원(중구),공립,단설,서울특별시 중구 청구로17길 40,,37.5594942,127.011181,07시30분~19시30분,2,2,2,0,1,12,27,22,0,4,2,4,1,1,8
중부교육지원청,종로구,운현유치원(종로구),사립,법인,서울특별시 종로구 삼일대로 460,,37.5758212,126.9878739,09시00분~17시00분,0,0,0,3,0,0,0,0,75,0,0,3,0,6,9
중부교육지원청,용산구,정우유치원(용산구),사립,법인,서울특별시 용산구 원효로 179,,37.5361381,126.9625485,09시00분~19시00분,1,0,0,1,0,8,0,0,21,0,0,3,0,0,3
중부교육지원청,용산구,한가람유치원(용산구),사립,사인,서울특별시 용산구 이촌로89길 50,,37.5195537,126.981206,09시00분~17시00분,1,1,1,0,0,13,13,15,0,0,0,5,0,0,5
성동광진교육지원청,광진구,대원유치원(광진구),사립,사인,서울특별시 광진구 뚝섬로41길 20,,37.5344086,127.0755737,09시00분~17시00분,1,1,1,0,0,14,9,20,0,0,0,4,0,0,4
강남서초교육지원청,강남구,서울자곡초등학교병설유치원(강남구),공립,병설,서울특별시 강남구 자곡로 150,,37.472101,127.0996175,07시00분~19시00분,1,1,1,0,0,13,15,15,0,0,1,2,0,1,4
남부교육지원청,영등포구,굿프랜드유치원(영등포구),사립,사인,서울특별시 영등포구 대방천로 180,,37.4982607,126.9125529,07시30분~19시30분,3,3,2,0,0,46,71,51,0,0,0,16,0,0,16
강서양천교육지원청,강서구,등촌이화유치원(강서구),사립,사인,서울특별시 강서구 화곡로63가길 26,,37.5597611,126.8479567,07시30분~19시30분,0,0,1,1,0,0,0,8,9,0,0,2,0,0,2
서부교육지원청,은평구,하나유치원(은평구),사립,사인,서울특별시 은평구 진관4로 93,,37.6480409,126.9298584,09시30분~19시30분,1,4,3,0,0,18,61,67,0,0,1,13,0,0,14
강동송파교육지원청,강동구,강일늘사랑유치원(강동구),사립,사인,서울특별시 강동구 아리수로98길 62,,37.5631529,127.1783476,08시00분~19시00분,3,3,3,0,0,69,75,75,0,0,0,16,0,3,19
성동광진교육지원청,광진구,광장유치원(광진구),사립,법인,서울특별시 광진구 광장로7길 17,,37.5484487,127.1052206,08시30분~18시00분,1,1,1,0,0,7,17,19,0,0,0,2,0,1,3
성동광진교육지원청,광진구,서울양남초등학교병설유치원(광진구),공립,병설,서울특별시 광진구 뚝섬로64길 71,,37.5307405,127.0897285,07시00분~20시00분,1,1,1,0,1,4,15,13,0,4,1,3,0,7,11
북부교육지원청,노원구,서울공릉초등학교병설유치원(노원구),공립,병설,서울특별시 노원구 동일로173길 12,,37.6190942,127.0743075,07시00분~19시00분,1,1,1,0,0,8,6,18,0,0,1,2,0,0,3
성북강북교육지원청,강북구,유안유치원(강북구),사립,사인,서울특별시 강북구 인수봉로 297,,37.645271,127.010486,07시30분~19시30분,1,1,1,0,0,12,15,20,0,0,0,4,0,0,4
성동광진교육지원청,성동구,옥수삼성유치원(성동구),사립,사인,서울특별시 성동구 독서당로 218,,37.5423618,127.014038,07시30분~19시00분,2,1,1,0,0,25,14,20,0,0,0,7,0,0,7
성북강북교육지원청,성북구,광운유치원(성북구),사립,법인,서울특별시 성북구 장월로42길 9,,37.6097136,127.0476806,09시00분~17시00분,1,1,1,0,0,18,24,20,0,0,0,3,0,0,3
서부교육지원청,은평구,서울은명초등학교병설유치원(은평구),공립,병설,서울특별시 은평구 은평로4길 21-9,,37.597629,126.9183842,07시00분~19시00분,0,1,1,0,0,0,6,14,0,0,0,2,0,2,4
강서양천교육지원청,양천구,아란유치원(양천구),사립,사인,서울특별시 양천구 목동서로 100,,37.5343588,126.8729492,08시00분~20시00분,2,2,1,0,0,38,48,26,0,0,0,9,0,0,9
북부교육지원청,노원구,아이디유치원(노원구),사립,사인,서울특별시 노원구 동일로221길 32,,37.6597796,127.0575276,07시30분~19시30분,2,2,1,0,0,31,55,26,0,0,0,7,0,3,10
강남서초교육지원청,서초구,서울우면초등학교병설유치원(서초구),공립,병설,서울특별시 서초구 태봉로 59,,37.464519,127.0238404,07시30분~19시30분,1,1,1,0,1,7,19,5,0,3,1,2,1,1,5
강남서초교육지원청,강남구,서울대왕초등학교병설유치원(강남구),공립,병설,서울특별시 강남구 헌릉로618길 8,,37.4644284,127.1055381,07시00분~19시00분,1,1,1,0,0,13,16,19,0,0,1,2,0,3,6
중부교육지원청,종로구,서울창신초등학교병설유치원(종로구),공립,병설,서울특별시 종로구 지봉로 73,,37.5761362,127.0144602,07시30분~19시30분,1,1,1,0,0,5,9,21,0,0,1,2,0,0,3
강남서초교육지원청,강남구,하늘빛유치원(강남구),사립,사인,서울특별시 강남구 양재대로55길 12,,37.4926339,127.0902837,09시00분~17시00분,1,1,1,0,0,13,15,24,0,0,0,3,0,0,3
강남서초교육지원청,강남구,돌샘유치원(강남구),사립,사인,서울특별시 강남구 개포로 516,,37.4888759,127.0716679,08시00분~19시00분,2,2,2,0,0,44,44,46,0,0,0,10,0,0,10
강남서초교육지원청,강남구,럭키유치원(강남구),사립,사인,서울특별시 강남구 논현로 213,,37.49045,127.0399974,09시00분~18시00분,1,2,2,0,0,24,52,52,0,0,0,11,0,0,11
강남서초교육지원청,강남구,리라유치원(강남구),사립,사인,서울특별시 강남구 광평로19길 15,,37.4848508,127.085277,09시00분~19시00분,2,1,1,0,0,30,8,13,0,0,0,7,0,0,7
강남서초교육지원청,강남구,묘동유치원(강남구),사립,법인,서울특별시 강남구 도곡로78길 8,,37.4974311,127.0588842,08시00분~18시00분,1,2,2,0,0,20,47,57,0,0,0,9,0,1,10
남부교육지원청,금천구,동산유치원(금천구),사립,사인,서울특별시 금천구 시흥대로152길 35,,37.4769252,126.9009643,09시00분~17시00분,2,1,2,0,0,42,28,46,0,0,0,9,0,1,10
서부교육지원청,은평구,은혜유치원(은평구),사립,법인,서울특별시 은평구 통일로78가길 20,,37.6178106,126.9273549,09시30분~14시30분,1,2,2,0,0,0,0,0,0,0,0,0,0,0,0
남부교육지원청,구로구,서울구로남초등학교병설유치원(구로구),공립,병설,서울특별시 구로구 디지털로27길 76,,37.4849103,126.890802,07시00분~20시00분,1,1,1,0,0,10,9,22,0,0,1,2,0,0,3
강서양천교육지원청,양천구,서울양화초등학교병설유치원(양천구),공립,병설,서울특별시 양천구 목동중앙북로16길 57,,37.5436993,126.8746309,07시30분~19시30분,1,1,1,0,0,9,15,18,0,0,1,2,0,1,4
강서양천교육지원청,강서구,서울월정초등학교병설유치원(강서구),공립,병설,서울특별시 강서구 월정로 176,,37.5344275,126.8362849,07시00분~20시00분,1,2,1,0,1,15,34,22,0,4,1,3,1,0,5
강남서초교육지원청,서초구,서울우암초등학교병설유치원(서초구),공립,병설,서울특별시 서초구 바우뫼로7길 38,,37.4719495,127.0245003,07시30분~19시30분,0,1,1,0,0,0,4,8,0,0,0,2,0,0,2
동작관악교육지원청,동작구,서울남성초등학교병설유치원(동작구),공립,병설,서울특별시 동작구 사당로23길 57-14,,37.4845922,126.9757041,07시00분~20시00분,2,1,1,0,0,17,20,16,0,0,1,3,0,1,5
강동송파교육지원청,송파구,티움유치원(송파구),사립,사인,서울특별시 송파구 송파대로36길 32-6,,37.5011223,127.1152587,07시00분~19시00분,2,1,1,0,0,20,8,23,0,0,0,8,0,2,10
북부교육지원청,도봉구,꿈밭유치원(도봉구),사립,사인,서울특별시 도봉구 해등로 264,,37.6580108,127.0261432,07시30분~19시00분,2,2,2,0,0,43,47,54,0,0,0,12,0,0,12
남부교육지원청,영등포구,서울도신초등학교병설유치원(영등포구),공립,병설,서울특별시 영등포구 도림로53길 32-9,,37.4987012,126.9008531,07시30분~19시30분,1,1,1,0,1,5,10,13,0,4,1,2,1,4,8
서부교육지원청,마포구,태영유치원(마포구),사립,사인,서울특별시 마포구 독막로 266,,37.5447302,126.9425709,09시00분~17시30분,1,2,1,0,0,25,51,44,0,0,0,10,0,0,10
서부교육지원청,은평구,효림유치원(은평구),사립,사인,서울특별시 은평구 은평터널로 65,,37.5868439,126.9000225,08시00분~20시00분,2,2,2,0,0,44,44,36,0,0,0,7,0,0,7
강서양천교육지원청,강서구,미래유치원(강서구),사립,사인,서울특별시 강서구 양천로6길 28,,37.5707047,126.8067603,07시00분~19시00분,1,2,1,0,0,15,26,19,0,0,0,6,0,0,6
강서양천교육지원청,강서구,서울내발산초등학교병설유치원(강서구),공립,병설,서울특별시 강서구 강서로46길 23,,37.5512822,126.8377987,07시00분~19시00분,1,1,1,0,0,14,20,24,0,0,1,2,0,0,3
동부교육지원청,중랑구,색동유치원(중랑구),사립,사인,서울특별시 중랑구 동일로109길 31,,37.5916154,127.0784433,07시00분~19시00분,1,1,1,0,0,6,3,2,0,0,0,3,0,0,3
동부교육지원청,동대문구,신동아유치원(동대문구),사립,사인,서울특별시 동대문구 무학로26길 30,,37.5726981,127.0323149,08시00분~18시20분,3,2,2,0,0,40,45,48,0,0,1,13,0,0,14
동부교육지원청,동대문구,아이비유치원(동대문구),사립,사인,서울특별시 동대문구 한천로 246,,37.5827885,127.0687548,08시00분~19시00분,2,2,2,0,0,45,52,54,0,0,0,12,0,0,12
북부교육지원청,노원구,학림유치원(노원구),사립,사인,서울특별시 노원구 상계로7길 25,,37.6578412,127.0646118,09시30분~20시00분,3,1,2,0,0,39,17,32,0,0,0,8,0,0,8
서부교육지원청,은평구,은평국제유치원(은평구),사립,사인,서울특별시 은평구 은평로3가길 32,,37.5989849,126.9114739,07시00분~20시00분,2,3,3,0,0,36,68,66,0,0,0,18,0,0,18
성북강북교육지원청,성북구,서울장월초등학교병설유치원(성북구),공립,병설,서울특별시 성북구 한천로101길 66,,37.6220048,127.0470668,07시00분~19시30분,1,1,2,0,0,10,22,27,0,0,1,3,0,0,4
강동송파교육지원청,송파구,상아유치원(송파구),사립,사인,서울특별시 송파구 백제고분로32길 15,,37.500938,127.0952085,09시00분~20시00분,1,1,2,0,0,24,28,56,0,0,0,6,0,0,6
동부교육지원청,중랑구,동성유치원(중랑구),사립,사인,서울특별시 중랑구 신내로 110,,37.608527,127.0962462,07시00분~19시00분,2,3,2,0,0,47,60,50,0,0,0,15,0,0,15
동부교육지원청,동대문구,사랑유치원(동대문구),사립,사인,서울특별시 동대문구 제기로 131,,37.5879989,127.0492017,07시30분~19시30분,1,2,2,0,0,34,45,45,0,0,0,9,0,0,9
서부교육지원청,서대문구,신촌유치원(서대문구),사립,사인,서울특별시 서대문구 신촌로 43,,37.5573702,126.9315785,09시00분~18시00분,0,0,0,4,0,0,0,0,103,0,0,9,0,0,9
서부교육지원청,은평구,예일유치원(은평구),사립,법인,서울특별시 은평구 연서로 117,,37.6101582,126.9153115,09시20분~18시30분,2,2,2,0,0,34,41,56,0,0,0,11,0,2,13
성동광진교육지원청,광진구,현정유치원(광진구),사립,사인,서울특별시 광진구 광나루로 534-1,,37.5444899,127.0889133,09시30분~19시00분,1,1,2,0,0,9,8,34,0,0,0,6,0,0,6
중부교육지원청,용산구,도원유치원(용산구),사립,법인,서울특별시 용산구 새창로12길 11-8,,37.5388445,126.9578427,08시40분~18시00분,1,1,1,0,0,9,19,13,0,0,0,5,0,0,5
중부교육지원청,중구,리라유치원(중구),사립,법인,서울특별시 중구 소파로2길 7,,37.5578599,126.9879108,08시50분~17시00분,2,3,3,0,0,48,79,78,0,0,0,7,0,4,11
성북강북교육지원청,강북구,예원유치원(강북구),사립,사인,서울특별시 강북구 삼양로49길 18,,37.6234503,127.0176929,09시00분~17시00분,1,1,1,0,0,7,18,17,0,0,0,5,0,0,5
성북강북교육지원청,성북구,까망유치원(성북구),사립,사인,서울특별시 성북구 장월로 102,,37.6149247,127.0485323,09시00분~20시00분,0,0,0,1,0,0,0,0,34,0,0,2,0,0,2
강서양천교육지원청,양천구,튼튼유치원(양천구),사립,사인,서울특별시 양천구 중앙로52길 62,,37.5259655,126.8573081,07시30분~19시30분,1,2,2,0,0,19,27,34,0,0,0,7,0,1,8
남부교육지원청,영등포구,청은유치원(영등포구),사립,사인,서울특별시 영등포구 선유서로 76,,37.5221502,126.8865401,08시00분~18시00분,0,1,1,0,0,0,10,14,0,0,0,1,0,0,1
남부교육지원청,구로구,혜원유치원(구로구),사립,사인,서울특별시 구로구 고척로 62-11,,37.4993677,126.8423599,08시00분~19시00분,2,3,2,0,0,46,74,49,0,0,0,15,0,0,15
북부교육지원청,노원구,서울신상계초등학교병설유치원(노원구),공립,병설,서울특별시 노원구 상계로 267,,37.6679336,127.075807,07시00분~19시00분,1,2,1,0,1,13,16,21,0,4,1,3,1,0,5
북부교육지원청,도봉구,서울창동초등학교병설유치원(도봉구),공립,병설,서울특별시 도봉구 해등로16길 81,,37.6551207,127.0447633,07시30분~19시30분,0,1,1,0,0,0,11,9,0,0,0,2,0,0,2
북부교육지원청,노원구,양지유치원(노원구),사립,사인,서울특별시 노원구 노원로30길 45,,37.6552934,127.0697356,09시00분~18시30분,2,1,1,0,0,18,24,25,0,0,0,6,0,0,6
서부교육지원청,서대문구,서울금화초등학교병설유치원(서대문구),공립,병설,서울특별시 서대문구 통일로 165,,37.5686444,126.9631731,07시00분~19시30분,2,2,3,0,1,17,26,39,0,5,0,8,1,2,11
성동광진교육지원청,광진구,선미유치원(광진구),사립,사인,서울특별시 광진구 면목로5길 54,,37.5562267,127.0730384,09시00분~18시00분,1,1,1,0,0,9,12,8,0,0,0,3,0,0,3
성동광진교육지원청,광진구,선화유치원(광진구),사립,법인,서울특별시 광진구 천호대로130길 58,,37.5503951,127.087338,08시00분~18시30분,1,2,2,0,0,24,40,48,0,0,0,5,0,2,7
성동광진교육지원청,광진구,청구이화유치원(광진구),사립,사인,서울특별시 광진구 아차산로 503-23,,37.5424654,127.0962926,09시00분~19시00분,2,2,1,0,0,45,54,15,0,0,0,12,0,0,12
강남서초교육지원청,강남구,초원유치원(강남구),사립,사인,서울특별시 강남구 논현로14길 17,,37.4759479,127.0485936,08시20분~18시00분,2,1,1,0,0,22,27,16,0,0,0,7,0,0,7
북부교육지원청,노원구,무지개유치원(노원구),사립,법인,서울특별시 노원구 덕릉로94가길 54,,37.6645579,127.0787498,07시30분~20시00분,2,2,2,0,0,24,25,32,0,0,0,6,0,3,9
중부교육지원청,종로구,봄샘유치원(종로구),사립,법인,서울특별시 종로구 율곡로 264,,37.5733179,127.0066253,08시00분~18시30분,1,1,1,0,0,18,16,24,0,0,0,3,0,2,5
동작관악교육지원청,동작구,동아유치원(동작구),사립,사인,서울특별시 동작구 만양로3길 48,,37.5082504,126.9433247,09시00분~19시30분,0,2,4,0,0,0,35,89,0,0,0,8,0,0,8
동작관악교육지원청,동작구,상도유치원(동작구),사립,법인,서울특별시 동작구 상도로47길 53,,37.5015759,126.9519473,09시30분~18시00분,0,0,1,1,0,0,0,12,17,0,0,3,0,0,3
북부교육지원청,도봉구,삼풍유치원(도봉구),사립,법인,서울특별시 도봉구 노해로63가길 101,,37.6567815,127.0455938,08시00분~19시00분,3,3,4,0,0,66,72,85,0,0,0,21,0,0,21
성북강북교육지원청,성북구,해뜨는유치원(성북구),사립,사인,서울특별시 성북구 서경로2길 16,,37.6048641,127.0157422,07시00분~19시00분,2,2,2,0,0,41,47,44,0,0,0,10,0,0,10
강남서초교육지원청,서초구,반포자이유치원(서초구),사립,사인,서울특별시 서초구 신반포로 270,,37.5066137,127.0140157,09시00분~17시00분,2,2,2,0,0,40,48,50,0,0,0,12,0,0,12
강서양천교육지원청,양천구,서울신은초등학교병설유치원(양천구),공립,병설,서울특별시 양천구 신정이펜2로 30,,37.5137225,126.8322559,07시00분~19시00분,1,1,1,0,0,6,8,10,0,0,1,2,0,0,3
성동광진교육지원청,성동구,세성유치원(성동구),사립,사인,서울특별시 성동구 독서당로 434,,37.5519304,127.0332646,07시00분~20시00분,0,0,1,1,0,0,0,21,35,0,0,4,0,0,4
강동송파교육지원청,강동구,예크유치원(강동구),사립,사인,서울특별시 강동구 천호대로187길 73-10,,37.5378541,127.1427081,09시00분~19시00분,2,3,2,0,0,36,40,38,0,0,0,9,0,0,9
강서양천교육지원청,양천구,성보유치원(양천구),사립,사인,서울특별시 양천구 목동중앙본로7길 13,,37.5396594,126.8678325,09시00분~20시00분,1,1,2,0,0,15,13,30,0,0,0,5,0,0,5
강서양천교육지원청,양천구,어린이의정원유치원(양천구),사립,사인,서울특별시 양천구 목동남로4길 6-46,,37.5063428,126.8651614,07시00분~20시00분,3,3,3,0,0,70,69,70,0,0,0,17,0,0,17
남부교육지원청,영등포구,돈보스꼬유치원(영등포구),사립,법인,서울특별시 영등포구 도영로22길 22,,37.5100547,126.9013189,09시00분~17시00분,3,3,2,0,0,66,60,53,0,0,0,16,0,0,16
남부교육지원청,구로구,동부유치원(구로구),사립,사인,서울특별시 구로구 고척로 49,,37.4992905,126.8395317,08시00분~20시00분,1,1,1,0,0,11,16,18,0,0,0,4,0,0,4
동부교육지원청,동대문구,젬마유치원(동대문구),사립,법인,서울특별시 동대문구 이문로12길 20,,37.5930439,127.0593901,09시00분~17시00분,2,1,2,0,0,24,21,37,0,0,0,7,0,0,7
남부교육지원청,영등포구,여의도유치원(영등포구),사립,법인,서울특별시 영등포구 여의동로 257,,37.5215374,126.9389398,08시30분~18시00분,2,1,1,0,0,27,26,24,0,0,2,6,0,0,8
남부교육지원청,금천구,예림유치원(금천구),사립,법인,서울특별시 금천구 금하로 793,,37.4515715,126.9189019,08시00분~19시00분,1,1,1,0,0,9,9,16,0,0,0,4,0,0,4
남부교육지원청,구로구,예쁨유치원(구로구),사립,법인,서울특별시 구로구 부일로1길 125,,37.4951851,126.8173413,08시10분~19시00분,1,0,1,0,0,22,0,18,0,0,0,5,0,0,5
동작관악교육지원청,동작구,열림유치원(동작구),사립,사인,서울특별시 동작구 여의대방로44길 49,,37.5089594,126.9292272,07시00분~20시00분,2,3,3,0,0,30,64,88,0,0,0,15,0,0,15
북부교육지원청,노원구,동은유치원(노원구),사립,사인,서울특별시 노원구 동일로207길 23,,37.642026,127.0641086,07시00분~20시00분,1,1,1,0,0,6,14,8,0,0,0,3,0,0,3
북부교육지원청,노원구,두솔유치원(노원구),사립,사인,서울특별시 노원구 초안산로 19,,37.6295685,127.0541403,07시00분~20시00분,1,2,1,0,0,26,34,26,0,0,0,8,0,2,10
북부교육지원청,노원구,새봄유치원(노원구),사립,사인,서울특별시 노원구 동일로245길 162,,37.6815167,127.0538446,09시00분~19시00분,1,1,1,0,0,11,10,30,0,0,0,4,0,0,4
북부교육지원청,도봉구,자연유치원(도봉구),사립,사인,서울특별시 도봉구 마들로 567,,37.6597474,127.0480433,09시00분~19시00분,2,3,2,0,0,27,46,42,0,0,3,7,0,0,10
북부교육지원청,도봉구,천사유치원(도봉구),사립,사인,서울특별시 도봉구 해등로26길 20,,37.6590629,127.033472,09시00분~17시00분,1,1,2,0,0,22,11,37,0,0,0,5,0,0,5
서부교육지원청,은평구,백합유치원(은평구),사립,법인,서울특별시 은평구 연서로14길 14-5,,37.6082052,126.9173098,08시00분~18시30분,2,2,2,0,0,36,44,37,0,0,1,8,0,1,10
서부교육지원청,은평구,보림유치원(은평구),사립,사인,서울특별시 은평구 연서로17길 35-1,,37.6135632,126.9135565,09시00분~20시00분,1,1,1,0,0,7,13,15,0,0,0,5,0,3,8
서부교육지원청,마포구,새현대유치원(마포구),사립,사인,서울특별시 마포구 새창로 52,,37.5394259,126.9538604,08시00분~20시00분,2,2,0,0,0,40,22,0,0,0,0,6,0,0,6
성북강북교육지원청,강북구,성체유치원(강북구),사립,법인,서울특별시 강북구 삼각산로 161,,37.6420922,127.0214567,09시00분~19시00분,2,2,1,0,0,36,32,23,0,0,0,9,0,0,9
성북강북교육지원청,성북구,서울동신초등학교병설유치원(성북구),공립,병설,서울특별시 성북구 보문사길 50,,37.5826184,127.0169521,07시00분~20시00분,1,1,1,0,0,2,8,17,0,0,1,2,0,2,5
강남서초교육지원청,강남구,아란유치원(강남구),사립,사인,서울특별시 강남구 압구정로 201,,37.5296583,127.0308297,09시30분~16시30분,1,2,2,0,0,10,30,40,0,0,0,4,0,0,4
강동송파교육지원청,송파구,서울잠일초등학교병설유치원(송파구),공립,병설,서울특별시 송파구 올림픽로 95,,37.514693,127.0815433,07시10분~19시10분,1,1,1,0,0,4,11,22,0,0,1,2,0,0,3
강서양천교육지원청,양천구,광영유치원(양천구),사립,법인,서울특별시 양천구 남부순환로30길 17,,37.5377259,126.8240981,09시00분~17시00분,1,1,1,0,0,3,19,19,0,0,0,5,0,0,5
강서양천교육지원청,강서구,대붕유치원(강서구),사립,사인,서울특별시 강서구 허준로 176,,37.5620958,126.8571739,07시00분~20시00분,1,0,0,1,0,7,0,0,13,0,0,2,0,0,2
중부교육지원청,용산구,서울남정초등학교병설유치원(용산구),공립,병설,서울특별시 용산구 원효로64길 17-10,,37.5363575,126.9649784,07시30분~19시30분,1,1,1,0,0,15,21,19,0,0,1,2,0,0,3
중부교육지원청,용산구,신동아큰나무유치원(용산구),사립,사인,서울특별시 용산구 이촌로 347,,37.5180976,126.9875013,09시00분~18시00분,1,1,1,0,0,5,4,9,0,0,0,3,0,0,3
중부교육지원청,중구,약수유치원(중구),사립,사인,서울특별시 중구 동호로10길 30,,37.554768,127.0147101,09시00분~18시00분,1,1,1,0,0,19,19,6,0,0,0,4,0,0,4
강동송파교육지원청,송파구,서울솔가람유치원(송파구),공립,단설,서울특별시 송파구 위례순환로 419,,37.478019,127.1409393,07시30분~19시30분,2,2,3,0,1,23,40,53,0,4,2,6,1,0,9
서부교육지원청,서대문구,해맑은유치원(서대문구),사립,사인,서울특별시 서대문구 거북골로21길 55,,37.5774035,126.9056746,09시00분~17시00분,0,0,1,1,0,0,0,3,7,0,0,1,0,0,1
남부교육지원청,영등포구,푸른나라유치원(영등포구),사립,사인,서울특별시 영등포구 당산로35길 3,,37.5287709,126.8971175,09시30분~20시00분,1,1,1,0,0,8,18,14,0,0,1,3,0,0,4
성동광진교육지원청,성동구,서울용답초등학교병설유치원(성동구),공립,병설,서울특별시 성동구 용답25길 1,,37.560829,127.053555,07시30분~19시30분,1,1,1,0,1,3,1,9,0,4,1,2,1,0,4
남부교육지원청,구로구,서울구일초등학교병설유치원(구로구),공립,병설,서울특별시 구로구 구일로 68,,37.4927246,126.8730243,07시30분~19시30분,0,1,1,0,0,0,17,22,0,0,0,2,0,1,3
강동송파교육지원청,강동구,은새유치원(강동구),사립,사인,서울특별시 강동구 고덕로62길 58,,37.5511538,127.1519191,09시00분~18시00분,2,1,1,0,0,32,23,21,0,0,0,6,0,0,6
강남서초교육지원청,강남구,서울율현초등학교병설유치원(강남구),공립,병설,서울특별시 강남구 밤고개로21길 15,,37.4745152,127.108285,07시00분~19시00분,2,1,2,0,1,26,20,41,0,4,2,2,1,6,11
동부교육지원청,중랑구,이루니유치원(중랑구),사립,사인,서울특별시 중랑구 신내로7다길 57,,37.6011905,127.0929314,07시30분~20시00분,3,3,3,0,0,70,69,66,0,0,0,14,0,0,14
성동광진교육지원청,광진구,동심유치원(광진구),사립,사인,서울특별시 광진구 군자로12길 46,,37.5512693,127.0726281,09시00분~20시00분,0,0,1,1,0,0,0,13,4,0,0,3,0,0,3
성북강북교육지원청,강북구,하나유치원(강북구),사립,사인,서울특별시 강북구 솔샘로 174,,37.6179756,127.0126309,07시00분~20시00분,4,2,3,0,0,33,27,49,0,0,0,10,0,0,10
성북강북교육지원청,강북구,화계유치원(강북구),사립,사인,서울특별시 강북구 덕릉로 45,,37.6345621,127.0188515,07시00분~20시00분,1,1,1,0,0,4,11,21,0,0,0,4,0,0,4
성북강북교육지원청,강북구,경은유치원(강북구),사립,사인,서울특별시 강북구 노해로21길 12,,37.644086,127.0222493,09시00분~18시30분,1,2,1,0,0,8,27,21,0,0,0,5,0,0,5
성북강북교육지원청,성북구,나래유치원(성북구),사립,사인,서울특별시 성북구 삼양로 73,,37.6095165,127.0225936,07시00분~20시00분,1,1,1,0,0,18,25,27,0,0,0,7,0,0,7
성북강북교육지원청,성북구,새삼선유치원(성북구),사립,법인,서울특별시 성북구 성북로6가길 28,,37.5901388,127.0058092,07시30분~19시30분,1,1,1,0,0,14,25,28,0,0,0,5,0,0,5
성북강북교육지원청,성북구,반디유치원(성북구),사립,사인,서울특별시 성북구 성북로4길 52,,37.5948075,127.0103188,09시00분~20시00분,1,1,1,0,0,34,31,25,0,0,0,7,0,0,7
강동송파교육지원청,강동구,유정유치원(강동구),사립,사인,서울특별시 강동구 강동대로55길 83,,37.5259615,127.1338108,09시30분~18시00분,4,5,5,0,0,101,144,145,0,0,0,24,0,0,24
동작관악교육지원청,관악구,꿈나라유치원(관악구),사립,사인,서울특별시 관악구 난곡로 42,,37.4605708,126.9205979,07시00분~20시00분,2,2,3,0,0,46,47,61,0,0,0,13,0,0,13
성동광진교육지원청,성동구,서울송원초등학교병설유치원(성동구),공립,병설,서울특별시 성동구 동일로43길 9,,37.5540584,127.0694378,07시30분~20시00분,1,1,1,0,0,5,15,13,0,0,1,2,0,0,3
서부교육지원청,은평구,서울수색초등학교병설유치원(은평구),공립,병설,서울특별시 은평구 수색로16길 21,,37.5849703,126.8954572,07시30분~19시30분,1,1,1,0,0,14,20,22,0,0,1,2,0,0,3
강동송파교육지원청,강동구,돌샘유치원(강동구),사립,사인,서울특별시 강동구 고덕로 131,,37.5564401,127.1420345,09시00분~17시00분,2,3,3,0,0,53,90,82,0,0,0,16,0,0,16
강남서초교육지원청,서초구,신반포중앙유치원(서초구),사립,법인,서울특별시 서초구 나루터로4길 58,,37.5097437,127.012172,09시00분~20시00분,2,2,1,0,0,31,31,20,0,0,1,6,0,0,7
성동광진교육지원청,광진구,아이조아유치원(광진구),사립,사인,서울특별시 광진구 긴고랑로7길 65,,37.566214,127.0804787,09시00분~20시00분,1,1,1,0,0,5,4,14,0,0,0,3,0,0,3
강남서초교육지원청,서초구,영생유치원(서초구),사립,사인,서울특별시 서초구 신반포로19길 30,,37.5050455,126.9956896,08시00분~18시00분,1,1,1,0,0,14,21,21,0,0,0,4,0,0,4
성동광진교육지원청,성동구,율화유치원(성동구),사립,사인,서울특별시 성동구 고산자로2길 35,,37.5551292,127.036254,09시00분~18시00분,2,1,1,0,0,29,21,20,0,0,0,6,0,0,6
동작관악교육지원청,관악구,은비유치원(관악구),사립,사인,서울특별시 관악구 청림5길 22,,37.4891169,126.9600591,09시00분~17시00분,3,2,2,0,0,69,50,53,0,0,0,14,0,0,14
성북강북교육지원청,성북구,한가람유치원(성북구),사립,사인,서울특별시 성북구 서경로 166,,37.6170964,127.009332,07시30분~20시00분,3,4,3,0,0,64,91,85,0,0,0,20,0,0,20
성북강북교육지원청,강북구,서울화계초등학교병설유치원(강북구),공립,병설,서울특별시 강북구 솔매로50가길 25,,37.6238714,127.0292178,07시00분~19시00분,2,1,2,0,0,11,16,24,0,0,1,4,0,4,9
성동광진교육지원청,성동구,서울성수초등학교병설유치원(성동구),공립,병설,서울특별시 성동구 아차산로17길 21,,37.5442513,127.0634269,07시30분~20시00분,1,1,1,0,0,7,16,11,0,0,1,2,0,0,3
강서양천교육지원청,양천구,서울강신초등학교병설유치원(양천구),공립,병설,서울특별시 양천구 월정로 280,,37.5426771,126.8294753,07시00분~19시00분,1,2,2,0,1,11,18,22,0,4,2,3,1,0,6
서부교육지원청,은평구,서울연신초등학교병설유치원(은평구),공립,병설,서울특별시 은평구 연서로 347,,37.6263103,126.9283771,07시30분~19시30분,1,1,1,0,0,6,13,13,0,0,1,3,0,0,4
남부교육지원청,구로구,서울하늘숲유치원(구로구),공립,단설,서울특별시 구로구 오리로 1102-19,,37.4850791,126.8431209,07시30분~19시30분,3,2,2,0,1,39,30,39,0,4,2,5,1,4,12
강남서초교육지원청,서초구,동우유치원(서초구),사립,사인,서울특별시 서초구 명달로22길 24,,37.4863523,127.0055655,09시00분~19시00분,0,1,2,0,0,0,22,47,0,0,0,6,0,0,6
강남서초교육지원청,서초구,동화유치원(서초구),사립,사인,서울특별시 서초구 서초중앙로24길 43,,37.4962993,127.0182658,09시00분~17시30분,1,1,1,0,0,24,23,24,0,0,0,6,0,0,6
동작관악교육지원청,관악구,서울봉천초등학교병설유치원(관악구),공립,병설,서울특별시 관악구 행운1라길 17,,37.4831364,126.9578612,07시20분~19시20분,1,1,1,0,1,4,9,13,0,4,1,2,1,0,4
남부교육지원청,영등포구,성요셉유치원(영등포구),사립,사인,서울특별시 영등포구 63로 45,,37.520693,126.9371057,09시30분~18시30분,1,1,1,0,0,22,27,23,0,0,0,9,0,0,9
성동광진교육지원청,광진구,경원유치원(광진구),사립,사인,서울특별시 광진구 영화사로 89,,37.554882,127.0961254,09시10분~18시30분,1,1,1,0,0,9,10,15,0,0,0,3,0,0,3
동부교육지원청,중랑구,세종유치원(중랑구),사립,사인,서울특별시 중랑구 동일로 834,,37.6050077,127.0791696,09시00분~20시00분,1,1,1,0,0,18,11,24,0,0,0,3,0,1,4
동부교육지원청,동대문구,소화유치원(동대문구),사립,법인,서울특별시 동대문구 약령시로 45,,37.5830345,127.0347935,09시00분~18시30분,1,0,0,3,0,12,0,0,55,0,0,7,0,0,7
동부교육지원청,중랑구,수산유치원(중랑구),사립,법인,서울특별시 중랑구 중랑역로 35-1,,37.5975692,127.0758141,07시30분~19시30분,2,1,2,0,0,30,33,46,0,0,0,9,0,0,9
강동송파교육지원청,송파구,한가람유치원(송파구),사립,사인,서울특별시 송파구 한가람로 446,,37.5366366,127.1150841,07시30분~18시30분,0,1,1,0,0,0,19,25,0,0,0,3,0,0,3
강동송파교육지원청,송파구,불광유치원(송파구),사립,법인,서울특별시 송파구 송파대로49길 23,,37.5069421,127.1021261,09시00분~18시00분,1,2,2,0,0,34,38,38,0,0,0,7,0,0,7
강서양천교육지원청,강서구,아이파크예원유치원(강서구),사립,사인,서울특별시 강서구 강서로 266,,37.5493543,126.8387658,08시00분~18시30분,2,2,2,0,0,43,50,55,0,0,0,12,0,0,12
강동송파교육지원청,송파구,리아유치원(송파구),사립,사인,서울특별시 송파구 양재대로 1218,,37.5175612,127.1363717,09시00분~17시00분,3,2,2,0,0,55,35,40,0,0,0,11,0,0,11
강동송파교육지원청,강동구,한성유치원(강동구),사립,사인,서울특별시 강동구 명일로 251,,37.541175,127.14688,09시00분~20시00분,2,2,2,0,0,30,40,40,0,0,0,9,0,0,9
북부교육지원청,도봉구,사랑유치원(도봉구),사립,사인,서울특별시 도봉구 마들로 620,,37.6650769,127.0481468,08시00분~17시00분,1,1,1,0,0,12,22,23,0,0,0,5,0,0,5
서부교육지원청,은평구,엔젤유치원(은평구),사립,사인,서울특별시 은평구 진흥로7길 25,,37.60422,126.9189898,09시00분~20시00분,3,3,2,0,0,46,57,53,0,0,0,12,0,3,15
성북강북교육지원청,성북구,서울길음유치원(성북구),공립,단설,서울특별시 성북구 길음로 142,,37.6139045,127.0174177,07시00분~20시00분,2,2,2,0,0,15,31,44,0,0,2,4,0,1,7
성북강북교육지원청,성북구,서울삼선초등학교병설유치원(성북구),공립,병설,서울특별시 성북구 보문로29길 106,,37.5863104,127.0125541,07시30분~19시30분,1,1,2,0,1,9,13,20,0,3,1,3,1,0,5
성북강북교육지원청,성북구,서울성북초등학교병설유치원(성북구),공립,병설,서울특별시 성북구 성북로 102-10,,37.5936544,126.9982793,07시30분~19시30분,0,0,1,1,1,0,0,3,6,4,1,1,1,0,3
성북강북교육지원청,성북구,서울숭곡초등학교병설유치원(성북구),공립,병설,서울특별시 성북구 종암로40길 30,,37.6084791,127.0324504,07시00분~19시30분,1,1,2,0,0,11,17,32,0,0,0,3,0,5,8
중부교육지원청,용산구,계성유치원(용산구),사립,법인,서울특별시 용산구 효창원로15길 15,,37.5361492,126.9530176,09시00분~14시00분,0,0,3,7,0,0,0,59,168,0,1,18,0,0,19
중부교육지원청,용산구,대건유치원(용산구),사립,법인,서울특별시 용산구 이촌로81길 38,,37.5207197,126.9776851,09시00분~17시00분,2,2,2,0,0,41,46,51,0,0,0,11,0,1,12
성동광진교육지원청,성동구,에덴유치원(성동구),사립,사인,서울특별시 성동구 행당로 79,,37.5579013,127.0271186,09시00분~17시00분,2,2,2,0,0,47,41,52,0,0,0,11,0,0,11
동부교육지원청,동대문구,그림유치원(동대문구),사립,사인,서울특별시 동대문구 답십리로56길 21,,37.5693096,127.0601871,08시00분~20시00분,2,4,3,0,0,43,55,60,0,0,0,15,0,2,17
북부교육지원청,노원구,성북유치원(노원구),사립,사인,서울특별시 노원구 광운로17길 5-3,,37.6220123,127.0590952,07시50분~19시00분,1,1,1,0,0,6,15,25,0,0,0,4,0,0,4
북부교육지원청,노원구,성실유치원(노원구),사립,사인,서울특별시 노원구 한글비석로1길 28,,37.6393884,127.0715555,07시40분~19시30분,3,2,2,0,0,48,25,37,0,0,0,10,0,0,10
북부교육지원청,노원구,예진유치원(노원구),사립,사인,서울특별시 노원구 섬밭로 123,,37.6272664,127.0686136,08시00분~19시00분,2,2,2,0,0,39,42,50,0,0,0,9,0,1,10
서부교육지원청,은평구,서문유치원(은평구),사립,사인,서울특별시 은평구 가좌로10길 10,,37.5915777,126.9167159,09시00분~18시00분,0,0,1,0,0,0,0,13,0,0,1,0,0,0,1
서부교육지원청,은평구,서울은평초등학교병설유치원(은평구),공립,병설,서울특별시 은평구 은평로 239,,37.601791,126.9343984,07시00분~20시00분,0,1,1,0,0,0,10,20,0,0,0,3,0,0,3
서부교육지원청,마포구,서울창천초등학교병설유치원(마포구),공립,병설,서울특별시 마포구 백범로1길 56,,37.5547333,126.9394175,07시00분~20시00분,1,1,1,0,0,5,12,20,0,0,1,3,0,0,4
서부교육지원청,서대문구,서울홍제초등학교병설유치원(서대문구),공립,병설,서울특별시 서대문구 홍은중앙로 13,,37.5925972,126.9439061,07시30분~19시30분,2,2,2,0,1,21,30,41,0,5,2,2,1,2,7
서부교육지원청,마포구,성결유치원(마포구),사립,사인,서울특별시 마포구 독막로28길 19,,37.5462678,126.9373536,09시00분~17시00분,1,1,1,0,0,12,17,18,0,0,0,5,0,0,5
성동광진교육지원청,광진구,인애유치원(광진구),사립,법인,서울특별시 광진구 능동로4길 13,,37.5338019,127.0683868,09시00분~18시00분,0,0,0,2,0,0,0,0,74,0,0,4,0,0,4
강동송파교육지원청,송파구,서울거여초등학교병설유치원(송파구),공립,병설,서울특별시 송파구 마천로25길 18,,37.5048584,127.1407471,07시00분~20시00분,1,2,2,0,1,13,21,37,0,4,2,1,0,8,11
성동광진교육지원청,성동구,벧엘유치원(성동구),사립,사인,서울특별시 성동구 행당로6길 97,,37.5558801,127.0292075,09시00분~18시00분,0,0,0,8,0,0,0,0,279,0,0,17,0,0,17
북부교육지원청,노원구,다연유치원(노원구),사립,사인,서울특별시 노원구 월계로45가길 94,,37.6316903,127.0517112,07시00분~20시00분,1,1,2,0,0,10,14,32,0,0,0,5,0,0,5
강서양천교육지원청,강서구,동그라미유치원(강서구),사립,사인,서울특별시 강서구 화곡로52길 14,,37.5500143,126.8490927,08시00분~19시00분,1,2,2,0,0,35,43,56,0,0,0,8,0,0,8
강서양천교육지원청,양천구,레인보우유치원(양천구),사립,법인,서울특별시 양천구 목동중앙북로24길 19-8,,37.5455307,126.8780444,09시00분~18시00분,1,1,2,0,0,20,25,36,0,0,0,7,0,0,7
동작관악교육지원청,동작구,메이플유치원(동작구),사립,사인,서울특별시 동작구 여의대방로 22,,37.4922665,126.9116072,07시00분~20시00분,2,2,2,0,0,22,38,32,0,0,0,8,0,0,8
동작관악교육지원청,동작구,서울신남성초등학교병설유치원(동작구),공립,병설,서울특별시 동작구 사당로 146,,37.4885464,126.9652863,07시30분~19시30분,1,1,1,0,0,9,7,12,0,0,1,2,0,0,3
동작관악교육지원청,관악구,서울신우유치원(관악구),공립,단설,서울특별시 관악구 호암로 498,,37.4628309,126.9324964,07시30분~19시30분,1,1,2,0,1,10,4,28,0,5,1,3,1,0,5
강남서초교육지원청,강남구,서울논현초등학교병설유치원(강남구),공립,병설,서울특별시 강남구 강남대로120길 33,,37.5082167,127.0263166,07시30분~19시30분,1,2,1,0,1,13,18,18,0,5,1,5,0,1,7
서부교육지원청,마포구,서울하늘초등학교병설유치원(마포구),공립,병설,서울특별시 마포구 월드컵북로 502-14,,37.5854652,126.8807982,07시30분~19시30분,1,2,2,0,0,14,25,31,0,0,1,4,0,1,6
중부교육지원청,용산구,서울청파초등학교병설유치원(용산구),공립,병설,서울특별시 용산구 효창원로 228,,37.5475869,126.9642369,07시00분~20시00분,0,1,1,0,0,0,11,15,0,0,0,2,0,0,2
성동광진교육지원청,성동구,무학유치원(성동구),사립,사인,서울특별시 성동구 무학봉15가길 4,,37.561534,127.030687,09시00분~19시00분,0,0,1,1,0,0,0,23,9,0,0,2,0,0,2
강동송파교육지원청,강동구,가람유치원(강동구),사립,사인,서울특별시 강동구 상암로63길 39,,37.5482814,127.1537838,09시30분~18시00분,0,2,3,0,0,0,61,94,0,0,0,7,0,0,7
강서양천교육지원청,양천구,세화유치원(양천구),사립,사인,서울특별시 양천구 목동동로 130,,37.5161905,126.8703376,09시00분~17시00분,2,2,2,0,0,44,42,50,0,0,1,16,0,0,17
강서양천교육지원청,양천구,양서유치원(양천구),사립,사인,서울특별시 양천구 신월로13길 15,,37.5194251,126.8410119,09시30분~18시00분,2,1,1,0,0,18,15,21,0,0,0,5,0,0,5
남부교육지원청,영등포구,대림유치원(영등포구),사립,사인,서울특별시 영등포구 디지털로 455-7,,37.4963008,126.9069416,09시00분~20시00분,0,0,0,1,0,0,0,0,16,0,0,2,0,0,2
남부교육지원청,구로구,동정성모유치원(구로구),사립,법인,서울특별시 구로구 경인로2길 11,,37.490358,126.8276984,08시30분~16시30분,2,3,2,0,0,36,66,44,0,0,0,14,0,0,14
남부교육지원청,구로구,바니유치원(구로구),사립,사인,서울특별시 구로구 구일로4길 46,,37.4929859,126.8771135,09시30분~17시30분,1,1,1,0,0,21,14,16,0,0,0,4,0,1,5
동부교육지원청,동대문구,홍릉유치원(동대문구),사립,사인,서울특별시 동대문구 홍릉로29길 17,,37.5906654,127.0416872,09시00분~20시00분,0,0,1,1,0,0,0,10,11,0,0,2,0,0,2
동작관악교육지원청,동작구,강남유치원(동작구),사립,사인,서울특별시 동작구 상도로41가길 13,,37.5035045,126.9496358,08시00분~18시30분,1,1,1,0,0,20,24,25,0,0,0,5,0,0,5
동작관악교육지원청,동작구,노량진교회유치원(동작구),사립,법인,서울특별시 동작구 노량진로30길 9,,37.5121163,126.9559886,08시40분~18시00분,1,1,1,0,0,20,25,16,0,0,0,5,0,1,6
남부교육지원청,영등포구,신라유치원(영등포구),사립,사인,서울특별시 영등포구 영등포로64길 8,,37.5138702,126.9175951,07시00분~19시00분,1,1,1,0,0,11,18,13,0,0,0,4,0,0,4
남부교육지원청,영등포구,영은유치원(영등포구),사립,사인,서울특별시 영등포구 양산로 61,,37.5252644,126.8900822,08시30분~19시00분,2,1,2,0,0,30,25,40,0,0,0,9,0,0,9
남부교육지원청,영등포구,영중유치원(영등포구),사립,법인,서울특별시 영등포구 영중로 163,,37.5309063,126.9052749,09시00분~17시00분,1,1,2,0,0,20,22,45,0,0,0,8,0,0,8
동작관악교육지원청,관악구,신림유치원(관악구),사립,사인,서울특별시 관악구 난곡로32길 12,,37.472144,126.9200944,09시00분~20시00분,1,2,1,0,0,5,35,22,0,0,0,5,0,0,5
동작관악교육지원청,관악구,애동유치원(관악구),사립,사인,서울특별시 관악구 법원단지길 56,,37.4738342,126.9203476,08시00분~19시00분,2,2,2,0,0,17,31,33,0,0,0,8,0,0,8
북부교육지원청,노원구,서울상곡초등학교병설유치원(노원구),공립,병설,서울특별시 노원구 노원로38길 34,,37.6623987,127.0624797,07시30분~19시30분,2,1,1,0,0,23,20,21,0,0,1,3,0,1,5
서부교육지원청,은평구,서울서신초등학교병설유치원(은평구),공립,병설,서울특별시 은평구 은평터널로 150,,37.5923977,126.9075339,07시30분~19시30분,0,1,1,0,0,0,6,11,0,0,0,2,0,0,2
강서양천교육지원청,양천구,서울장수초등학교병설유치원(양천구),공립,병설,서울특별시 양천구 신정로13가길 30,,37.512921,126.8452303,07시30분~19시30분,2,2,2,0,1,17,21,20,0,3,2,4,1,0,7
강동송파교육지원청,송파구,리틀바움유치원(송파구),사립,사인,서울특별시 송파구 올림픽로 525,,37.529386,127.1189025,09시00분~18시00분,0,0,1,0,0,0,0,8,0,0,0,1,0,0,1
서부교육지원청,은평구,자연유치원(은평구),사립,사인,서울특별시 은평구 통일로 630-1,,37.6031579,126.9374697,08시00분~18시30분,2,3,2,0,0,42,45,55,0,0,0,13,0,0,13
강남서초교육지원청,서초구,천사유치원(서초구),사립,사인,서울특별시 서초구 바우뫼로 99,,37.4766176,127.0294575,08시00분~17시00분,1,1,1,1,0,22,24,23,18,0,0,10,0,0,10
강서양천교육지원청,강서구,국제유치원(강서구),사립,사인,서울특별시 강서구 양천로30길 4,,37.5705356,126.822961,07시00분~20시00분,1,1,1,0,0,13,19,15,0,0,0,4,0,0,4
강서양천교육지원청,양천구,등대유치원(양천구),사립,사인,서울특별시 양천구 목동동로12길 60,,37.5203883,126.8772356,08시00분~19시30분,2,2,2,0,0,42,52,50,0,0,0,11,0,0,11
강서양천교육지원청,강서구,등촌제일유치원(강서구),사립,법인,서울특별시 강서구 화곡로66길 118,,37.5554804,126.8592816,08시00분~19시00분,2,2,2,0,0,28,45,49,0,0,0,11,0,0,11
중부교육지원청,중구,신일유치원(중구),사립,사인,서울특별시 중구 동호로10길 27,,37.5553962,127.0119282,07시00분~20시00분,1,1,1,0,0,15,18,16,0,0,0,5,0,0,5
중부교육지원청,종로구,하나유치원(종로구),사립,사인,서울특별시 종로구 평창길 317,,37.6143549,126.9774586,09시00분~17시00분,2,2,2,0,0,24,30,44,0,0,0,7,0,0,7
중부교육지원청,중구,한일유치원(중구),사립,사인,서울특별시 중구 퇴계로88다길 5,,37.5631182,127.0199296,07시00분~20시00분,2,1,1,0,0,29,21,22,0,0,0,6,0,0,6
성북강북교육지원청,성북구,루이유치원(성북구),사립,법인,서울특별시 성북구 서경로6길 13,,37.6071433,127.0164367,07시30분~19시30분,2,2,0,0,0,40,41,0,0,0,0,8,0,2,10
남부교육지원청,구로구,푸른동산유치원(구로구),사립,사인,서울특별시 구로구 서해안로 2201,,37.4867328,126.8313787,09시30분~17시30분,3,4,3,0,0,58,87,70,0,0,3,16,0,1,20
성동광진교육지원청,광진구,서울신자초등학교병설유치원(광진구),공립,병설,서울특별시 광진구 뚝섬로46길 64,,37.5300737,127.0755326,07시30분~20시00분,1,1,1,0,0,11,12,17,0,0,1,2,0,0,3
성동광진교육지원청,성동구,한양여자대학교부속유치원(성동구),사립,법인,서울특별시 성동구 살곶이길 200,,37.5577414,127.0473936,08시00분~18시00분,2,2,1,0,0,26,25,21,0,0,1,8,0,0,9
성북강북교육지원청,성북구,덕수유치원(성북구),사립,법인,서울특별시 성북구 성북로 127,,37.5940983,126.9950096,07시00분~20시00분,2,1,2,0,0,17,18,30,0,0,1,5,0,0,6
강동송파교육지원청,송파구,혜림유치원(송파구),사립,사인,서울특별시 송파구 문정로13길 13,,37.4943385,127.1352175,08시00분~18시00분,2,2,1,0,0,37,35,31,0,0,0,11,0,0,11
강동송파교육지원청,송파구,푸른꿈유치원(송파구),사립,사인,서울특별시 송파구 백제고분로46길 41,,37.5070042,127.1154248,09시00분~18시00분,0,0,0,1,0,0,0,0,10,0,1,1,0,0,2
서부교육지원청,은평구,다우림명문유치원(은평구),사립,사인,서울특별시 은평구 진관4로 31,,37.6442605,126.9248201,08시00분~20시00분,3,3,3,0,0,50,41,52,0,0,0,16,0,0,16
성북강북교육지원청,성북구,우촌유치원(성북구),사립,법인,서울특별시 성북구 성북로4길 52-1,,37.5956492,127.0117126,08시00분~18시00분,3,2,2,0,0,54,48,53,0,0,1,10,0,10,21
강서양천교육지원청,강서구,미래클유치원(강서구),사립,사인,서울특별시 강서구 수명로1길 76,,37.5523867,126.8229902,09시00분~18시00분,2,2,2,0,0,43,51,50,0,0,0,11,0,0,11
동작관악교육지원청,동작구,하랑숲유치원(동작구),사립,사인,서울특별시 동작구 동작대로41길 7,,37.4960177,126.9818135,09시00분~18시00분,4,3,3,0,0,59,68,60,0,0,0,13,0,4,17
서부교육지원청,은평구,서울연천초등학교병설유치원(은평구),공립,병설,서울특별시 은평구 연서로34길 22,,37.6208097,126.9293346,07시00분~19시00분,0,0,1,1,0,0,0,11,7,0,0,2,0,0,2
성동광진교육지원청,성동구,서울경수초등학교병설유치원(성동구),공립,병설,서울특별시 성동구 뚝섬로13길 22,,37.5397009,127.0584129,07시00분~20시00분,1,1,1,0,0,6,9,19,0,0,1,2,0,0,3
남부교육지원청,영등포구,서울당중초등학교병설유치원(영등포구),공립,병설,서울특별시 영등포구 선유로 131,,37.5262496,126.8903407,07시30분~19시30분,1,1,1,0,0,16,22,23,0,0,1,2,0,0,3
북부교육지원청,노원구,꿈모리유치원(노원구),사립,사인,서울특별시 노원구 공릉로58길 23,,37.6337693,127.0724626,09시00분~19시00분,1,0,0,1,0,8,0,0,25,0,0,3,0,0,3
북부교육지원청,노원구,꿈동산유치원(노원구),사립,사인,서울특별시 노원구 동일로227길 26,,37.6687829,127.0537253,09시10분~19시10분,4,3,3,0,0,95,72,70,0,0,0,14,0,2,16
남부교육지원청,금천구,서울두산초등학교병설유치원(금천구),공립,병설,서울특별시 금천구 범안로11길 3,,37.4671638,126.8910112,07시30분~19시30분,2,2,1,0,1,22,19,14,0,4,2,3,1,0,6
남부교육지원청,영등포구,서울영중초등학교병설유치원(영등포구),공립,병설,서울특별시 영등포구 양산로 185,,37.523603,126.9038836,07시30분~19시30분,1,2,1,0,1,14,24,18,0,4,1,3,1,6,11
성동광진교육지원청,광진구,경하유치원(광진구),사립,사인,서울특별시 광진구 동일로72길 9,,37.5661465,127.0782148,09시00분~20시00분,0,0,0,1,0,0,0,0,25,0,0,3,0,3,6
동부교육지원청,중랑구,서울동원초등학교병설유치원(중랑구),공립,병설,서울특별시 중랑구 송림길 114,,37.6049029,127.1049361,07시00분~20시00분,1,1,1,0,1,15,21,19,0,4,1,2,1,3,7
동부교육지원청,동대문구,서울장평초등학교병설유치원(동대문구),공립,병설,서울특별시 동대문구 답십리로69길 27,,37.5735469,127.0733039,07시30분~19시30분,1,1,1,0,0,8,18,24,0,0,1,2,0,0,3
북부교육지원청,도봉구,한사랑유치원(도봉구),사립,사인,서울특별시 도봉구 노해로66길 79,,37.6490829,127.0485403,09시00분~17시00분,2,2,2,0,0,18,30,34,0,0,0,7,0,0,7
서부교육지원청,은평구,무지개나라유치원(은평구),사립,사인,서울특별시 은평구 가좌로7다길 13,,37.5845788,126.9181202,08시30분~18시30분,1,1,2,0,0,13,18,45,0,0,0,8,0,5,13
강동송파교육지원청,송파구,동화나라유치원(송파구),사립,사인,서울특별시 송파구 강동대로3길 23,,37.5288497,127.1154376,07시30분~19시30분,3,3,2,0,0,67,73,49,0,0,0,16,0,0,16
강동송파교육지원청,송파구,시연유치원(송파구),사립,사인,서울특별시 송파구 오금로24길 25,,37.5047827,127.117784,07시00분~19시00분,2,2,2,0,0,45,51,53,0,0,0,14,0,0,14
성북강북교육지원청,성북구,서울길원초등학교병설유치원(성북구),공립,병설,서울특별시 성북구 길음로15길 55,,37.6092757,127.0166521,07시30분~19시30분,1,1,2,0,0,10,14,33,0,0,1,3,0,0,4
남부교육지원청,영등포구,서울대동초등학교병설유치원(영등포구),공립,병설,서울특별시 영등포구 대림로21길 6,,37.4933501,126.9001454,07시00분~20시00분,1,1,1,0,0,9,16,14,0,0,0,3,0,0,3
강동송파교육지원청,송파구,밀알유치원(송파구),사립,사인,서울특별시 송파구 오금로46길 62,,37.4931702,127.1314997,09시00분~20시00분,1,1,1,0,0,10,7,20,0,0,0,4,0,0,4
동부교육지원청,중랑구,누리에유치원(중랑구),사립,사인,서울특별시 중랑구 중랑천로 20,,37.587504,127.0754651,07시30분~19시30분,2,2,2,0,0,34,43,44,0,0,0,11,0,0,11
서부교육지원청,은평구,자인유치원(은평구),사립,사인,서울특별시 은평구 갈현로 169-7,,37.613329,126.9107507,08시30분~18시30분,0,0,1,1,0,0,0,19,15,0,1,4,0,0,5
성동광진교육지원청,광진구,한일유치원(광진구),사립,사인,서울특별시 광진구 뚝섬로35길 16-20,,37.5350143,127.0716811,09시00분~17시30분,1,1,1,0,0,24,26,28,0,0,0,6,0,0,6
성북강북교육지원청,성북구,서울정덕초등학교병설유치원(성북구),공립,병설,서울특별시 성북구 아리랑로 63,,37.5976828,127.0136083,07시30분~19시30분,1,1,1,0,0,8,17,22,0,0,1,2,0,0,3
성북강북교육지원청,성북구,예린유치원(성북구),사립,사인,서울특별시 성북구 종암로25길 17,,37.6002013,127.0322116,09시00분~19시00분,1,1,1,0,0,16,13,20,0,0,0,4,0,0,4
성북강북교육지원청,성북구,영천유치원(성북구),사립,법인,서울특별시 성북구 장위로 34,,37.6141206,127.040471,07시00분~19시00분,1,1,1,0,0,15,21,23,0,0,0,6,0,0,6
성북강북교육지원청,강북구,꿈동산유치원(강북구),사립,사인,서울특별시 강북구 한천로115길 15,,37.6321658,127.0383768,07시00분~20시00분,1,1,1,0,0,15,20,11,0,0,0,4,0,0,4
강서양천교육지원청,강서구,장미유치원(강서구),사립,사인,서울특별시 강서구 허준로 139,,37.5652158,126.8556678,08시30분~18시00분,2,2,1,0,0,26,29,25,0,0,0,7,0,0,7
강서양천교육지원청,양천구,한서유치원(양천구),사립,사인,서울특별시 양천구 목동동로 430,,37.5346421,126.8848163,07시00분~19시00분,3,2,1,0,0,57,39,20,0,0,0,14,0,0,14
강서양천교육지원청,양천구,해림유치원(양천구),사립,사인,서울특별시 양천구 목동서로2길 22,,37.5414577,126.8816548,09시00분~18시00분,0,0,0,5,0,0,0,0,114,0,0,11,0,0,11
강서양천교육지원청,강서구,홍신유치원(강서구),사립,사인,서울특별시 강서구 강서로45길 63,,37.5481661,126.8325118,08시00분~18시00분,1,2,2,0,0,63,73,62,0,0,0,14,0,0,14
남부교육지원청,구로구,꿀벌유치원(구로구),사립,법인,서울특별시 구로구 디지털로27다길 15,,37.4850149,126.8893403,09시30분~17시00분,1,2,2,0,0,22,36,27,0,0,1,8,0,0,9
남부교육지원청,구로구,일신유치원(구로구),사립,사인,서울특별시 구로구 오류로8길 22,,37.4911962,126.8420442,09시00분~19시00분,1,1,1,0,0,13,12,18,0,0,0,4,0,0,4
남부교육지원청,금천구,한신유치원(금천구),사립,사인,서울특별시 금천구 한내로 62,,37.4565204,126.8880304,08시00분~18시30분,2,3,2,0,0,51,68,39,0,0,0,15,0,0,15
동부교육지원청,동대문구,규전유치원(동대문구),사립,사인,서울특별시 동대문구 휘경로 42,,37.5945317,127.0643096,09시00분~18시30분,0,0,1,1,0,0,0,11,10,0,0,1,0,0,1
북부교육지원청,도봉구,솔샘유치원(도봉구),사립,사인,서울특별시 도봉구 해등로 113,,37.6534849,127.0393781,08시00분~20시00분,2,1,2,0,0,25,25,46,0,0,0,9,0,0,9
서부교육지원청,마포구,서울유치원(마포구),사립,사인,서울특별시 마포구 월드컵북로 233-1,,37.572115,126.9018923,09시00분~18시30분,1,1,1,0,0,11,27,31,0,0,0,5,0,0,5
강동송파교육지원청,강동구,서울선린초등학교병설유치원(강동구),공립,병설,서울특별시 강동구 진황도로61길 29,,37.5292675,127.1457383,07시00분~20시00분,2,2,1,0,0,15,25,12,0,0,1,4,0,3,8
강동송파교육지원청,송파구,서울세륜초등학교병설유치원(송파구),공립,병설,서울특별시 송파구 양재대로 1264,,37.518577,127.1337805,07시30분~20시00분,1,1,1,0,1,3,6,14,0,5,1,2,1,0,4
성동광진교육지원청,성동구,세인유치원(성동구),사립,사인,서울특별시 성동구 마장로42길 26,,37.5652555,127.0465455,09시00분~18시00분,1,1,1,0,0,4,21,11,0,0,0,5,0,1,6
성동광진교육지원청,성동구,솔유치원(성동구),사립,사인,서울특별시 성동구 무학로 50,,37.5687032,127.0316644,09시00분~17시00분,0,0,2,0,0,0,0,28,0,0,0,3,0,0,3
강동송파교육지원청,송파구,은선유치원(송파구),사립,법인,서울특별시 송파구 동남로11길 27,,37.4921796,127.1263082,07시00분~20시00분,2,2,2,0,0,51,56,47,0,0,0,12,0,1,13
북부교육지원청,노원구,삼육대학교부속유치원(노원구),사립,법인,서울특별시 노원구 화랑로 815,,37.6429012,127.1060303,07시30분~19시00분,2,2,2,2,0,40,48,51,40,0,2,10,0,0,12
북부교육지원청,노원구,서울여자대학교부속유치원(노원구),사립,법인,서울특별시 노원구 화랑로 621,,37.6277725,127.0904878,08시00분~19시00분,2,2,2,0,0,33,39,43,0,0,1,7,0,0,8
동작관악교육지원청,관악구,명성유치원(관악구),사립,사인,서울특별시 관악구 광신길 154,,37.4655015,126.9270267,07시40분~19시00분,1,1,1,0,0,21,12,9,0,0,0,5,0,0,5
동작관악교육지원청,동작구,상아유치원(동작구),사립,사인,서울특별시 동작구 양녕로26길 15,,37.4984871,126.9443163,08시20분~18시00분,0,0,1,1,0,0,0,13,12,0,0,0,0,0,0
동작관악교육지원청,관악구,서울난곡초등학교병설유치원(관악구),공립,병설,서울특별시 관악구 난곡로35길 102,,37.4692461,126.9170719,07시30분~19시30분,1,1,2,0,1,8,7,21,0,4,1,3,1,0,5
강서양천교육지원청,양천구,신목유치원(양천구),사립,사인,서울특별시 양천구 목동중앙북로10길 7-10,,37.5463925,126.8701995,07시30분~19시30분,1,1,1,0,0,9,14,22,0,0,0,4,0,1,5
강서양천교육지원청,강서구,아람유치원(강서구),사립,사인,서울특별시 강서구 금낭화로23길 8,,37.5796025,126.8121823,07시00분~20시00분,1,2,1,0,0,17,37,23,0,0,0,7,0,0,7
남부교육지원청,금천구,동일유치원(금천구),사립,법인,서울특별시 금천구 탑골로10길 45,,37.4512743,126.916348,08시00분~18시00분,2,2,2,0,0,50,47,52,0,0,0,6,0,1,7
남부교육지원청,금천구,럭키유치원(금천구),사립,사인,서울특별시 금천구 시흥대로47길 43,,37.4504215,126.8993776,09시00분~19시00분,2,2,1,0,0,22,21,20,0,0,0,5,0,0,5
남부교육지원청,구로구,버들유치원(구로구),사립,사인,서울특별시 구로구 오류로8길 40,,37.4916751,126.8428418,09시00분~18시00분,0,0,0,1,0,0,0,0,23,0,0,2,0,0,2
동부교육지원청,중랑구,예원유치원(중랑구),사립,사인,서울특별시 중랑구 신내로 51,,37.6048781,127.0947185,07시00분~22시00분,1,2,2,0,0,11,28,33,0,0,0,7,0,0,7
동부교육지원청,중랑구,은성유치원(중랑구),사립,사인,서울특별시 중랑구 동일로 752,,37.5971492,127.0819073,07시30분~19시30분,3,3,3,0,0,64,78,69,0,0,0,16,0,0,16
동작관악교육지원청,관악구,건영유치원(관악구),사립,법인,서울특별시 관악구 조원로 114,,37.4847918,126.9149531,09시30분~18시10분,0,1,2,0,0,0,6,44,0,0,0,3,0,0,3
동작관악교육지원청,동작구,소망유치원(동작구),사립,사인,서울특별시 동작구 현충로 119,,37.5078681,126.9669348,07시00분~19시00분,1,1,1,0,0,16,22,22,0,0,0,5,0,1,6
동작관악교육지원청,동작구,승혜유치원(동작구),사립,사인,서울특별시 동작구 성대로21길 15,,37.4987272,126.937091,08시00분~19시00분,2,1,2,0,0,39,25,46,0,0,0,10,0,0,10
동작관악교육지원청,동작구,요요유치원(동작구),사립,사인,서울특별시 동작구 여의대방로 28,,37.494565,126.9122485,07시00분~19시00분,1,2,2,0,0,12,32,45,0,0,0,9,0,0,9
북부교육지원청,노원구,서울노일유치원(노원구),공립,단설,서울특별시 노원구 동일로231길 26,,37.6729772,127.0538703,07시00분~20시00분,3,1,2,0,0,30,19,33,0,0,2,4,0,2,8
북부교육지원청,노원구,아랑유치원(노원구),사립,사인,서울특별시 노원구 동일로 1127,,37.6302736,127.0694304,09시00분~19시00분,2,2,2,0,0,36,35,41,0,0,0,11,0,0,11
북부교육지원청,노원구,사랑샘유치원(노원구),사립,사인,서울특별시 노원구 한글비석로 325,,37.6563943,127.0777101,09시00분~19시00분,1,1,1,0,0,10,18,15,0,0,0,5,0,0,5
북부교육지원청,노원구,원암유치원(노원구),사립,사인,서울특별시 노원구 중계로14라길 48,,37.6497423,127.085087,09시00분~18시00분,5,4,4,0,0,103,96,94,0,0,0,26,0,0,26
북부교육지원청,도봉구,유화유치원(도봉구),사립,사인,서울특별시 도봉구 시루봉로 101,,37.6594168,127.0269607,08시30분~16시30분,1,1,1,0,0,18,24,22,0,0,0,6,0,0,6
서부교육지원청,은평구,바다의별유치원(은평구),사립,법인,서울특별시 은평구 통일로 790-1,,37.6154336,126.9262186,09시00분~18시30분,1,1,2,0,0,14,21,32,0,0,0,5,0,1,6
서부교육지원청,마포구,새싹유치원(마포구),사립,사인,서울특별시 마포구 월드컵북로5길 53,,37.5561003,126.9160584,09시00분~19시30분,1,1,2,0,0,28,28,41,0,0,1,6,0,0,7
동부교육지원청,동대문구,서울홍파초등학교병설유치원(동대문구),공립,병설,서울특별시 동대문구 고산자로 518,,37.5863119,127.0396423,07시00분~19시30분,1,1,1,0,0,5,8,5,0,0,1,2,0,0,3
강서양천교육지원청,강서구,서울화일초등학교병설유치원(강서구),공립,병설,서울특별시 강서구 까치산로10길 70,,37.5406155,126.8475317,07시30분~19시30분,1,1,1,0,0,16,11,21,0,0,1,2,0,1,4
동부교육지원청,동대문구,서울휘봉초등학교병설유치원(동대문구),공립,병설,서울특별시 동대문구 장안벚꽃로 309,,37.5860882,127.0701328,07시30분~19시30분,1,1,1,0,0,10,8,19,0,0,1,3,0,3,7
강동송파교육지원청,송파구,삼성유치원(송파구),사립,사인,서울특별시 송파구 문정로 83,,37.4906212,127.1302937,07시40분~18시00분,2,2,2,0,0,50,54,52,0,0,0,12,0,0,12
강남서초교육지원청,서초구,서울서래초등학교병설유치원(서초구),공립,병설,서울특별시 서초구 방배로 260,,37.4961027,126.9893974,07시30분~19시30분,1,1,2,0,1,10,19,34,0,5,1,3,1,1,6
강남서초교육지원청,서초구,반포성모유치원(서초구),사립,법인,서울특별시 서초구 신반포로15길 18,,37.504895,126.9944935,09시00분~17시00분,1,1,1,0,0,12,20,28,0,0,1,3,0,0,4
강동송파교육지원청,송파구,서울잠신초등학교병설유치원(송파구),공립,병설,서울특별시 송파구 잠실로 32,,37.5139836,127.0882126,07시30분~19시30분,0,1,1,0,1,0,8,16,0,5,1,1,1,0,3
중부교육지원청,용산구,복자유치원(용산구),사립,법인,서울특별시 용산구 후암로34길 21-8,,37.5519418,126.9782418,09시00분~17시00분,2,1,1,0,0,38,29,32,0,0,0,6,0,1,7
중부교육지원청,종로구,서울명신초등학교병설유치원(종로구),공립,병설,서울특별시 종로구 낙산길 250,,37.581588,127.0142054,07시00분~19시30분,1,1,1,0,0,5,14,13,0,0,1,1,0,1,3
중부교육지원청,종로구,세종유치원(종로구),사립,법인,서울특별시 종로구 사직로8길 9,,37.5754578,126.9699641,08시00분~18시30분,1,1,1,0,0,14,11,20,0,0,0,5,0,0,5
중부교육지원청,중구,일신유치원(중구),사립,법인,서울특별시 중구 퇴계로6길 36,,37.556697,126.9788364,07시00분~20시00분,0,1,1,0,0,0,6,7,0,0,0,2,0,0,2
강남서초교육지원청,서초구,서초유치원(서초구),사립,사인,서울특별시 서초구 양재대로2길 100-64,,37.4560873,127.0162859,08시00분~19시00분,3,4,4,0,0,60,94,87,0,0,0,16,0,0,16
동부교육지원청,중랑구,서울새솔유치원(중랑구),공립,단설,서울특별시 중랑구 신내역로1길 136,,37.6166281,127.1081892,07시30분~17시30분,3,3,3,0,3,34,46,50,0,11,3,6,2,6,17
동작관악교육지원청,동작구,서울강남초등학교병설유치원(동작구),공립,병설,서울특별시 동작구 강남초등길 15,,37.5061028,126.9527814,07시00분~19시00분,1,1,1,0,0,10,17,13,0,0,1,2,0,0,3
강남서초교육지원청,서초구,서울언남초등학교병설유치원(서초구),공립,병설,서울특별시 서초구 헌릉로8길 42,,37.4539193,127.0615139,07시00분~19시30분,1,2,1,0,1,10,20,13,0,2,1,3,1,5,10
강남서초교육지원청,강남구,오즈의마법사유치원(강남구),사립,법인,서울특별시 강남구 헌릉로618길 14,,37.4640148,127.1061849,07시30분~19시00분,3,4,3,0,0,60,78,61,0,0,0,18,0,8,26
성동광진교육지원청,광진구,미파유치원(광진구),사립,사인,서울특별시 광진구 용마산로 185,,37.5702334,127.0858835,09시00분~20시00분,0,0,0,2,0,0,0,0,57,0,0,3,0,1,4
성동광진교육지원청,광진구,서울구의초등학교병설유치원(광진구),공립,병설,서울특별시 광진구 광나루로30길 49,,37.5427858,127.0803624,07시00분~19시00분,1,1,1,0,1,15,20,22,0,4,1,2,1,0,4
성동광진교육지원청,성동구,서울옥수초등학교병설유치원(성동구),공립,병설,서울특별시 성동구 금호로1길 25,,37.5459206,127.0221894,07시00분~19시00분,1,1,1,0,0,7,14,15,0,0,0,3,0,0,3
성북강북교육지원청,강북구,인수유치원(강북구),사립,사인,서울특별시 강북구 인수봉로 298,,37.6453917,127.0108791,07시30분~20시00분,0,0,0,1,0,0,0,0,40,0,0,2,0,0,2
성북강북교육지원청,성북구,좋은나라유치원(성북구),사립,사인,서울특별시 성북구 종암로24가길 53,,37.6011845,127.0369888,08시00분~18시30분,2,3,2,0,0,49,71,66,0,0,3,10,0,1,14
성북강북교육지원청,성북구,세아유치원(성북구),사립,사인,서울특별시 성북구 성북로4길 52,,37.5948075,127.0103188,07시00분~20시00분,1,1,1,0,0,4,8,7,0,0,0,4,0,0,4
성동광진교육지원청,성동구,미타유치원(성동구),사립,사인,서울특별시 성동구 독서당로40길 21,,37.543552,127.0177089,09시00분~17시00분,2,1,2,0,0,40,24,45,0,0,0,8,0,0,8
강동송파교육지원청,송파구,꿈밭유치원(송파구),사립,사인,서울특별시 송파구 올림픽로4길 32,,37.5078649,127.074166,09시00분~14시00분,0,0,1,1,0,0,0,19,22,0,0,3,0,0,3
남부교육지원청,영등포구,성지유치원(영등포구),사립,사인,서울특별시 영등포구 도신로29길 28,,37.5115331,126.90239,08시00분~19시00분,2,1,1,0,0,38,28,25,0,0,0,9,0,0,9
남부교육지원청,금천구,운현유치원(금천구),사립,사인,서울특별시 금천구 금하로 816,,37.4482694,126.9187697,07시50분~19시00분,2,2,2,0,0,36,34,35,0,0,0,10,0,0,10
강동송파교육지원청,강동구,구강사금강유치원(강동구),사립,법인,서울특별시 강동구 천중로 64,,37.5448566,127.1288512,09시00분~18시00분,2,2,2,0,0,45,46,49,0,0,0,11,0,0,11
강동송파교육지원청,송파구,잠실밀알유치원(송파구),사립,사인,서울특별시 송파구 석촌호수로 103,,37.5093142,127.0893313,09시00분~17시00분,3,1,1,0,0,50,25,31,0,0,0,7,0,0,7
성북강북교육지원청,성북구,서울석관초등학교병설유치원(성북구),공립,병설,서울특별시 성북구 돌곶이로22길 21,,37.6108977,127.0591729,07시00분~20시00분,1,1,2,0,1,11,19,31,0,4,1,3,0,1,5
서부교육지원청,마포구,마포대진유치원(마포구),사립,법인,서울특별시 마포구 성미산로 110,,37.5616654,126.9192612,07시00분~20시00분,0,7,7,0,0,0,130,143,0,0,0,28,0,1,29
강서양천교육지원청,강서구,윤서유치원(강서구),사립,사인,서울특별시 강서구 화곡로13길 107,,37.5446216,126.8314429,09시00분~18시00분,2,2,3,0,0,43,48,57,0,0,0,15,0,0,15
북부교육지원청,노원구,토마토유치원(노원구),사립,사인,서울특별시 노원구 공릉로 181,,37.6260483,127.0793425,09시00분~19시00분,0,0,2,0,0,0,0,23,0,0,0,3,0,0,3
북부교육지원청,노원구,한양유치원(노원구),사립,법인,서울특별시 노원구 마들로 31,,37.6178025,127.0685682,09시00분~19시00분,1,2,2,0,0,24,36,35,0,0,0,6,0,0,6
강동송파교육지원청,강동구,서울천호초등학교병설유치원(강동구),공립,병설,서울특별시 강동구 구천면로 310-11,,37.5472435,127.1363564,07시30분~19시30분,1,1,1,0,1,5,15,18,0,4,1,2,1,0,4
남부교육지원청,영등포구,서울대방초등학교병설유치원(영등포구),공립,병설,서울특별시 영등포구 여의대방로35길 14,,37.5024692,126.9192814,07시00분~19시00분,0,0,2,0,0,0,0,26,0,0,0,2,0,0,2
강남서초교육지원청,강남구,반디유치원(강남구),사립,사인,서울특별시 강남구 광평로47길 17,,37.4870722,127.0984431,09시00분~17시00분,2,1,1,0,0,37,24,25,0,0,0,8,0,0,8
강남서초교육지원청,서초구,새성민유치원(서초구),사립,사인,서울특별시 서초구 효령로 110,,37.4807263,126.9961192,09시00분~18시00분,1,1,1,0,0,17,16,20,0,0,0,5,0,0,5
강남서초교육지원청,서초구,새순유치원(서초구),사립,사인,서울특별시 서초구 서초대로15길 57,,37.4889714,126.9885628,08시30분~18시00분,2,1,1,0,0,18,8,26,0,0,0,5,0,0,5
북부교육지원청,도봉구,서울신창초등학교병설유치원(도봉구),공립,병설,서울특별시 도봉구 덕릉로60길 93,,37.6362593,127.0421388,07시30분~19시30분,1,1,1,0,1,2,5,12,0,5,1,2,1,0,4
서부교육지원청,서대문구,명지전문대학부속명지유치원(서대문구),사립,법인,서울특별시 서대문구 명지2길 37,,37.5836669,126.9264676,08시00분~18시00분,0,0,2,4,0,0,0,56,87,0,0,12,0,0,12
성동광진교육지원청,광진구,서울양진초등학교병설유치원(광진구),공립,병설,서울특별시 광진구 워커힐로 32,,37.5445232,127.0982459,07시30분~19시30분,1,1,1,0,0,13,22,23,0,0,1,2,0,0,3
강동송파교육지원청,송파구,서울평화초등학교병설유치원(송파구),공립,병설,서울특별시 송파구 송파대로26길 22,,37.4913885,127.1223688,07시00분~19시00분,1,1,1,0,0,6,8,19,0,0,1,2,0,2,5
서부교육지원청,은평구,숲유치원(은평구),사립,사인,서울특별시 은평구 진관2로 37,,37.6347289,126.921581,09시00분~17시30분,3,4,3,0,0,57,85,59,0,0,0,17,0,0,17
북부교육지원청,도봉구,예그린유치원(도봉구),사립,사인,서울특별시 도봉구 노해로 201-1,,37.6511303,127.0305892,09시00분~19시30분,2,2,2,0,0,21,39,53,0,0,0,10,0,0,10
동작관악교육지원청,동작구,중앙대부속유치원(동작구),사립,법인,서울특별시 동작구 흑석로 47,,37.5065562,126.9556418,09시00분~17시00분,2,2,2,0,0,40,48,53,0,0,0,6,0,3,9
북부교육지원청,노원구,꿈터유치원(노원구),사립,사인,서울특별시 노원구 동일로230길 63,,37.6729841,127.0592029,07시00분~20시00분,2,2,1,0,0,36,36,38,0,0,0,9,0,0,9
서부교육지원청,서대문구,현대경복유치원(서대문구),사립,사인,서울특별시 서대문구 통일로34길 66,,37.5855294,126.9508205,08시00분~20시00분,1,2,2,0,0,25,50,49,0,0,0,10,0,0,10
서부교육지원청,서대문구,홍제성당유치원(서대문구),사립,법인,서울특별시 서대문구 통일로40길 18,,37.5900422,126.9439585,09시00분~18시00분,1,1,1,0,0,24,25,26,0,0,0,6,0,0,6
강서양천교육지원청,강서구,미도유치원(강서구),사립,사인,서울특별시 강서구 공항대로58가길 39,,37.5504565,126.8611013,07시00분~19시00분,1,2,1,0,0,25,31,31,0,0,0,7,0,0,7
강서양천교육지원청,양천구,빛나유치원(양천구),사립,사인,서울특별시 양천구 목동로 212,,37.5288229,126.8678406,07시00분~20시00분,2,2,2,0,0,31,37,38,0,0,0,9,0,0,9
강서양천교육지원청,양천구,서울신기초등학교병설유치원(양천구),공립,병설,서울특별시 양천구 신정로 292,,37.5111873,126.854175,07시00분~20시00분,1,2,1,0,1,8,25,20,0,2,1,3,1,0,5
동부교육지원청,동대문구,새소리유치원(동대문구),사립,사인,서울특별시 동대문구 사가정로 148,,37.5766417,127.060466,09시00분~18시30분,2,3,3,0,0,58,76,73,0,0,0,15,0,0,15
동부교육지원청,중랑구,새아랑유치원(중랑구),사립,사인,서울특별시 중랑구 신내로 151,,37.6119852,127.0947268,07시30분~19시30분,3,3,3,0,0,57,76,68,0,0,0,16,0,0,16
동부교육지원청,중랑구,서안유치원(중랑구),사립,사인,서울특별시 중랑구 동일로140길 15,,37.6044112,127.0799813,07시00분~19시00분,1,1,1,0,0,9,17,18,0,0,1,3,0,0,4
동부교육지원청,동대문구,서울답십리초등학교병설유치원(동대문구),공립,병설,서울특별시 동대문구 전농로3길 23,,37.5688678,127.0556519,07시30분~19시30분,2,1,1,0,0,20,20,22,0,0,1,3,0,0,4
북부교육지원청,노원구,한성유치원(노원구),사립,사인,서울특별시 노원구 한글비석로 145,,37.6404352,127.0752494,07시00분~22시00분,2,4,3,0,0,72,85,76,0,0,0,18,0,0,18
서부교육지원청,마포구,돌샘유치원(마포구),사립,사인,서울특별시 마포구 백범로37길 12,,37.543481,126.955738,09시00분~17시00분,2,2,2,0,0,52,64,61,0,0,0,13,0,0,13
강동송파교육지원청,강동구,그리새유치원(강동구),사립,사인,서울특별시 강동구 천호대로187길 53-18,,37.5370977,127.1419699,08시00분~18시30분,0,1,2,0,0,0,26,42,0,0,0,4,0,1,5
강동송파교육지원청,송파구,아주유치원(송파구),사립,사인,서울특별시 송파구 양산로2길 38,,37.4885982,127.1466436,09시00분~18시00분,2,1,1,0,0,43,30,27,0,0,0,8,0,0,8
동작관악교육지원청,관악구,해슬아유치원(관악구),사립,사인,서울특별시 관악구 은천로 93,,37.4892875,126.9447672,09시00분~19시00분,1,2,3,0,0,14,34,68,0,0,0,8,0,0,8
동부교육지원청,동대문구,서울군자초등학교병설유치원(동대문구),공립,병설,서울특별시 동대문구 한천로6길 21,,37.5642058,127.0613158,07시00분~20시00분,2,2,2,0,0,21,24,32,0,0,2,4,0,0,6
성동광진교육지원청,성동구,서울경동유치원(성동구),공립,단설,서울특별시 성동구 성수일로 34,,37.5430599,127.0504404,07시00분~20시00분,2,2,2,0,1,23,34,44,0,7,2,5,0,4,11
동부교육지원청,동대문구,동안유치원(동대문구),사립,사인,서울특별시 동대문구 회기로25길 67,,37.5928833,127.0567031,07시40분~18시30분,2,1,2,0,0,32,24,39,0,0,1,8,0,0,9
동부교육지원청,중랑구,미림유치원(중랑구),사립,사인,서울특별시 중랑구 공릉로 65,,37.6164458,127.0793255,07시30분~20시00분,1,1,1,0,0,7,14,18,0,0,0,4,0,0,4
동부교육지원청,동대문구,빛나유치원(동대문구),사립,법인,서울특별시 동대문구 전농로23길 47,,37.5791384,127.0538643,09시00분~22시00분,1,0,0,1,0,9,0,0,17,0,0,2,0,0,2
서부교육지원청,서대문구,세종유치원(서대문구),사립,사인,서울특별시 서대문구 거북골로16길 36,,37.5764938,126.9131712,08시00분~18시30분,2,2,2,0,0,44,49,60,0,0,0,10,0,3,13
서부교육지원청,서대문구,신현유치원(서대문구),사립,사인,서울특별시 서대문구 이화여대8길 28,,37.5586293,126.9471362,07시30분~19시30분,0,1,1,0,0,0,7,15,0,0,0,2,0,0,2
성북강북교육지원청,강북구,서울미양초등학교병설유치원(강북구),공립,병설,서울특별시 강북구 솔샘로 195,,37.6209522,127.0137139,07시30분~19시30분,1,2,2,0,1,13,21,29,0,4,2,3,1,0,6
북부교육지원청,노원구,서울태랑초등학교병설유치원(노원구),공립,병설,서울특별시 노원구 화랑로51나길 31,,37.626118,127.0907034,07시00분~19시00분,1,1,1,0,1,5,8,21,0,3,1,3,0,0,4
성북강북교육지원청,강북구,새시대유치원(강북구),사립,사인,서울특별시 강북구 도봉로97길 45,,37.6426902,127.0270165,07시30분~19시30분,0,0,1,1,0,0,0,16,23,0,0,3,0,0,3
강서양천교육지원청,강서구,해리유치원(강서구),사립,사인,서울특별시 강서구 허준로 234,,37.5587209,126.863533,08시00분~18시30분,2,2,2,0,0,48,50,50,0,0,0,11,0,0,11
남부교육지원청,영등포구,침례유치원(영등포구),사립,법인,서울특별시 영등포구 국제금융로 118,,37.5178917,126.9342363,09시00분~19시00분,2,2,2,0,0,43,45,45,0,0,1,11,0,2,14
남부교육지원청,영등포구,한신혜원유치원(영등포구),사립,사인,서울특별시 영등포구 양평로24길 9,,37.5401141,126.8921036,08시00분~18시30분,2,2,2,0,0,46,29,29,0,0,0,9,0,1,10
동부교육지원청,동대문구,경희유치원(동대문구),사립,법인,서울특별시 동대문구 경희대로 26,,37.5967122,127.0513948,09시00분~18시00분,2,2,2,0,0,44,54,55,0,0,1,5,0,8,14
북부교육지원청,노원구,서울연촌초등학교병설유치원(노원구),공립,병설,서울특별시 노원구 공릉로58길 36,,37.6342351,127.0729923,07시30분~19시30분,1,1,1,0,0,9,6,17,0,0,1,2,0,0,3
북부교육지원청,노원구,성희유치원(노원구),사립,사인,서울특별시 노원구 동일로215길 48,,37.6518924,127.0579984,07시30분~19시30분,1,2,2,0,0,25,30,42,0,0,0,6,0,0,6
북부교육지원청,도봉구,신창유치원(도봉구),사립,사인,서울특별시 도봉구 덕릉로 272,,37.641376,127.0410453,07시30분~19시30분,0,0,0,1,0,0,0,0,1,0,0,1,0,0,1
북부교육지원청,노원구,연세유치원(노원구),사립,사인,서울특별시 노원구 섬밭로 265,,37.6387852,127.0624881,07시00분~20시00분,2,2,2,0,0,32,29,37,0,0,0,10,0,0,10
북부교육지원청,노원구,영산유치원(노원구),사립,사인,서울특별시 노원구 동일로216길 47,,37.6527768,127.0646469,09시00분~18시00분,1,1,1,0,0,12,17,13,0,0,0,4,0,0,4
서부교육지원청,마포구,서울공덕초등학교병설유치원(마포구),공립,병설,서울특별시 마포구 만리재옛길 13,,37.5457281,126.954095,07시00분~20시00분,1,1,1,0,0,9,11,16,0,0,1,2,0,3,6
강남서초교육지원청,강남구,이화유치원(강남구),사립,사인,서울특별시 강남구 개포로109길 5,,37.4941844,127.0752156,09시00분~18시00분,1,1,1,0,0,7,12,17,0,0,0,3,0,0,3
강동송파교육지원청,강동구,천호유치원(강동구),사립,법인,서울특별시 강동구 구천면로 236-1,,37.5414115,127.1313955,08시30분~17시40분,4,4,2,0,0,62,70,60,0,0,0,17,0,0,17
강동송파교육지원청,송파구,의명유치원(송파구),사립,사인,서울특별시 송파구 오금로35길 17,,37.5065463,127.1268328,09시00분~18시00분,2,2,2,0,0,50,50,49,0,0,0,12,0,0,12
동작관악교육지원청,동작구,명수유치원(동작구),사립,법인,서울특별시 동작구 흑석로13길 3,,37.5089347,126.9603106,09시00분~18시00분,1,1,2,0,0,22,28,43,0,0,0,7,0,0,7
동작관악교육지원청,관악구,배꽃유치원(관악구),사립,사인,서울특별시 관악구 봉천로29길 47,,37.4856316,126.9419481,08시00분~19시00분,2,2,2,0,0,39,42,46,0,0,0,10,0,1,11
동작관악교육지원청,관악구,새소슬유치원(관악구),사립,사인,서울특별시 관악구 성현로 80,,37.4897675,126.95062,07시30분~19시30분,1,2,2,0,0,19,49,46,0,0,0,9,0,0,9
동작관악교육지원청,관악구,새싹유치원(관악구),사립,사인,서울특별시 관악구 남현2길 90,,37.4745503,126.9728622,07시00분~19시00분,1,1,1,0,0,22,25,28,0,0,0,7,0,0,7
동작관악교육지원청,관악구,서울원당초등학교병설유치원(관악구),공립,병설,서울특별시 관악구 봉천로 505,,37.4810793,126.9562093,07시00분~19시00분,1,1,2,0,1,11,7,19,0,2,1,3,1,1,6
성북강북교육지원청,성북구,동덕여자대학교부속유치원(성북구),사립,법인,서울특별시 성북구 장월로1가길 9,,37.6064132,127.0441058,09시30분~17시30분,0,0,2,3,0,0,0,53,83,0,0,9,0,4,13
성동광진교육지원청,성동구,금호유치원(성동구),사립,법인,서울특별시 성동구 금호산2길 35,,37.5487612,127.023584,08시00분~18시00분,1,0,0,1,0,4,0,0,17,0,0,2,0,0,2
남부교육지원청,구로구,동아유치원(구로구),사립,사인,서울특별시 구로구 신도림로 87,,37.5110415,126.8829523,08시00분~18시00분,2,2,2,0,0,27,38,42,0,0,0,8,0,0,8
동부교육지원청,중랑구,진달래유치원(중랑구),사립,사인,서울특별시 중랑구 상봉중앙로1가길 13,,37.5987575,127.0868493,08시00분~18시00분,2,2,1,0,0,28,33,24,0,0,0,7,0,0,7
남부교육지원청,영등포구,신길에덴유치원(영등포구),사립,사인,서울특별시 영등포구 신길로38길 21,,37.5055656,126.9134626,07시00분~19시00분,1,1,1,0,0,12,17,12,0,0,0,5,0,0,5
남부교육지원청,구로구,신도유치원(구로구),사립,사인,서울특별시 구로구 구일로2길 45,,37.4892582,126.8775715,08시00분~18시30분,1,1,1,0,0,26,27,27,0,0,0,6,0,0,6
동작관악교육지원청,관악구,소슬유치원(관악구),사립,사인,서울특별시 관악구 구암길 46,,37.4897895,126.9483849,07시30분~19시30분,0,0,2,0,0,0,0,42,0,0,0,3,0,0,3
동작관악교육지원청,동작구,송림유치원(동작구),사립,법인,서울특별시 동작구 사당로2다길 95,,37.4890555,126.9634623,07시00분~19시00분,0,2,1,0,0,0,42,21,0,0,0,6,0,0,6
북부교육지원청,도봉구,나래유치원(도봉구),사립,사인,서울특별시 도봉구 마들로 684-9,,37.6734363,127.0480832,07시30분~19시30분,1,1,1,0,0,14,12,22,0,0,0,4,0,0,4
북부교육지원청,노원구,서울동일초등학교병설유치원(노원구),공립,병설,서울특별시 노원구 한글비석로 566,,37.6649689,127.0547222,07시20분~19시20분,1,1,1,0,0,8,18,20,0,0,1,2,0,0,3
북부교육지원청,노원구,미성유치원(노원구),사립,사인,서울특별시 노원구 공릉로59길 28,,37.6346823,127.0695415,09시00분~19시00분,1,1,0,0,0,16,30,0,0,0,1,3,0,0,4
북부교육지원청,도봉구,지현유치원(도봉구),사립,사인,서울특별시 도봉구 도봉산3길 21,,37.6863702,127.0439883,09시00분~20시00분,1,0,0,1,0,11,0,0,22,0,0,3,0,0,3
북부교육지원청,노원구,청원유치원(노원구),사립,법인,서울특별시 노원구 한글비석로 506,,37.6660014,127.0623156,09시00분~19시00분,0,2,2,0,0,0,46,44,0,0,0,3,0,3,6
서부교육지원청,마포구,삼성그린유치원(마포구),사립,사인,서울특별시 마포구 도화4길 62,,37.5401127,126.9503477,09시00분~19시00분,2,2,2,0,0,52,53,45,0,0,0,12,0,0,12
서부교육지원청,은평구,새보람유치원(은평구),사립,사인,서울특별시 은평구 불광로 107,,37.6162728,126.9326015,07시00분~20시00분,0,0,0,1,0,0,0,0,10,0,0,2,0,0,2
성동광진교육지원청,광진구,선양유치원(광진구),사립,사인,서울특별시 광진구 동일로 256-1,,37.5541423,127.0712633,08시00분~20시00분,2,2,3,0,0,41,46,73,0,0,0,10,0,0,10
성동광진교육지원청,성동구,옥수예일유치원(성동구),사립,사인,서울특별시 성동구 독서당로 191,,37.5432656,127.0115516,09시20분~18시00분,2,2,2,0,0,48,41,43,0,0,0,12,0,0,12
성동광진교육지원청,성동구,조은유치원(성동구),사립,사인,서울특별시 성동구 살곶이길 50,,37.5694591,127.0425481,08시30분~18시00분,1,2,1,0,0,13,25,23,0,0,5,0,0,7,12
강남서초교육지원청,강남구,청운교회부설유치원(강남구),사립,사인,서울특별시 강남구 언주로65길 5,,37.4949968,127.0455623,09시00분~18시30분,1,1,3,0,0,16,14,56,0,0,0,7,0,0,7
북부교육지원청,노원구,서울상경초등학교병설유치원(노원구),공립,병설,서울특별시 노원구 수락산로 237,,37.6703503,127.0516941,07시00분~20시00분,0,0,1,2,0,0,0,14,20,0,1,2,0,0,3
남부교육지원청,영등포구,서울영림초등학교병설유치원(영등포구),공립,병설,서울특별시 영등포구 시흥대로173길 14,,37.4871601,126.9028714,07시30분~19시30분,1,1,1,0,0,6,10,21,0,0,1,2,0,1,4
강남서초교육지원청,강남구,서울개포유치원(강남구),공립,단설,서울특별시 강남구 삼성로4길 20,,37.4876225,127.0685038,07시00분~20시00분,3,3,3,0,2,38,43,42,0,8,2,8,1,2,13
강남서초교육지원청,강남구,서울대현초등학교병설유치원(강남구),공립,병설,서울특별시 강남구 역삼로98길 16,,37.5035728,127.0638597,07시30분~19시30분,0,0,1,1,1,0,0,14,5,4,1,3,0,0,4
강남서초교육지원청,서초구,서울방배초등학교병설유치원(서초구),공립,병설,서울특별시 서초구 방배중앙로13길 26,,37.4871609,126.9874672,07시00분~20시00분,1,1,1,0,0,15,20,22,0,0,1,2,0,0,3
강남서초교육지원청,강남구,성결유치원(강남구),사립,사인,서울특별시 강남구 언주로121길 5,,37.5115025,127.0352699,08시30분~18시00분,0,0,1,1,0,0,0,15,18,0,0,4,0,0,4
강남서초교육지원청,강남구,성요셉유치원(강남구),사립,법인,서울특별시 강남구 압구정로77길 28,,37.5267422,127.0482299,09시00분~18시00분,2,2,2,0,0,28,32,45,0,0,0,8,0,0,8
강남서초교육지원청,강남구,소망유치원(강남구),사립,사인,서울특별시 강남구 광평로56길 11,,37.4873122,127.1051462,09시00분~17시00분,1,0,0,1,0,7,0,0,8,0,0,0,0,0,0
강서양천교육지원청,양천구,경성유치원(양천구),사립,사인,서울특별시 양천구 목동로3길 57,,37.5109995,126.8652071,09시00분~18시00분,2,2,2,0,0,39,27,50,0,0,0,10,0,1,11
강서양천교육지원청,양천구,등촌유치원(양천구),사립,사인,서울특별시 양천구 목동중앙북로8길 46,,37.5467369,126.8650254,09시00분~18시00분,1,1,1,0,0,12,13,18,0,0,0,5,0,0,5
중부교육지원청,용산구,서울서빙고초등학교병설유치원(용산구),공립,병설,서울특별시 용산구 서빙고로51길 14,,37.5213559,126.9919285,07시30분~19시30분,1,1,1,0,1,13,13,19,0,4,1,2,1,1,5
성동광진교육지원청,성동구,서울숭신초등학교병설유치원(성동구),공립,병설,서울특별시 성동구 마장로 161,,37.5676959,127.0278038,07시30분~19시30분,1,1,1,0,1,15,20,23,0,4,0,3,1,1,5
중부교육지원청,용산구,성심유치원(용산구),사립,사인,서울특별시 용산구 보광로24길 9-4,,37.5286709,126.9996115,10시00분~19시00분,1,0,0,1,0,5,0,0,14,0,0,1,0,0,1
중부교육지원청,종로구,세검정유치원(종로구),사립,법인,서울특별시 종로구 자하문로 310,,37.6001025,126.9590474,09시00분~18시30분,1,1,1,0,0,22,20,28,0,0,0,5,0,0,5
중부교육지원청,중구,수암유치원(중구),사립,사인,서울특별시 중구 다산로 32,,37.5490132,127.0092806,07시00분~20시00분,2,3,2,0,0,32,43,25,0,0,0,10,0,0,10
중부교육지원청,종로구,혜화유치원(종로구),사립,법인,서울특별시 종로구 창경궁로 296,,37.5868605,127.0031193,08시50분~16시50분,0,0,0,5,0,0,0,0,89,0,0,8,0,0,8
성북강북교육지원청,성북구,서울숭례초등학교병설유치원(성북구),공립,병설,서울특별시 성북구 종암로5길 14,,37.5948961,127.034946,07시00분~19시00분,2,2,2,0,1,16,22,32,0,4,2,4,1,0,7
북부교육지원청,도봉구,자연아이유치원(도봉구),사립,사인,서울특별시 도봉구 도당로6길 14-11,,37.6610399,127.0358355,09시00분~17시00분,2,2,2,1,0,29,36,46,23,0,0,10,0,1,11
강동송파교육지원청,강동구,고덕한울유치원(강동구),사립,사인,서울특별시 강동구 양재대로 1706,,37.5578863,127.145974,08시00분~17시30분,0,1,2,0,0,0,23,40,0,0,0,3,0,0,3
동작관악교육지원청,관악구,영그린유치원(관악구),사립,사인,서울특별시 관악구 참숯5길 12,,37.4770635,126.9403776,08시00분~20시00분,1,1,1,0,0,12,26,23,0,0,0,5,0,0,5
강서양천교육지원청,양천구,꿈나무유치원(양천구),사립,사인,서울특별시 양천구 목동서로 280,,37.5216265,126.8676568,08시00분~18시30분,2,3,2,0,0,46,78,56,0,0,0,16,0,0,16
북부교육지원청,노원구,노원 삼육유치원(노원구),사립,법인,서울특별시 노원구 공릉로42길 13-1,,37.6244332,127.0803773,07시00분~20시00분,1,1,1,0,0,14,16,13,0,0,0,4,0,0,4
성동광진교육지원청,광진구,샬롬유치원(광진구),사립,법인,서울특별시 광진구 아차산로65길 65,,37.5424602,127.091721,09시00분~19시00분,1,1,1,0,0,3,10,21,0,0,0,4,0,0,4
성동광진교육지원청,성동구,서울사근초등학교병설유치원(성동구),공립,병설,서울특별시 성동구 사근동11길 16,,37.5628186,127.0477686,07시30분~19시30분,1,1,1,0,1,6,3,1,0,4,1,3,0,1,5
성동광진교육지원청,성동구,서울옥정초등학교병설유치원(성동구),공립,병설,서울특별시 성동구 한림말길 43,,37.5416733,127.0155528,07시30분~19시30분,1,1,1,0,0,11,14,19,0,0,1,2,0,4,7
성북강북교육지원청,성북구,천사유치원(성북구),사립,사인,서울특별시 성북구 성북로4길 52,,37.5948075,127.0103188,07시30분~19시30분,0,0,1,1,0,0,0,4,4,0,0,3,0,0,3
성동광진교육지원청,성동구,로사유치원(성동구),사립,법인,서울특별시 성동구 성덕정길 23,,37.5394749,127.0463313,09시00분~17시00분,1,1,1,0,0,17,25,23,0,0,0,6,0,0,6
강동송파교육지원청,송파구,수정유치원(송파구),사립,사인,서울특별시 송파구 위례성대로 28,,37.5162718,127.1149841,09시00분~17시00분,1,2,1,0,0,20,37,27,0,0,0,5,0,0,5
남부교육지원청,구로구,서울신미림초등학교병설유치원(구로구),공립,병설,서울특별시 구로구 신도림로 26,,37.5067008,126.8795258,07시00분~19시00분,1,1,1,0,0,16,19,24,0,0,1,2,0,0,3
동작관악교육지원청,관악구,서울삼성초등학교병설유치원(관악구),공립,병설,서울특별시 관악구 대학7길 52,,37.468071,126.9410719,07시30분~19시30분,2,2,2,0,0,13,25,22,0,0,2,4,0,0,6
강서양천교육지원청,강서구,예일유치원(강서구),사립,사인,서울특별시 강서구 강서로47길 126,,37.5536949,126.8291945,08시00분~18시30분,5,4,4,0,0,106,110,115,0,0,0,26,0,0,26
성북강북교육지원청,성북구,푸른샘유치원(성북구),사립,사인,서울특별시 성북구 길음로13길 29,,37.6083898,127.0188396,09시00분~20시00분,2,2,3,0,0,46,49,59,0,0,0,9,0,0,9
강서양천교육지원청,강서구,우현유치원(강서구),사립,사인,서울특별시 강서구 강서로 348,,37.5560685,126.8402308,07시00분~19시00분,1,1,1,0,0,8,15,20,0,0,0,4,0,0,4
남부교육지원청,금천구,서울독산초등학교병설유치원(금천구),공립,병설,서울특별시 금천구 시흥대로104길 31,,37.4652405,126.9000609,08시00분~20시00분,1,1,1,0,0,10,10,20,0,0,1,2,0,0,3
