시설명,위도,경도,시설용도분류,소재지 지번주소,자치구,법정동
서울중앙요양병원,37.5652,126.96546,FU_BD,서울특별시 서대문구 충정로2가 78,서대문구,충정로2가
제이여성병원,37.58852,126.944916,FU_BD,서울특별시 서대문구 홍제동 251-4,서대문구,홍제동
의료법인일맥의료재단 송파인애가한방병원,37.48729,127.129486,FU_BD,서울특별시 송파구 문정동 17-5,송파구,문정동
마인드웰병원,37.599556,127.09693,FU_BD,서울특별시 중랑구 망우동 489-1,중랑구,망우동
조앤조병원,37.600273,127.10471,FU_BD,서울특별시 중랑구 망우동 207-1,중랑구,망우동
토마스케네디치과의원,37.563087,126.92157,FU_BE,서울특별시 마포구 연남동 573-1,마포구,연남동
사랑의두레치과의원,37.561924,126.918755,FU_BE,서울특별시 마포구 연남동 488-11,마포구,연남동
민트병원,37.486202,127.1159,FU_BD,서울특별시 송파구 문정동 509-1,송파구,문정동
굿라이프치과병원,37.504898,127.02478,FU_BD,서울특별시 강남구 논현동 200-7,강남구,논현동
강남유나이티드병원,37.484966,127.03509,FU_BD,서울특별시 강남구 도곡동 957-14,강남구,도곡동
강남베드로병원,37.48561,127.03958,FU_BD,서울특별시 강남구 도곡동 910-27,강남구,도곡동
선한목자병원,37.501583,127.03613,FU_BD,서울특별시 강남구 역삼동 642-11,강남구,역삼동
차의과학대학교 강남차병원,37.506706,127.03454,FU_BD,서울특별시 강남구 역삼동 650-17,강남구,역삼동
비에비스나무병원,37.509563,127.03237,FU_BD,서울특별시 강남구 논현동 175-14,강남구,논현동
메드렉스병원,37.51487,127.030106,FU_BD,서울특별시 강남구 논현동 37-21,강남구,논현동
라이브치과병원,37.505596,127.03025,FU_BD,서울특별시 강남구 역삼동 604-1,강남구,역삼동
미병원,37.523483,127.03121,FU_BD,서울특별시 강남구 신사동 626-4,강남구,신사동
소우주한방병원,37.476646,127.04751,FU_BD,서울특별시 강남구 개포동 1230-12,강남구,개포동
치휴한방병원,37.492588,127.042755,FU_BD,서울특별시 강남구 도곡동 542,강남구,도곡동
다이트한방병원,37.517384,127.02174,FU_BD,서울특별시 강남구 신사동 514-16,강남구,신사동
아이디병원,37.517735,127.02409,FU_BD,서울특별시 강남구 논현동 5-6,강남구,논현동
김정수여러분병원,37.507202,127.032585,FU_BD,서울특별시 강남구 논현동 206-10,강남구,논현동
힘찬큐한방병원,37.508045,127.03537,FU_BD,서울특별시 강남구 논현동 235-11,강남구,논현동
트리니티요양병원,37.514263,127.058655,FU_BD,서울특별시 강남구 삼성동 77-23,강남구,삼성동
(의)가산의료재단 광동한방병원,37.51426,127.06213,FU_BD,서울특별시 강남구 삼성동 161,강남구,삼성동
강남위담한방병원,37.503384,127.05888,FU_BD,서울특별시 강남구 대치동 960-5,강남구,대치동
케이에스병원,37.509365,127.043945,FU_BD,서울특별시 강남구 역삼동 682-23,강남구,역삼동
두발로병원,37.52434,127.02941,FU_BD,서울특별시 강남구 신사동 602,강남구,신사동
연세대학교의과대학 강남세브란스병원,37.492706,127.04642,FU_BD,서울특별시 강남구 도곡동 146-92,강남구,도곡동
안강병원,37.497066,127.04492,FU_BD,서울특별시 강남구 역삼동 773-6,강남구,역삼동
강남지인병원,37.512844,127.035065,FU_BD,서울특별시 강남구 논현동 218-11,강남구,논현동
미니쉬치과병원,37.519855,127.03489,FU_BD,서울특별시 강남구 논현동 98-2,강남구,논현동
나누리병원,37.52033,127.034065,FU_BD,서울특별시 강남구 논현동 63-8,강남구,논현동
노블케어요양병원,37.52694,127.03398,FU_BD,서울특별시 강남구 신사동 635,강남구,신사동
호산여성병원,37.52855,127.03336,FU_BD,서울특별시 강남구 신사동 617-5,강남구,신사동
서울치과병원,37.525772,127.03235,FU_BD,서울특별시 강남구 신사동 624-13,강남구,신사동
토마스병원,37.52849,127.035225,FU_BD,서울특별시 강남구 신사동 638-8,강남구,신사동
하나이비인후과병원,37.497932,127.043,FU_BD,서울특별시 강남구 역삼동 732-19,강남구,역삼동
재단법인위담 위담한방병원,37.50137,127.054115,FU_BD,서울특별시 강남구 대치동 910-1,강남구,대치동
튼튼병원,37.521416,127.05572,FU_BD,서울특별시 강남구 청담동 71-3,강남구,청담동
이솝한방병원,37.51123,127.06529,FU_BD,서울특별시 강남구 삼성동 170,강남구,삼성동
강남초이스정형외과병원,37.50479,127.04846,FU_BD,서울특별시 강남구 역삼동 705-27,강남구,역삼동
누네안과병원,37.50452,127.050285,FU_BD,서울특별시 강남구 대치동 889-11,강남구,대치동
아림치과병원,37.508636,127.05862,FU_BD,서울특별시 강남구 삼성동 158-12,강남구,삼성동
건강한세상앞선치과병원,37.51028,127.0585,FU_BD,서울특별시 강남구 삼성동 159-9,강남구,삼성동
새로운병원,37.512253,127.024315,FU_BD,서울특별시 강남구 논현동 55-3,강남구,논현동
담소유병원,37.514835,127.03461,FU_BD,서울특별시 강남구 논현동 210,강남구,논현동
우리들병원,37.519054,127.049675,FU_BD,서울특별시 강남구 청담동 47-4,강남구,청담동
강동우리들요양병원,37.54013,127.12712,FU_BD,서울특별시 강동구 천호동 420-6,강동구,천호동
강동경희대학교치과병원,37.553543,127.15762,FU_BD,서울특별시 강동구 상일동 149,강동구,상일동
연세미래엔미소치과병원,37.55075,127.174095,FU_BD,서울특별시 강동구 상일동 501,강동구,상일동
더셀채원병원,37.527664,127.12704,FU_BD,서울특별시 강동구 성내동 548-5,강동구,성내동
의료법인일맥의료재단 강동인애가한방병원,37.52884,127.12306,FU_BD,서울특별시 강동구 성내동 551-3,강동구,성내동
성심의료재단강동성심병원,37.536125,127.13525,FU_BD,서울특별시 강동구 길동 445,강동구,길동
청병원,37.530277,127.12118,FU_BD,서울특별시 강동구 성내동 553-17,강동구,성내동
아이엠치과병원,37.54061,127.12492,FU_BD,서울특별시 강동구 천호동 425-5,강동구,천호동
강동성모요양병원,37.543526,127.1272,FU_BD,서울특별시 강동구 천호동 362-3,강동구,천호동
동부센트럴요양병원,37.551193,127.128456,FU_BD,서울특별시 강동구 암사동 501-10,강동구,암사동
한국보훈복지의료공단 중앙보훈병원,37.529617,127.14765,FU_BD,서울특별시 강동구 둔촌동 6-2,강동구,둔촌동
허리나은병원,37.537876,127.12436,FU_BD,서울특별시 강동구 성내동 62-4,강동구,성내동
남기세병원,37.5347,127.13751,FU_BD,서울특별시 강동구 길동 459-1,강동구,길동
고은빛여성병원,37.534153,127.13932,FU_BD,서울특별시 강동구 길동 426,강동구,길동
서울양병원,37.53407,127.14014,FU_BD,서울특별시 강동구 길동 424,강동구,길동
달려라병원,37.53411,127.14093,FU_BD,서울특별시 강동구 길동 318,강동구,길동
조은마디병원,37.534546,127.13334,FU_BD,서울특별시 강동구 성내동 199-5,강동구,성내동
공안과병원,37.53385,127.126076,FU_BD,서울특별시 강동구 성내동 139,강동구,성내동
신일병원,37.63479,127.02183,FU_BD,서울특별시 강북구 수유동 47-7,강북구,수유동
민병원,37.62258,127.027275,FU_BD,서울특별시 강북구 미아동 317-3,강북구,미아동
강북휴요양병원,37.623154,127.02701,FU_BD,서울특별시 강북구 미아동 317-1,강북구,미아동
경희황소한방병원,37.624947,127.02631,FU_BD,서울특별시 강북구 미아동 304-7,강북구,미아동
강북으뜸병원,37.625416,127.02617,FU_BD,서울특별시 강북구 미아동 304-3,강북구,미아동
포근한병원,37.632294,127.02414,FU_BD,서울특별시 강북구 미아동 189-6,강북구,미아동
의료법인성화의료재단  대한병원,37.63537,127.022675,FU_BD,서울특별시 강북구 수유동 45-9,강북구,수유동
경희치과병원,37.639153,127.02747,FU_BD,서울특별시 강북구 번동 418-1,강북구,번동
서울현대병원,37.64025,127.028564,FU_BD,서울특별시 강북구 번동 463-44,강북구,번동
면력한방병원,37.560127,126.8377,FU_BD,서울특별시 강서구 마곡동 795-7,강서구,마곡동
우리들병원,37.561935,126.79639,FU_BD,서울특별시 강서구 과해동 676,강서구,과해동
새빛요양병원,37.558327,126.84642,FU_BD,서울특별시 강서구 등촌동 664-11,강서구,등촌동
관악서울대학교치과병원,37.46894,126.95298,FU_BD,서울특별시 관악구 신림동 150-19,관악구,신림동
강남고려병원,37.485546,126.956764,FU_BD,서울특별시 관악구 봉천동 36-83,관악구,봉천동
의료법인다나의료재단구로다나병원,37.496918,126.85676,FU_BD,서울특별시 구로구 개봉동 353-2,구로구,개봉동
서울브이아이피(VIP)요양병원,37.49804,126.85342,FU_BD,서울특별시 구로구 개봉동 143-1,구로구,개봉동
의료법인 미소들노인전문병원,37.502937,126.841156,FU_BD,서울특별시 구로구 개봉동 43-1,구로구,개봉동
의료법인 서울효천의료재단 에이치플러스자립병원,37.50189,126.89159,FU_BD,서울특별시 구로구 구로동 44-7,구로구,구로동
예스병원,37.491764,126.883354,FU_BD,서울특별시 구로구 구로동 704-10,구로구,구로동
고려대학교의과대학부속구로병원,37.492107,126.88474,FU_BD,서울특별시 구로구 구로동 80,구로구,구로동
의료법인 어울림의료재단 정성요양병원,37.47896,126.893845,FU_BD,서울특별시 구로구 가리봉동 137-8,구로구,가리봉동
남서울요양병원,37.478905,126.894325,FU_BD,서울특별시 구로구 가리봉동 137-5,구로구,가리봉동
마루치과병원,37.50632,126.89205,FU_BD,서울특별시 구로구 구로동 26-2,구로구,구로동
의료법인 우리아이들 의료재단 우리아이들병원,37.502197,126.882484,FU_BD,서울특별시 구로구 구로동 586-5,구로구,구로동
재단법인 제중의료복지재단 제중요양병원,37.50338,126.88675,FU_BD,서울특별시 구로구 구로동 552-148,구로구,구로동
태릉마이크로병원,37.618317,127.07482,FU_BD,서울특별시 노원구 공릉동 680-11,노원구,공릉동
방병원,37.61842,127.075005,FU_BD,서울특별시 노원구 공릉동 680-10,노원구,공릉동
강북연세병원,37.619232,127.07547,FU_BD,서울특별시 노원구 공릉동 617-4,노원구,공릉동
서울미르한방병원,37.628483,127.070694,FU_BD,서울특별시 노원구 공릉동 323-2,노원구,공릉동
희망요양병원,37.658226,127.070885,FU_BD,서울특별시 노원구 상계동 387-226,노원구,상계동
더조은요양병원,37.61476,127.06368,FU_BD,서울특별시 노원구 월계동 50-1,노원구,월계동
의료법인 상원의료재단 강북힘찬병원,37.645683,127.03339,FU_BD,서울특별시 도봉구 창동 650-46,도봉구,창동
로덴성문치과병원,37.655876,127.03858,FU_BD,서울특별시 도봉구 쌍문동 657,도봉구,쌍문동
에이치큐브병원,37.658318,127.04109,FU_BD,서울특별시 도봉구 창동 731-1,도봉구,창동
정병원,37.661564,127.04185,FU_BD,서울특별시 도봉구 쌍문동 707-13,도봉구,쌍문동
성모샘병원,37.66577,127.04376,FU_BD,서울특별시 도봉구 방학동 707,도봉구,방학동
서울노보스병원,37.67215,127.04368,FU_BD,서울특별시 도봉구 도봉동 617-21,도봉구,도봉동
의성한방병원,37.66924,127.04524,FU_BD,서울특별시 도봉구 방학동 719-3,도봉구,방학동
스카이요양병원,37.662018,127.032455,FU_BD,서울특별시 도봉구 방학동 669-1,도봉구,방학동
왕십리휴요양병원,37.572056,127.03101,FU_BD,서울특별시 동대문구 용두동 129-36,동대문구,용두동
다일천사병원,37.57657,127.04771,FU_BD,서울특별시 동대문구 전농동 497-77,동대문구,전농동
효담요양병원,37.59625,126.93961,FU_BD,서울특별시 서대문구 홍은동 437-1,서대문구,홍은동
빠른병원,37.50747,127.10968,FU_BD,서울특별시 송파구 송파동 20-7,송파구,송파동
염창환병원,37.503567,127.12525,FU_BD,서울특별시 송파구 가락동 2-5,송파구,가락동
송파새희망요양병원,37.49345,127.14292,FU_BD,서울특별시 송파구 거여동 559-5,송파구,거여동
케이치과병원,37.5156,127.10534,FU_BD,서울특별시 송파구 신천동 11-7,송파구,신천동
의료법인정애의료재단서울초이스병원,37.53383,127.121185,FU_BD,서울특별시 송파구 풍납동 496-5,송파구,풍납동
선수촌병원,37.511566,127.07902,FU_BD,서울특별시 송파구 잠실동 175-6,송파구,잠실동
재단법인아산사회복지재단 서울아산병원,37.52597,127.10758,FU_BD,서울특별시 송파구 풍납동 388-1,송파구,풍납동
소람한방병원,37.511765,127.049965,FU_BD,서울특별시 강남구 삼성동 115,강남구,삼성동
오쿨리한방병원,37.507782,127.13038,FU_BD,서울특별시 송파구 오금동 24-2,송파구,오금동
새숨병원,37.485718,127.11574,FU_BD,서울특별시 송파구 문정동 511,송파구,문정동
혜민안과병원,37.49382,127.12194,FU_BD,서울특별시 송파구 가락동 112-7,송파구,가락동
로하스참사랑요양병원,37.51269,126.89338,FU_BD,서울특별시 영등포구 문래동2가 39-10,영등포구,문래동2가
의료법인 인봉의료재단 영등포병원,37.526825,126.89583,FU_BD,서울특별시 영등포구 당산동3가 386-3,영등포구,당산동3가
의료법인 춘혜의료재단 명지춘혜재활병원,37.50065,126.897064,FU_BD,서울특별시 영등포구 대림동 782-3,영등포구,대림동
명지성모병원,37.49392,126.899254,FU_BD,서울특별시 영등포구 대림동 709-1,영등포구,대림동
금강아산병원(재단법인 아산사회복지재단),37.51761,126.98195,FU_BD,서울특별시 용산구 이촌동 301-165,용산구,이촌동
서울재활병원,37.605812,126.90677,FU_BD,서울특별시 은평구 구산동 191-1,은평구,구산동
서울특별시은평병원,37.593872,126.9237,FU_BD,서울특별시 은평구 응암동 232-3,은평구,응암동
이우요양병원,37.6173,126.93213,FU_BD,서울특별시 은평구 불광동 221-57,은평구,불광동
하나효요양병원,37.611557,126.91619,FU_BD,서울특별시 은평구 구산동 2-36,은평구,구산동
최원호병원,37.604767,126.92384,FU_BD,서울특별시 은평구 녹번동 153-21,은평구,녹번동
리드힐병원,37.599796,126.91645,FU_BD,서울특별시 은평구 역촌동 44-28,은평구,역촌동
은평연세병원,37.614708,126.917435,FU_BD,서울특별시 은평구 갈현동 462-52,은평구,갈현동
로하스은평효요양병원,37.617336,126.9188,FU_BD,서울특별시 은평구 갈현동 460-8,은평구,갈현동
한국효요양병원,37.601128,126.92673,FU_BD,서울특별시 은평구 응암동 96-1,은평구,응암동
인정병원,37.586536,126.91635,FU_BD,서울특별시 은평구 응암동 603-60,은평구,응암동
시온한방병원,37.5959,126.91867,FU_BD,서울특별시 은평구 응암동 119-33,은평구,응암동
서울라본병원,37.600323,127.105095,FU_BD,서울특별시 중랑구 망우동 149-17,중랑구,망우동
서울시립대학교 대학보건소,37.583736,127.06011,FU_BG,서울특별시 동대문구 전농동 694,동대문구,전농동
서울탑병원,37.581367,127.035995,FU_BD,서울특별시 동대문구 제기동 892-64,동대문구,제기동
학교법인 고려중앙학원 고려대학교의과대학부속병원(안암병원),37.587147,127.026985,FU_BD,서울특별시 성북구 안암동5가 126-1,성북구,안암동5가
경찰병원,37.496246,127.12348,FU_BD,서울특별시 송파구 가락동 58,송파구,가락동
목동제일병원가,37.522312,126.87478,FU_BD,서울특별시 양천구 신정동 118-20,양천구,신정동
서울특별시서북병원,37.60413,126.904495,FU_BD,서울특별시 은평구 역촌동 산 31-1,은평구,역촌동
안민병원,37.588173,127.087975,FU_BD,서울특별시 중랑구 면목동 1216,중랑구,면목동
강동구 보건소,37.529232,127.125565,FU_BG,서울특별시 강동구 성내동 541-2,강동구,성내동
성북구 보건소,37.60269,127.039536,FU_BG,서울특별시 성북구 하월곡동 46-1,성북구,하월곡동
양천구 보건소,37.517635,126.8659,FU_BG,서울특별시 양천구 신정동 321-5,양천구,신정동
영등포구보건소,37.49564,126.90584,FU_BG,서울특별시 영등포구 당산동3가 385-1,영등포구,당산동3가
종로구 보건소,37.581818,126.96925,FU_BG,서울특별시 종로구 옥인동 45-30,종로구,옥인동
중구 보건소,37.56461,127.01508,FU_BG,서울특별시 중구 무학동 50-5,중구,무학동
천호보건지소,37.546352,127.13385,FU_BH,서울특별시 강동구 천호동 293-8,강동구,천호동
강동구 강일 보건지소,37.565033,127.17396,FU_BH,서울특별시 강동구 강일동 678,강동구,강일동
방화보건지소,37.579563,126.814,FU_BH,서울특별시 강서구 방화동 902,강서구,방화동
중곡보건지소,37.559326,127.08707,FU_BH,서울특별시 광진구 중곡동 125-11,광진구,중곡동
자양보건지소,37.54029,127.06507,FU_BH,서울특별시 광진구 자양동 13-28,광진구,자양동
노원구 공릉보건지소,37.624813,127.08,FU_BH,서울특별시 노원구 공릉동 221-3,노원구,공릉동
노원구 상계보건지소,37.657475,127.06784,FU_BH,서울특별시 노원구 상계동 385-1,노원구,상계동
창동보건지소,37.641422,127.0356,FU_BH,서울특별시 도봉구 창동 632-73,도봉구,창동
동작보건지소,37.49958,126.924286,FU_BH,서울특별시 동작구 대방동 403-11,동작구,대방동
마포구보건소 서강보건지소,37.54771,126.932014,FU_BH,서울특별시 마포구 창전동 242,마포구,창전동
가좌보건지소,37.574306,126.9102,FU_BH,서울특별시 서대문구 북가좌동 477,서대문구,북가좌동
서초구 방배 보건지소,37.489017,126.99228,FU_BH,서울특별시 서초구 방배동 852-14,서초구,방배동
성동구 성수 보건지소,37.54632,127.04439,FU_BH,서울특별시 성동구 성수동1가 685-580,성동구,성수동1가
정릉아동보건지소,37.60524,127.01201,FU_BH,서울특별시 성북구 정릉동 164-62,성북구,정릉동
동선보건지소,37.593594,127.015755,FU_BH,서울특별시 성북구 동소문동6가 146,성북구,동소문동6가
장위석관보건지소,37.610493,127.06339,FU_BH,서울특별시 성북구 석관동 183-15,성북구,석관동
송파구 보건지소,37.489758,127.142654,FU_BH,서울특별시 송파구 거여동 289-5,송파구,거여동
목동보건지소,37.540104,126.86698,FU_BH,서울특별시 양천구 목동 717-28,양천구,목동
중구 황학 보건지소,37.567413,127.02141,FU_BH,서울특별시 중구 황학동 1010,중구,황학동
중구 다산 보건지소,37.55426,127.008286,FU_BH,서울특별시 중구 신당동 432-40,중구,신당동
성지병원,37.476547,126.892914,FU_BD,서울특별시 금천구 가산동 151-36,금천구,가산동
서울늘열린의원,37.526356,127.135254,FU_BE,서울특별시 강동구 성내동 429,강동구,성내동
아가엄마산부인과,37.640114,127.02626,FU_BE,서울특별시 강북구 수유동 190-8,강북구,수유동
안산부인과의원,37.60429,127.024315,FU_BE,서울특별시 성북구 길음동 531-33,성북구,길음동
연세수마취통증의학과의원,37.454227,126.90122,FU_BE,서울특별시 금천구 시흥동 883-7,금천구,시흥동
연세세브란스치과의원,37.471672,126.897804,FU_BE,서울특별시 금천구 독산동 152-8,금천구,독산동
미소나눔치과의원,37.451134,126.909004,FU_BE,서울특별시 금천구 시흥동 830,금천구,시흥동
연세조은피부과의원,37.45951,126.905235,FU_BE,서울특별시 금천구 시흥동 803-3,금천구,시흥동
경희으뜸한의원,37.464478,126.90266,FU_BE,서울특별시 금천구 독산동 1043,금천구,독산동
연세가정의원,37.447655,126.90289,FU_BE,서울특별시 금천구 시흥동 985-7,금천구,시흥동
변산부인과의원,37.48135,126.9139,FU_BE,서울특별시 관악구 신림동 1474-17,관악구,신림동
보성한의원,37.469326,126.902245,FU_BE,서울특별시 금천구 독산동 195-5,금천구,독산동
문순영정형외과의원,37.466373,126.90201,FU_BE,서울특별시 금천구 독산동 1038,금천구,독산동
서울으뜸정형외과의원,37.46574,126.90231,FU_BE,서울특별시 금천구 독산동 1038-28,금천구,독산동
서울봄치과 의원,37.48416,126.972664,FU_BE,서울특별시 동작구 사당동 252-15,동작구,사당동
연세정형외과의원,37.56475,127.06654,FU_BE,서울특별시 동대문구 장안동 430-18,동대문구,장안동
혜성플러스의원,37.562622,127.06573,FU_BE,서울특별시 동대문구 장안동 433-6,동대문구,장안동
세곡보건지소,37.47149,127.0945,FU_BH,서울특별시 강남구 자곡동 628,강남구,자곡동
관악구 보건소,37.478615,126.95113,FU_BG,서울특별시 관악구 봉천동 1570-1,관악구,봉천동
엠스치과의원,37.51738,126.88914,FU_BE,서울특별시 영등포구 문래동3가 77-59,영등포구,문래동3가
연세우수의원,37.519,126.88479,FU_BE,서울특별시 영등포구 문래동6가 38-1,영등포구,문래동6가
행파한의원,37.52073,126.90291,FU_BE,서울특별시 영등포구 영등포동6가 74-2,영등포구,영등포동6가
영등포연세이편한치과의원,37.52037,126.90377,FU_BE,서울특별시 영등포구 영등포동6가 80-2,영등포구,영등포동6가
손화진치과의원,37.52005,126.903404,FU_BE,서울특별시 영등포구 영등포동4가 144-1,영등포구,영등포동4가
파티마의원,37.520008,126.90321,FU_BE,서울특별시 영등포구 영등포동4가 146-1,영등포구,영등포동4가
금강치과의원,37.51109,126.91704,FU_BE,서울특별시 영등포구 신길동 115-26,영등포구,신길동
홍재한의원,37.511692,126.91623,FU_BE,서울특별시 영등포구 신길동 156-11,영등포구,신길동
삼성미래치과의원,37.511566,126.91567,FU_BE,서울특별시 영등포구 신길동 161-3,영등포구,신길동
원일정형외과의원,37.5112,126.91394,FU_BE,서울특별시 영등포구 신길동 159-35,영등포구,신길동
진한의원,37.511093,126.91352,FU_BE,서울특별시 영등포구 신길동 196-4,영등포구,신길동
대림정형외과,37.499706,126.89807,FU_BE,서울특별시 영등포구 대림동 688-2,영등포구,대림동
연세행복한가정의학과의원,37.50232,126.8964,FU_BE,서울특별시 영등포구 대림동 783-2,영등포구,대림동
속편한내과의원,37.501488,126.90122,FU_BE,서울특별시 영등포구 대림동 673,영등포구,대림동
박원주이비인후과의원,37.506344,126.90193,FU_BE,서울특별시 영등포구 신길동 363-5,영등포구,신길동
연세푸른이비인후과의원,37.506836,126.90214,FU_BE,서울특별시 영등포구 신길동 362-21,영등포구,신길동
신길연세365의원,37.508198,126.90543,FU_BE,서울특별시 영등포구 신길동 289-6,영등포구,신길동
웃는아이소아청소년과의원,37.510117,126.90479,FU_BE,서울특별시 영등포구 영등포동 620-311,영등포구,영등포동
대우명소아청소년과의원,37.510372,126.904526,FU_BE,서울특별시 영등포구 영등포동 647-1,영등포구,영등포동
행복한치과,37.494297,127.15532,FU_BE,서울특별시 송파구 마천동 288-18,송파구,마천동
송파성민의원,37.493206,127.152534,FU_BE,서울특별시 송파구 마천동 308-35,송파구,마천동
경희나봄한의원,37.495213,127.15327,FU_BE,서울특별시 송파구 마천동 302-18,송파구,마천동
서울심치과,37.49457,127.15238,FU_BE,서울특별시 송파구 마천동 307-26,송파구,마천동
본디올동의한의원,37.49485,127.15183,FU_BE,서울특별시 송파구 마천동 307,송파구,마천동
세브란스치과의원,37.494347,127.152084,FU_BE,서울특별시 송파구 마천동 307-27,송파구,마천동
연세내과의원,37.497208,127.14878,FU_BE,서울특별시 송파구 마천동 126-5,송파구,마천동
메디파크빌딩,37.496273,127.14919,FU_BE,서울특별시 송파구 마천동 128-35,송파구,마천동
연세치과의원,37.496998,127.14967,FU_BE,서울특별시 송파구 마천동 128-61,송파구,마천동
삼성편한내과의원,37.65165,127.061745,FU_BE,서울특별시 노원구 상계동 728-5,노원구,상계동
동인당한의원,37.45272,126.90558,FU_BE,서울특별시 금천구 시흥동 838-34,금천구,시흥동
마스터연세정형외과의원,37.450886,126.90246,FU_BE,서울특별시 금천구 시흥동 903-2,금천구,시흥동
미사랑의원,37.450516,126.901764,FU_BE,서울특별시 금천구 시흥동 991-9,금천구,시흥동
서울훈치과의원,37.451405,126.90227,FU_BE,서울특별시 금천구 시흥동 890-14,금천구,시흥동
연세탑내과의원,37.453804,126.90046,FU_BE,서울특별시 금천구 시흥동 994-11,금천구,시흥동
유명한의원,37.448486,126.90253,FU_BE,서울특별시 금천구 시흥동 986,금천구,시흥동
연세이비인후과의원,37.45089,126.90871,FU_BE,서울특별시 금천구 시흥동 911,금천구,시흥동
최윤정치과의원,37.476887,126.97826,FU_BE,서울특별시 동작구 사당동 1045-17,동작구,사당동
바른윤치과의원,37.47691,126.97752,FU_BE,서울특별시 동작구 사당동 1046-13,동작구,사당동
서울이안치과의원,37.484097,126.97205,FU_BE,서울특별시 동작구 사당동 254-6,동작구,사당동
김부랑치과의원,37.479794,126.88951,FU_BE,서울특별시 구로구 가리봉동 127-14,구로구,가리봉동
구로세란의원,37.48047,126.89094,FU_BE,서울특별시 구로구 가리봉동 131-14,구로구,가리봉동
한빛내과의원,37.475636,126.892914,FU_BE,서울특별시 금천구 가산동 153-1,금천구,가산동
늘푸른한의원,37.476105,126.893,FU_BE,서울특별시 금천구 가산동 151-30,금천구,가산동
영생한의원,37.47421,126.894585,FU_BE,서울특별시 금천구 독산동 148-28,금천구,독산동
아름치과의원,37.474506,126.8938,FU_BE,서울특별시 금천구 가산동 770,금천구,가산동
성메디칼산부인과,37.45857,126.90491,FU_BE,서울특별시 금천구 시흥동 852-34,금천구,시흥동
편백한의원,37.459064,126.90492,FU_BE,서울특별시 금천구 시흥동 852-30,금천구,시흥동
서울바른마음치과의원,37.459503,126.90479,FU_BE,서울특별시 금천구 시흥동 856-24,금천구,시흥동
연세정형외과의원,37.459602,126.90476,FU_BE,서울특별시 금천구 시흥동 856-23,금천구,시흥동
김용호소아청소년과의원,37.45971,126.90479,FU_BE,서울특별시 금천구 시흥동 856-22,금천구,시흥동
동서한의원,37.45982,126.90512,FU_BE,서울특별시 금천구 시흥동 802-35,금천구,시흥동
태인한의원,37.459866,126.90476,FU_BE,서울특별시 금천구 시흥동 856-20,금천구,시흥동
임종호치과의원,37.47902,126.890434,FU_BE,서울특별시 금천구 가산동 141-14,금천구,가산동
김내과의원,37.46285,126.90426,FU_BE,서울특별시 금천구 독산동 378-470,금천구,독산동
마음누리한의원,37.462975,126.9042,FU_BE,서울특별시 금천구 독산동 378-436,금천구,독산동
최양서치과의원,37.465145,126.90218,FU_BE,서울특별시 금천구 독산동 1042,금천구,독산동
이사랑치과,37.472275,126.903,FU_BE,서울특별시 금천구 독산동 178-3,금천구,독산동
김대수치과의원,37.472233,126.90342,FU_BE,서울특별시 금천구 독산동 179-12,금천구,독산동
남문한의원,37.472557,126.90303,FU_BE,서울특별시 금천구 독산동 990-18,금천구,독산동
삼성정형외과의원,37.472637,126.90338,FU_BE,서울특별시 금천구 독산동 991-44,금천구,독산동
제일내과의원,37.46016,126.906006,FU_BE,서울특별시 금천구 시흥동 804-3,금천구,시흥동
정정형외과의원,37.460934,126.9075,FU_BE,서울특별시 금천구 시흥동 798-25,금천구,시흥동
원치과의원,37.472607,126.90182,FU_BE,서울특별시 금천구 독산동 989-11,금천구,독산동
엠제이산부인과의원,37.469925,126.89704,FU_BE,서울특별시 금천구 독산동 289-18,금천구,독산동
이영림치과의원,37.46586,126.89805,FU_BE,서울특별시 금천구 독산동 1031-9,금천구,독산동
e좋은치과의원,37.466255,126.898155,FU_BE,서울특별시 금천구 독산동 1031-1,금천구,독산동
금천대윤정형외과의원,37.467564,126.89743,FU_BE,서울특별시 금천구 독산동 292-4,금천구,독산동
늘봄치과의원,37.469933,126.89758,FU_BE,서울특별시 금천구 독산동 289-7,금천구,독산동
한일치과의원,37.469715,126.89839,FU_BE,서울특별시 금천구 독산동 286-8,금천구,독산동
예쁜브이라인의원,37.470623,126.897675,FU_BE,서울특별시 금천구 독산동 288-4,금천구,독산동
백구한의원,37.471947,126.89775,FU_BE,서울특별시 금천구 독산동 152-6,금천구,독산동
성심의원,37.472622,126.89865,FU_BE,서울특별시 금천구 독산동 159-18,금천구,독산동
치아림치과의원,37.475777,126.89335,FU_BE,서울특별시 금천구 가산동 150-2,금천구,가산동
서울정형외과의원,37.4729,126.89891,FU_BE,서울특별시 금천구 독산동 983-14,금천구,독산동
독산한의원,37.475746,126.89823,FU_BE,서울특별시 금천구 독산동 146-1,금천구,독산동
문이비인후과의원,37.475937,126.8981,FU_BE,서울특별시 금천구 독산동 145-15,금천구,독산동
김세진치과의원,37.47589,126.89896,FU_BE,서울특별시 금천구 독산동 967-9,금천구,독산동
내강한의원,37.464966,126.896935,FU_BE,서울특별시 금천구 독산동 1009-28,금천구,독산동
해솔한의원,37.472626,126.89909,FU_BE,서울특별시 금천구 독산동 159-3,금천구,독산동
삼대한의원,37.47275,126.900505,FU_BE,서울특별시 금천구 독산동 988-8,금천구,독산동
동의보감한의원,37.48333,126.93001,FU_BE,서울특별시 관악구 신림동 1641-8,관악구,신림동
신림올바른치과의원,37.482212,126.93014,FU_BE,서울특별시 관악구 신림동 1641-19,관악구,신림동
연세공감치과의원,37.482502,126.92963,FU_BE,서울특별시 관악구 신림동 1638-16,관악구,신림동
아트치과의원,37.486984,126.92934,FU_BE,서울특별시 관악구 신림동 1425-17,관악구,신림동
필치과의원,37.637238,127.06086,FU_BE,서울특별시 노원구 하계동 354,노원구,하계동
김준호소아과의원,37.63914,127.063835,FU_BE,서울특별시 노원구 중계동 505,노원구,중계동
B2108,37.537712,127.0522,FU_BE,서울특별시 성동구 성수동2가 499,성동구,성수동2가
삼성드림소아청소년과의원,37.537144,127.05511,FU_BE,서울특별시 성동구 성수동2가 561-1,성동구,성수동2가
본아한의원,37.53895,127.05541,FU_BE,서울특별시 성동구 성수동2가 331-2,성동구,성수동2가
성수메디칼,37.53901,127.05368,FU_BE,서울특별시 성동구 성수동2가 339-42,성동구,성수동2가
성수최이빈후과의원,37.537838,127.05212,FU_BE,서울특별시 성동구 성수동2가 346-2,성동구,성수동2가
고운니치과의원,37.490738,126.84085,FU_BE,서울특별시 구로구 오류동 156-100,구로구,오류동
대유한의원,37.491154,126.84188,FU_BE,서울특별시 구로구 오류동 155-11,구로구,오류동
송기산내과의원,37.491283,126.8422,FU_BE,서울특별시 구로구 오류동 155-8,구로구,오류동
연세연합의원,37.493496,126.84416,FU_BE,서울특별시 구로구 오류동 135-73,구로구,오류동
김정민한의원,37.492374,126.84388,FU_BE,서울특별시 구로구 오류동 148-2,구로구,오류동
성모나은내과의원,37.49569,126.84389,FU_BE,서울특별시 구로구 오류동 54-12,구로구,오류동
김형수의원,37.495644,126.84234,FU_BE,서울특별시 구로구 오류동 10-1,구로구,오류동
연세이비인후과의원,37.495834,126.84286,FU_BE,서울특별시 구로구 오류동 40-4,구로구,오류동
덕산이편한치과,37.49595,126.84309,FU_BE,서울특별시 구로구 오류동 40-1,구로구,오류동
김은주산부인과,37.49607,126.84341,FU_BE,서울특별시 구로구 오류동 38-21,구로구,오류동
경희가족사랑한의원,37.49617,126.8436,FU_BE,서울특별시 구로구 오류동 37-2,구로구,오류동
보스톤미치과의원,37.496384,126.843895,FU_BE,서울특별시 구로구 오류동 37-4,구로구,오류동
유일한의원,37.496525,126.844185,FU_BE,서울특별시 구로구 오류동 37-1,구로구,오류동
신한방사선과의원,37.483204,126.93,FU_BE,서울특별시 관악구 신림동 1641-9,관악구,신림동
김남규치과의원,37.496204,126.84368,FU_BE,서울특별시 구로구 오류동 37-12,구로구,오류동
대림성모병원,37.490612,126.90715,FU_BD,서울특별시 영등포구 대림동 978-13,영등포구,대림동
대명요양병원,37.53645,126.89606,FU_BD,서울특별시 영등포구 양평동4가 68-1,영등포구,양평동4가
성애의료재단 성애병원,37.512043,126.9224,FU_BD,서울특별시 영등포구 신길동 451-2,영등포구,신길동
본서부병원,37.60097,126.92259,FU_BD,서울특별시 은평구 응암동 87-7,은평구,응암동
의료법인 성누가의료재단 성누가병원,37.610523,126.93033,FU_BD,서울특별시 은평구 불광동 281-102,은평구,불광동
문치과병원,37.61612,126.92373,FU_BD,서울특별시 은평구 대조동 187-51,은평구,대조동
은평요양병원,37.626446,126.91952,FU_BD,서울특별시 은평구 갈현동 390-19,은평구,갈현동
러스크서울병원,37.60011,127.10433,FU_BD,서울특별시 중랑구 망우동 207-2,중랑구,망우동
녹색병원,37.583546,127.08621,FU_BD,서울특별시 중랑구 면목동 568-1,중랑구,면목동
석플란트치과병원,37.52094,127.03321,FU_BD,서울특별시 강남구 논현동 62-9,강남구,논현동
에스플란트치과병원,37.523052,127.04047,FU_BD,서울특별시 강남구 청담동 2-7,강남구,청담동
미림한방병원,37.51573,127.02163,FU_BD,서울특별시 강남구 논현동 2-10,강남구,논현동
리봄한방병원,37.51626,127.04006,FU_BD,서울특별시 강남구 논현동 241-16,강남구,논현동
의료법인참예원의료재단강남구립행복요양병원,37.461143,127.10336,FU_BD,서울특별시 강남구 세곡동 521,강남구,세곡동
느루요양병원,37.527874,127.12057,FU_BD,서울특별시 강동구 성내동 452,강동구,성내동
서울숲요양병원,37.55836,127.159584,FU_BD,서울특별시 강동구 고덕동 297-1,강동구,고덕동
햇빛병원,37.61573,127.03022,FU_BD,서울특별시 강북구 미아동 67-1,강북구,미아동
서울유병원,37.616035,127.02957,FU_BD,서울특별시 강북구 미아동 62-38,강북구,미아동
현인요양병원,37.638615,127.00667,FU_BD,서울특별시 강북구 수유동 521-57,강북구,수유동
국립재활원,37.638893,127.01063,FU_BD,서울특별시 강북구 수유동 520,강북구,수유동
효성요양병원,37.62202,127.020485,FU_BD,서울특별시 강북구 미아동 734-108,강북구,미아동
꿈의숲요양병원,37.620506,127.04485,FU_BD,서울특별시 강북구 번동 105-1,강북구,번동
북서울요양병원,37.638134,127.030045,FU_BD,서울특별시 강북구 번동 461-68,강북구,번동
무척바른한방병원,37.558575,126.83271,FU_BD,서울특별시 강서구 마곡동 800-5,강서구,마곡동
이화여자대학교의과대학부속서울병원,37.557346,126.83613,FU_BD,서울특별시 강서구 마곡동 808,강서구,마곡동
로고스치과병원,37.558834,126.83885,FU_BD,서울특별시 강서구 등촌동 673-1,강서구,등촌동
강서송도병원,37.55851,126.84283,FU_BD,서울특별시 강서구 등촌동 669-1,강서구,등촌동
부민병원,37.55683,126.851,FU_BD,서울특별시 강서구 등촌동 657,강서구,등촌동
경희생생한방병원,37.5593,126.84573,FU_BD,서울특별시 강서구 등촌동 700,강서구,등촌동
새미래요양병원,37.52974,126.86087,FU_BD,서울특별시 강서구 화곡동 786-6,강서구,화곡동
실로암안과병원,37.546024,126.862206,FU_BD,서울특별시 강서구 등촌동 512-5,강서구,등촌동
보금한방병원,37.558117,126.82925,FU_BD,서울특별시 강서구 마곡동 799-20,강서구,마곡동
조인트힐병원,37.473732,126.91755,FU_BD,서울특별시 관악구 신림동 726-5,관악구,신림동
강남초이스병원,37.48129,126.94961,FU_BD,서울특별시 관악구 봉천동 875-8,관악구,봉천동
더웰샘한방병원,37.47606,126.97766,FU_BD,서울특별시 관악구 남현동 1058-6,관악구,남현동
척편한병원,37.482605,126.93038,FU_BD,서울특별시 관악구 신림동 86-3,관악구,신림동
에스(S)리더치과병원,37.54038,127.070526,FU_BD,서울특별시 광진구 화양동 6-1,광진구,화양동
건국대학교병원,37.540443,127.072105,FU_BD,서울특별시 광진구 화양동 4-12,광진구,화양동
국립정신건강센터,37.565014,127.08579,FU_BD,서울특별시 광진구 중곡동 30-1,광진구,중곡동
제니스병원,37.546513,127.08645,FU_BD,서울특별시 광진구 구의동 80-25,광진구,구의동
편안한요양병원,37.531597,127.08648,FU_BD,서울특별시 광진구 자양동 685,광진구,자양동
혜민병원,37.53519,127.083466,FU_BD,서울특별시 광진구 자양동 627-3,광진구,자양동
광진예치과병원,37.55671,127.079704,FU_BD,서울특별시 광진구 능동 276-2,광진구,능동
연세무척나은병원,37.556267,127.0808,FU_BD,서울특별시 광진구 능동 222-13,광진구,능동
아름제일병원,37.505466,126.89046,FU_BD,서울특별시 구로구 구로동 25,구로구,구로동
참튼튼병원,37.482155,126.90037,FU_BD,서울특별시 구로구 구로동 1126-34,구로구,구로동
오케이요양병원,37.503803,126.86281,FU_BD,서울특별시 구로구 고척동 50-48,구로구,고척동
목동현대요양병원,37.505558,126.86043,FU_BD,서울특별시 구로구 고척동 176-3,구로구,고척동
금천수요양병원,37.48001,126.906494,FU_BD,서울특별시 금천구 독산동 899-6,금천구,독산동
경희리솜한방병원,37.45887,126.897705,FU_BD,서울특별시 금천구 시흥동 113-14,금천구,시흥동
메디아이여성병원,37.65652,127.067024,FU_BD,서울특별시 노원구 상계동 373-71,노원구,상계동
노원솔요양병원,37.659172,127.07577,FU_BD,서울특별시 노원구 중계동 160-1,노원구,중계동
선의요양병원,37.655308,127.05985,FU_BD,서울특별시 노원구 상계동 711-12,노원구,상계동
강변역지너스타워,37.535378,127.093445,FU_BE,서울특별시 광진구 구의동 546-11,광진구,구의동
희성한방병원,37.662632,127.04058,FU_BD,서울특별시 도봉구 방학동 676-21,도봉구,방학동
서울사랑요양병원,37.654327,127.01324,FU_BD,서울특별시 도봉구 쌍문동 503-8,도봉구,쌍문동
포근한맘요양병원,37.657063,127.013855,FU_BD,서울특별시 도봉구 쌍문동 508-2,도봉구,쌍문동
베이직병원,37.657425,127.014015,FU_BD,서울특별시 도봉구 쌍문동 508-1,도봉구,쌍문동
퍼스트요양병원,37.657997,127.01414,FU_BD,서울특별시 도봉구 쌍문동 509-1,도봉구,쌍문동
팔팔요양병원,37.67098,127.04344,FU_BD,서울특별시 도봉구 도봉동 620-23,도봉구,도봉동
의료법인한전의료재단 한일병원,37.646343,127.02858,FU_BD,서울특별시 도봉구 쌍문동 388-1,도봉구,쌍문동
다나병원,37.655037,127.04038,FU_BD,서울특별시 도봉구 창동 715-28,도봉구,창동
경희대학교병원,37.593647,127.05151,FU_BD,서울특별시 동대문구 회기동 1-5,동대문구,회기동
경희대학교치과병원,37.5942,127.05329,FU_BD,서울특별시 동대문구 회기동 1-5,동대문구,회기동
서울에이스요양병원,37.5737,127.037735,FU_BD,서울특별시 동대문구 용두동 36-2,동대문구,용두동
서울명병원,37.57738,127.03799,FU_BD,서울특별시 동대문구 용두동 45-1,동대문구,용두동
참튼튼병원,37.572777,127.06935,FU_BD,서울특별시 동대문구 장안동 294-11,동대문구,장안동
린여성병원,37.572235,127.06983,FU_BD,서울특별시 동대문구 장안동 370-1,동대문구,장안동
삼육치과병원,37.58749,127.06331,FU_BD,서울특별시 동대문구 휘경동 20,동대문구,휘경동
삼육서울병원,37.587955,127.06533,FU_BD,서울특별시 동대문구 휘경동 43-125,동대문구,휘경동
날개병원,37.581615,127.029465,FU_BD,서울특별시 동대문구 용두동 740-1,동대문구,용두동
서울나은병원,37.578545,127.03872,FU_BD,서울특별시 동대문구 제기동 1046-4,동대문구,제기동
서울성심병원,37.584286,127.049965,FU_BD,서울특별시 동대문구 청량리동 40-9,동대문구,청량리동
코리아병원,37.57321,127.071495,FU_BD,서울특별시 동대문구 장안동 306-4,동대문구,장안동
햇살요양병원,37.574036,127.072205,FU_BD,서울특별시 동대문구 장안동 309-1,동대문구,장안동
대한민국요양병원,37.578274,127.07251,FU_BD,서울특별시 동대문구 장안동 313-3,동대문구,장안동
엔플러스병원,37.575478,127.07261,FU_BD,서울특별시 동대문구 장안동 311-5,동대문구,장안동
엘치과병원,37.574043,127.057945,FU_BD,서울특별시 동대문구 답십리동 94-9,동대문구,답십리동
시카고치과병원,37.575047,127.023575,FU_BD,서울특별시 동대문구 신설동 117-21,동대문구,신설동
의료법인마리아의료재단마리아병원,37.574368,127.0252,FU_BD,서울특별시 동대문구 신설동 103-10,동대문구,신설동
효림요양병원,37.568645,127.050964,FU_BD,서울특별시 동대문구 답십리동 497-66,동대문구,답십리동
365매일한방병원,37.575382,127.02435,FU_BD,서울특별시 동대문구 신설동 101-5,동대문구,신설동
하늘병원,37.56527,127.05547,FU_BD,서울특별시 동대문구 답십리동 492-2,동대문구,답십리동
지혜병원,37.56164,127.06592,FU_BD,서울특별시 동대문구 장안동 464-3,동대문구,장안동
맑은수병원,37.563843,127.06547,FU_BD,서울특별시 동대문구 장안동 431-6,동대문구,장안동
신우요양병원,37.579388,127.06814,FU_BD,서울특별시 동대문구 전농동 1-64,동대문구,전농동
영동병원,37.563263,127.05855,FU_BD,서울특별시 동대문구 장안동 413-1,동대문구,장안동
멘토스병원,37.566566,127.06162,FU_BD,서울특별시 동대문구 답십리동 12-262,동대문구,답십리동
따뜻한치과병원,37.477783,126.981186,FU_BD,서울특별시 동작구 사당동 1042-12,동작구,사당동
더본병원,37.482544,126.98146,FU_BD,서울특별시 동작구 사당동 1008-17,동작구,사당동
내이처럼치과병원,37.48635,126.98023,FU_BD,서울특별시 동작구 사당동 138-3,동작구,사당동
서울특별시보라매병원,37.49389,126.92407,FU_BD,서울특별시 동작구 신대방동 425,동작구,신대방동
연세제일요양병원,37.498997,126.93367,FU_BD,서울특별시 동작구 상도동 255-4,동작구,상도동
정동병원,37.50496,126.94945,FU_BD,서울특별시 동작구 상도1동 614-1,동작구,상도1동
의료법인덕수의료재단보라매요양병원,37.498814,126.92069,FU_BD,서울특별시 동작구 대방동 417-3,동작구,대방동
기분좋은한방병원,37.497707,126.92538,FU_BD,서울특별시 동작구 신대방동 358-3,동작구,신대방동
청화병원,37.507145,126.94017,FU_BD,서울특별시 동작구 노량진동 311-8,동작구,노량진동
중앙대학교병원,37.50705,126.96086,FU_BD,서울특별시 동작구 흑석동 224-1,동작구,흑석동
연세한강병원,37.539425,126.94479,FU_BD,서울특별시 마포구 마포동 33-1,마포구,마포동
한그루치과병원,37.541935,126.949814,FU_BD,서울특별시 마포구 도화동 566,마포구,도화동
세솟는정형외과병원,37.552345,126.93703,FU_BD,서울특별시 마포구 신수동 81-101,마포구,신수동
신촌연세병원,37.552464,126.93366,FU_BD,서울특별시 마포구 신수동 66-1,마포구,신수동
마포요양병원,37.564087,126.90872,FU_BD,서울특별시 마포구 성산동 275-3,마포구,성산동
위비앙병원,37.556927,126.952446,FU_BD,서울특별시 마포구 아현동 346-5,마포구,아현동
한창한방병원,37.54853,126.923416,FU_BD,서울특별시 마포구 상수동 93-45,마포구,상수동
푸르메재단 넥슨어린이재활병원,37.584694,126.8806,FU_BD,서울특별시 마포구 상암동 1738,마포구,상암동
강북연세요양병원,37.56613,126.927574,FU_BD,서울특별시 서대문구 연희동 192-32,서대문구,연희동
의료법인제민의료재단동서한방병원,37.56463,126.93016,FU_BD,서울특별시 서대문구 연희동 194-37,서대문구,연희동
재단법인대성병원,37.588898,126.94582,FU_BD,서울특별시 서대문구 홍제동 234-2,서대문구,홍제동
활명한방병원,37.57291,126.90838,FU_BD,서울특별시 서대문구 북가좌동 150,서대문구,북가좌동
사랑요양병원,37.574173,126.90564,FU_BD,서울특별시 서대문구 북가좌동 392-23,서대문구,북가좌동
가자연세병원,37.568924,126.9166,FU_BD,서울특별시 서대문구 남가좌동 102-3,서대문구,남가좌동
의료법인 원중의료재단 우리내일병원,37.55768,126.95704,FU_BD,서울특별시 서대문구 북아현동 126-22,서대문구,북아현동
연세대학교치과대학치과병원,37.563087,126.941765,FU_BD,서울특별시 서대문구 신촌동 134,서대문구,신촌동
연세대학교의과대학세브란스병원,37.562256,126.94102,FU_BD,서울특별시 서대문구 신촌동 134,서대문구,신촌동
잎사귀치과병원,37.556572,126.93543,FU_BD,서울특별시 서대문구 창천동 62-1,서대문구,창천동
의료법인동신의료재단 동신병원,37.581314,126.9365,FU_BD,서울특별시 서대문구 홍은동 430,서대문구,홍은동
고도일병원,37.507027,127.022766,FU_BD,서울특별시 서초구 반포동 736-9,서초구,반포동
이건목원리한방병원,37.494102,126.98319,FU_BD,서울특별시 서초구 방배동 765-28,서초구,방배동
올바로병원,37.48622,127.004456,FU_BD,서울특별시 서초구 서초동 1515-4,서초구,서초동
참포도나무병원,37.47993,127.038666,FU_BD,서울특별시 서초구 양재동 20-7,서초구,양재동
의료법인 부원의료재단 서초요양병원,37.483128,127.00935,FU_BD,서울특별시 서초구 서초동 1485-17,서초구,서초동
가야치과병원,37.48928,126.992256,FU_BD,서울특별시 서초구 방배동 852-20,서초구,방배동
재단법인 동국한방병원,37.490276,126.992386,FU_BD,서울특별시 서초구 방배동 837-13,서초구,방배동
참푸른병원,37.493027,126.98994,FU_BD,서울특별시 서초구 방배동 795-22,서초구,방배동
필치과병원,37.49479,126.98888,FU_BD,서울특별시 서초구 방배동 774,서초구,방배동
의료법인 청해의료재단 제일병원,37.48783,126.99508,FU_BD,서울특별시 서초구 방배동 896-1,서초구,방배동
365엠씨(mc)병원,37.492992,127.014114,FU_BD,서울특별시 서초구 서초동 1657-1,서초구,서초동
강남요양병원,37.49939,127.01208,FU_BD,서울특별시 서초구 반포동 44-3,서초구,반포동
서울21세기병원,37.485294,127.01574,FU_BD,서울특별시 서초구 서초동 1602-8,서초구,서초동
기쁨병원,37.48279,127.01802,FU_BD,서울특별시 서초구 서초동 1426-1,서초구,서초동
장덕한방병원,37.485806,127.01626,FU_BD,서울특별시 서초구 서초동 1603-2,서초구,서초동
세바른병원,37.485954,127.01535,FU_BD,서울특별시 서초구 서초동 1600-10,서초구,서초동
의료법인 참예원의료재단 서초참요양병원,37.459766,127.02535,FU_BD,서울특별시 서초구 우면동 791,서초구,우면동
서울귀한이치과병원,37.507126,127.00984,FU_BD,서울특별시 서초구 반포동 20-45,서초구,반포동
서울특별시어린이병원,37.455486,127.06915,FU_BD,서울특별시 서초구 내곡동 375,서초구,내곡동
연세슬기병원,37.56431,127.03069,FU_BD,서울특별시 성동구 도선동 365-1,성동구,도선동
한양대학교병원,37.559635,127.04419,FU_BD,서울특별시 성동구 사근동 110,성동구,사근동
9988병원,37.558598,127.03749,FU_BD,서울특별시 성동구 행당동 130-115,성동구,행당동
재단법인베스티안재단베스티안서울병원,37.565098,127.02803,FU_BD,서울특별시 성동구 하왕십리동 1070-3,성동구,하왕십리동
시온요양병원,37.56047,127.06713,FU_BD,서울특별시 성동구 용답동 235-8,성동구,용답동
굿모닝요양병원,37.56073,127.06722,FU_BD,서울특별시 성동구 용답동 235-3,성동구,용답동
다나움요양병원,37.51245,127.119865,FU_BD,서울특별시 송파구 방이동 160,송파구,방이동
더사랑요양병원,37.500633,127.14314,FU_BD,서울특별시 송파구 마천동 26-11,송파구,마천동
송파그랜드요양병원,37.499657,127.143776,FU_BD,서울특별시 송파구 마천동 32,송파구,마천동
의료법인일맥의료재단 인애가요양병원,37.505257,127.135155,FU_BD,서울특별시 송파구 오금동 77,송파구,오금동
학교법인혜화학원 대전대학교서울한방병원,37.48548,127.115845,FU_BD,서울특별시 송파구 문정동 493,송파구,문정동
강남푸른숲한방병원,37.502617,127.08703,FU_BD,서울특별시 송파구 삼전동 33-3,송파구,삼전동
강남수병원,37.501335,127.08615,FU_BD,서울특별시 송파구 삼전동 38-5,송파구,삼전동
드림요양병원,37.496716,127.12221,FU_BD,서울특별시 송파구 가락동 57,송파구,가락동
서울석병원,37.493797,127.12397,FU_BD,서울특별시 송파구 가락동 122-6,송파구,가락동
의료법인마리아의료재단마리아병원,37.493267,127.12443,FU_BD,서울특별시 송파구 가락동 121-2,송파구,가락동
강남센트럴요양병원,37.493008,127.12455,FU_BD,서울특별시 송파구 가락동 121-4,송파구,가락동
뉴스타트병원,37.49908,127.11946,FU_BD,서울특별시 송파구 가락동 159-7,송파구,가락동
한솔병원,37.506084,127.10592,FU_BD,서울특별시 송파구 석촌동 174-13,송파구,석촌동
미래본병원,37.51533,127.09954,FU_BD,서울특별시 송파구 신천동 7-17,송파구,신천동
잠실포레메디한방병원,37.511723,127.109634,FU_BD,서울특별시 송파구 방이동 109-3,송파구,방이동
포레힐요양병원,37.50971,127.11382,FU_BD,서울특별시 송파구 방이동 114-3,송파구,방이동
서울병원,37.503918,127.12471,FU_BD,서울특별시 송파구 가락동 2,송파구,가락동
서울힐링요양병원,37.49908,127.12569,FU_BD,서울특별시 송파구 가락동 36-1,송파구,가락동
목동힘찬병원,37.52495,126.87689,FU_BD,서울특별시 양천구 목동 404-3,양천구,목동
서울특별시서남병원,37.511894,126.83316,FU_BD,서울특별시 양천구 신정동 1320-7,양천구,신정동
양천효요양병원,37.52431,126.851135,FU_BD,서울특별시 양천구 신정동 942-12,양천구,신정동
목동예치과병원,37.525692,126.859634,FU_BD,서울특별시 양천구 신정동 907-12,양천구,신정동
의료법인동신의료재단 동신병원,37.52462,126.87676,FU_BD,서울특별시 양천구 목동 404-256,양천구,목동
서울스마트요양병원,37.512753,126.8558,FU_BD,서울특별시 양천구 신정동 1268,양천구,신정동
목동제일여성병원,37.523026,126.85182,FU_BD,서울특별시 양천구 신정동 943-19,양천구,신정동
가톨릭대학교 여의도성모병원,37.518085,126.936584,FU_BD,서울특별시 영등포구 여의도동 62,영등포구,여의도동
초록나무요양병원,37.501236,126.899345,FU_BD,서울특별시 영등포구 대림동 681,영등포구,대림동
대림요양병원,37.50265,126.899765,FU_BD,서울특별시 영등포구 대림동 668-12,영등포구,대림동
서울센트럴요양병원,37.513935,126.898636,FU_BD,서울특별시 영등포구 문래동3가 54-54,영등포구,문래동3가
새롬한방병원,37.50518,126.89741,FU_BD,서울특별시 영등포구 대림동 603-26,영등포구,대림동
한림대학교 한강성심병원,37.52318,126.909706,FU_BD,서울특별시 영등포구 영등포동7가 94-200,영등포구,영등포동7가
한림대학교 강남성심병원,37.4933,126.9087,FU_BD,서울특별시 영등포구 대림동 948-1,영등포구,대림동
재단법인한국산업보건환경연구소부설 해상병원,37.50756,126.91068,FU_BD,서울특별시 영등포구 신길동 232-84,영등포구,신길동
서울은빛요양병원,37.540844,126.89497,FU_BD,서울특별시 영등포구 양평동5가 121-1,영등포구,양평동5가
서울바른병원,37.50031,126.92002,FU_BD,서울특별시 영등포구 신길동 505,영등포구,신길동
연세베스트요양병원,37.505356,126.92201,FU_BD,서울특별시 영등포구 신길동 861,영등포구,신길동
대윤한방병원,37.514435,126.91792,FU_BD,서울특별시 영등포구 신길동 103-9,영등포구,신길동
한강수병원,37.52243,126.89086,FU_BD,서울특별시 영등포구 양평동1가 28-4,영등포구,양평동1가
씨엠병원,37.518856,126.904175,FU_BD,서울특별시 영등포구 영등포동4가 90,영등포구,영등포동4가
순천향대학교 부속 서울병원,37.533707,127.0043,FU_BD,서울특별시 용산구 한남동 657-58,용산구,한남동
서울병원,37.60883,126.93073,FU_BD,서울특별시 은평구 대조동 15-123,은평구,대조동
가톨릭대학교 은평성모병원,37.633564,126.915955,FU_BD,서울특별시 은평구 진관동 55,은평구,진관동
미올한방병원,37.603477,126.935326,FU_BD,서울특별시 은평구 녹번동 19-121,은평구,녹번동
연세에덴요양병원,37.60611,126.93337,FU_BD,서울특별시 은평구 녹번동 27-6,은평구,녹번동
의료법인 청구성심병원,37.62079,126.919556,FU_BD,서울특별시 은평구 갈현동 395-1,은평구,갈현동
아미나요양병원,37.57226,126.971016,FU_BD,서울특별시 종로구 신문로2가 1-158,종로구,신문로2가
서울대학교치과병원,37.5777,126.99975,FU_BD,서울특별시 종로구 연건동 28-21,종로구,연건동
치휴한방병원,37.579174,127.00179,FU_BD,서울특별시 종로구 연건동 39,종로구,연건동
강북삼성병원,37.56829,126.96816,FU_BD,서울특별시 종로구 평동 108-1,종로구,평동
서울적십자병원,37.56711,126.966995,FU_BD,서울특별시 종로구 평동 164,종로구,평동
포레스트한방병원,37.574825,126.97294,FU_BD,서울특별시 종로구 내자동 219,종로구,내자동
세란병원,37.57518,126.95747,FU_BD,서울특별시 종로구 무악동 32-2,종로구,무악동
로이병원,37.606823,126.969215,FU_BD,서울특별시 종로구 평창동 158-1,종로구,평창동
참바로병원,37.566036,127.01665,FU_BD,서울특별시 중구 흥인동 86,중구,흥인동
서울송도병원,37.551163,127.00814,FU_BD,서울특별시 중구 신당동 366-144,중구,신당동
반도정형외과병원,37.555984,127.01011,FU_BD,서울특별시 중구 신당동 422-4,중구,신당동
인제대학교 서울백병원,37.565083,126.98885,FU_BD,서울특별시 중구 저동2가 85,중구,저동2가
라임나무치과병원,37.564003,126.98474,FU_BD,서울특별시 중구 명동1가 53-1,중구,명동1가
국립중앙의료원,37.567425,127.00601,FU_BD,서울특별시 중구 을지로6가 18-79,중구,을지로6가
더블유치과병원,37.568115,127.008484,FU_BD,서울특별시 중구 을지로6가 18-185,중구,을지로6가
광화문자생한방병원,37.563614,126.96925,FU_BD,서울특별시 중구 순화동 1-170,중구,순화동
연세스위트치과병원,37.56617,127.02191,FU_BD,서울특별시 중구 황학동 2523,중구,황학동
한누리치과병원,37.560944,126.982544,FU_BD,서울특별시 중구 충무로1가 25-5,중구,충무로1가
팔팔병원,37.59089,127.07971,FU_BD,서울특별시 중랑구 면목동 180-1,중랑구,면목동
한걸음요양병원,37.596485,127.08753,FU_BD,서울특별시 중랑구 상봉동 101,중랑구,상봉동
서울선병원,37.59863,127.09364,FU_BD,서울특별시 중랑구 상봉동 74-43,중랑구,상봉동
경동한방병원,37.598663,127.09662,FU_BD,서울특별시 중랑구 망우동 490-8,중랑구,망우동
의료법인풍산의료재단동부제일병원,37.600765,127.10927,FU_BD,서울특별시 중랑구 망우동 128-29,중랑구,망우동
연세본병원,37.57962,127.08799,FU_BD,서울특별시 중랑구 면목동 617-2,중랑구,면목동
강북21세기병원,37.594116,127.085785,FU_BD,서울특별시 중랑구 상봉동 108-2,중랑구,상봉동
늘찬병원,37.587948,127.0797,FU_BD,서울특별시 중랑구 면목동 179-24,중랑구,면목동
서울특별시서울의료원,37.61298,127.09797,FU_BD,서울특별시 중랑구 신내동 316,중랑구,신내동
서울특별시 북부병원,37.604305,127.10774,FU_BD,서울특별시 중랑구 망우동 227,중랑구,망우동
장스여성병원,37.599728,127.09758,FU_BD,서울특별시 중랑구 망우동 488-8,중랑구,망우동
크리스탈빌딩,37.48536,127.034096,FU_BE,서울특별시 강남구 도곡동 953-3,강남구,도곡동
마포구 보건소,37.566242,126.90194,FU_BG,서울특별시 마포구 성산동 370,마포구,성산동
서대문구 보건소,37.5786,126.936325,FU_BG,서울특별시 서대문구 연희동 165-2,서대문구,연희동
G밸리보건지소,37.481956,126.89228,FU_BH,서울특별시 구로구 구로동 237,구로구,구로동
구로구 오류동 보건지소,37.488808,126.83932,FU_BH,서울특별시 구로구 오류동 172-65,구로구,오류동
신월보건지소,37.531376,126.8319,FU_BH,서울특별시 양천구 신월동 131-4,양천구,신월동
응암보건지소,37.588028,126.91951,FU_BH,서울특별시 은평구 응암동 749-13,은평구,응암동
구산보건지소,37.609745,126.91278,FU_BH,서울특별시 은평구 구산동 17-33,은평구,구산동
중구 약수 보건지소,37.552475,127.00899,FU_BH,서울특별시 중구 신당동 366-15,중구,신당동
서울안심내과의원,37.543365,126.83834,FU_BE,서울특별시 강서구 화곡동 1032-18,강서구,화곡동
고려정형외과의원,37.54524,126.83662,FU_BE,서울특별시 강서구 화곡동 1024-25,강서구,화곡동
365열린내과의원,37.63755,127.07049,FU_BE,서울특별시 노원구 하계동 283,노원구,하계동
Ahn's메디컬,37.60435,127.0247,FU_BE,서울특별시 성북구 길음동 530-17,성북구,길음동
윤영수치과,37.602074,127.01934,FU_BE,서울특별시 성북구 정릉동 16-169,성북구,정릉동
열린치과의원,37.60273,127.01712,FU_BE,서울특별시 성북구 정릉동 14-25,성북구,정릉동
열린산부인과,37.602486,127.01691,FU_BE,서울특별시 성북구 정릉동 14-18,성북구,정릉동
연앤네이쳐산부인과,37.52002,127.05581,FU_BE,서울특별시 강남구 청담동 72-1,강남구,청담동
함익병피부과의원,37.496735,127.0552,FU_BE,서울특별시 강남구 대치동 1024,강남구,대치동
수치과병원,37.49155,127.116425,FU_BD,서울특별시 송파구 문정동 150-26,송파구,문정동
서울제일요양병원,37.53562,126.82484,FU_BD,서울특별시 양천구 신월동 48-14,양천구,신월동
포미즈여성병원,37.546764,126.872185,FU_BD,서울특별시 양천구 목동 513,양천구,목동
메디힐병원,37.53698,126.82799,FU_BD,서울특별시 양천구 신월동 51-9,양천구,신월동
홍익병원,37.528492,126.86366,FU_BD,서울특별시 양천구 신정동 899-1,양천구,신정동
솔빛한방병원,37.517708,126.840485,FU_BD,서울특별시 양천구 신월동 546-27,양천구,신월동
라온휴병원,37.517708,126.842,FU_BD,서울특별시 양천구 신월동 550-3,양천구,신월동
라메르산부인과,37.51191,126.9152,FU_BE,서울특별시 영등포구 신길동 160-14,영등포구,신길동
연세디자인치과의원,37.511734,126.91652,FU_BE,서울특별시 영등포구 신길동 115-14,영등포구,신길동
연세탄탄의원,37.558987,126.82391,FU_BE,서울특별시 강서구 마곡동 798-4,강서구,마곡동
강서아이엠유의원,37.55862,126.82626,FU_BE,서울특별시 강서구 마곡동 798-11,강서구,마곡동
엠밸리서울특별시치과의원,37.55853,126.82717,FU_BE,서울특별시 강서구 마곡동 799-5,강서구,마곡동
강한신림의원,37.48457,126.92938,FU_BE,서울특별시 관악구 신림동 1433-38,관악구,신림동
야호정신건강의학과의원,37.484375,126.928635,FU_BE,서울특별시 관악구 신림동 1433-48,관악구,신림동
선산부인과,37.48423,126.92754,FU_BE,서울특별시 관악구 신림동 1433-100,관악구,신림동
연세참가정의원,37.559868,126.91637,FU_BE,서울특별시 마포구 성산동 232-4,마포구,성산동
장한의원,37.56271,126.92686,FU_BE,서울특별시 마포구 연남동 226-29,마포구,연남동
연세가정의학과의원,37.562065,126.92713,FU_BE,서울특별시 마포구 연남동 227-37,마포구,연남동
프렌닥터연세내과의원,37.55867,126.92577,FU_BE,서울특별시 마포구 동교동 147-11,마포구,동교동
박규현치과의원,37.562073,126.927666,FU_BE,서울특별시 서대문구 연희동 353-89,서대문구,연희동
독산내과의원,37.479527,126.903625,FU_BE,서울특별시 금천구 독산동 951-4,금천구,독산동
연세W산부인과의원구로점,37.483547,126.90249,FU_BE,서울특별시 관악구 신림동 1655,관악구,신림동
뉴욕치과,37.48399,126.901825,FU_BE,서울특별시 구로구 구로동 1125-1,구로구,구로동
조내과의원,37.467888,126.901794,FU_BE,서울특별시 금천구 독산동 1019-25,금천구,독산동
박재영치과의원,37.468918,126.90262,FU_BE,서울특별시 금천구 독산동 192-16,금천구,독산동
유디치과의원(독산점),37.46923,126.90215,FU_BE,서울특별시 금천구 독산동 195-6,금천구,독산동
진내과의원,37.46466,126.90255,FU_BE,서울특별시 금천구 독산동 1042-9,금천구,독산동
노일산부인과의원,37.464783,126.90246,FU_BE,서울특별시 금천구 독산동 1042-8,금천구,독산동
경희한의원,37.46483,126.90288,FU_BE,서울특별시 금천구 독산동 1041-39,금천구,독산동
정정균치과의원,37.466305,126.90156,FU_BE,서울특별시 금천구 독산동 1037-3,금천구,독산동
한가람한의원,37.46736,126.9016,FU_BE,서울특별시 금천구 독산동 1023-4,금천구,독산동
청목한의원,37.468666,126.902664,FU_BE,서울특별시 금천구 독산동 1020-3,금천구,독산동
연세샘가정의원,37.48511,126.96965,FU_BE,서울특별시 동작구 사당동 246-8,동작구,사당동
예미안치과의원,37.56242,127.0645,FU_BE,서울특별시 동대문구 장안동 432-4,동대문구,장안동
하나의원,37.569096,127.06416,FU_BE,서울특별시 동대문구 장안동 188-8,동대문구,장안동
조성종외과의원,37.57047,127.064644,FU_BE,서울특별시 동대문구 답십리동 786,동대문구,답십리동
연세의원,37.516705,126.88949,FU_BE,서울특별시 영등포구 문래동4가 8-1,영등포구,문래동4가
신한한의원,37.516468,126.889984,FU_BE,서울특별시 영등포구 문래동4가 8-5,영등포구,문래동4가
진치과의원,37.514633,126.89355,FU_BE,서울특별시 영등포구 문래동2가 60-3,영등포구,문래동2가
부부치과의원,37.496937,127.149895,FU_BE,서울특별시 송파구 마천동 128-5,송파구,마천동
마천제일의원,37.497383,127.15399,FU_BE,서울특별시 송파구 마천동 203-1,송파구,마천동
서울한의원,37.664116,127.06638,FU_BE,서울특별시 노원구 상계동 456-51,노원구,상계동
이장교내과의원,37.459183,126.90489,FU_BE,서울특별시 금천구 시흥동 852-29,금천구,시흥동
정경화정신건강의학과의원,37.459282,126.905266,FU_BE,서울특별시 금천구 시흥동 803-20,금천구,시흥동
장원치과의원,37.45149,126.90743,FU_BE,서울특별시 금천구 시흥동 909-8,금천구,시흥동
방배병원,37.484398,126.995415,FU_BD,서울특별시 서초구 방배동 925-10,서초구,방배동
본치과의원,37.45116,126.90809,FU_BE,서울특별시 금천구 시흥동 909-24,금천구,시흥동
연세비뇨기과의원,37.454597,126.90094,FU_BE,서울특별시 금천구 시흥동 883,금천구,시흥동
센트럴안과의원,37.452698,126.90089,FU_BE,서울특별시 금천구 시흥동 993-4,금천구,시흥동
연세현대치과의원,37.459393,126.90486,FU_BE,서울특별시 금천구 시흥동 856-25,금천구,시흥동
연세스마일치과,37.450195,126.91315,FU_BE,서울특별시 금천구 시흥동 264-14,금천구,시흥동
소구영치과,37.450768,126.91023,FU_BE,서울특별시 금천구 시흥동 251-3,금천구,시흥동
루카이비인후과의원,37.47693,126.97738,FU_BE,서울특별시 동작구 사당동 1046-11,동작구,사당동
서울더원플러스치과의원,37.483845,126.972374,FU_BE,서울특별시 동작구 사당동 265-29,동작구,사당동
풀잎치과,37.474743,126.96706,FU_BE,서울특별시 관악구 봉천동 1644-2,관악구,봉천동
김철수가정의학의원,37.5122,126.918434,FU_BE,서울특별시 영등포구 신길동 113-17,영등포구,신길동
청조치과의원,37.511982,126.91737,FU_BE,서울특별시 영등포구 신길동 114-1,영등포구,신길동
서울제일의원,37.512638,126.92428,FU_BE,서울특별시 영등포구 신길동 1317,영등포구,신길동
신길서울좋은치과의원,37.51166,126.91725,FU_BE,서울특별시 영등포구 신길동 116-1,영등포구,신길동
보원당한의원,37.510487,126.91715,FU_BE,서울특별시 영등포구 신길동 137-3,영등포구,신길동
이치과의원,37.51348,126.92063,FU_BE,서울특별시 영등포구 신길동 97-40,영등포구,신길동
아델치과의원,37.529175,127.135765,FU_BE,서울특별시 강동구 성내동 413-9,강동구,성내동
가리봉의원,37.47954,126.890366,FU_BE,서울특별시 구로구 가리봉동 135-11,구로구,가리봉동
현대경희한의원,37.459675,126.90541,FU_BE,서울특별시 금천구 시흥동 803-2,금천구,시흥동
엘림의원,37.462387,126.908875,FU_BE,서울특별시 금천구 시흥동 794-8,금천구,시흥동
청아한의원,37.46265,126.90878,FU_BE,서울특별시 금천구 시흥동 5-13,금천구,시흥동
남문내과의원,37.47229,126.902405,FU_BE,서울특별시 금천구 독산동 165-11,금천구,독산동
경희쉼터한의원,37.47239,126.90191,FU_BE,서울특별시 금천구 독산동 165-7,금천구,독산동
잘봄한의원,37.47283,126.90123,FU_BE,서울특별시 금천구 독산동 989,금천구,독산동
영일의원,37.472507,126.902596,FU_BE,서울특별시 금천구 독산동 990-22,금천구,독산동
랑데르,37.486603,126.838264,FU_BE,서울특별시 구로구 천왕동 282-2,구로구,천왕동
강북구 보건소,37.63221,127.038826,FU_BG,서울특별시 강북구 번동 232,강북구,번동
강서구 보건소,37.549526,126.8683,FU_BG,서울특별시 강서구 염창동 275-12,강서구,염창동
도봉구 보건소,37.657978,127.038795,FU_BG,서울특별시 도봉구 쌍문동 565,도봉구,쌍문동
동작구 보건소,37.504425,126.94114,FU_BG,서울특별시 동작구 상도동 176-3,동작구,상도동
서초구 보건소,37.483593,127.03346,FU_BG,서울특별시 서초구 서초동 1376-3,서초구,서초동
해성한의원,37.552456,126.83662,FU_BE,서울특별시 강서구 내발산동 702,강서구,내발산동
마곡웰소아청소년과의원,37.558464,126.82571,FU_BE,서울특별시 강서구 마곡동 798-17,강서구,마곡동
포레스트치과의원,37.560364,126.82822,FU_BE,서울특별시 강서구 마곡동 773-1,강서구,마곡동
마곡뷰의원,37.558945,126.82949,FU_BE,서울특별시 강서구 마곡동 799-4,강서구,마곡동
백선호치과의원,37.560616,126.832726,FU_BE,서울특별시 강서구 마곡동 772-7,강서구,마곡동
마곡휴연합의원,37.56062,126.83316,FU_BE,서울특별시 강서구 마곡동 772-8,강서구,마곡동
바른메디내과의원,37.55851,126.83378,FU_BE,서울특별시 강서구 마곡동 801,강서구,마곡동
미소랑치과의원,37.55935,126.83489,FU_BE,서울특별시 강서구 마곡동 797-1,강서구,마곡동
메디Q의원,37.484226,126.92739,FU_BE,서울특별시 관악구 신림동 1433-102,관악구,신림동
연세쿄앤원이비인후과의원,37.483944,126.928955,FU_BE,서울특별시 관악구 신림동 1640-6,관악구,신림동
본아한의원,37.484707,126.93069,FU_BE,서울특별시 관악구 신림동 1422-30,관악구,신림동
이맑은치과의원,37.485157,126.92999,FU_BE,서울특별시 관악구 신림동 1421-29,관악구,신림동
연세더바른치과의원,37.489716,126.92802,FU_BE,서울특별시 관악구 봉천동 971-3,관악구,봉천동
자연과한의원,37.485767,126.929214,FU_BE,서울특별시 관악구 신림동 1432-73,관악구,신림동
광덕안정한의원,37.486187,126.92914,FU_BE,서울특별시 관악구 신림동 1432-70,관악구,신림동
위상오내과의원,37.486496,126.929474,FU_BE,서울특별시 관악구 신림동 1425-12,관악구,신림동
이편한연세치과의원,37.470562,126.89858,FU_BE,서울특별시 금천구 독산동 287-7,금천구,독산동
맑은남내과의원,37.47156,126.89878,FU_BE,서울특별시 금천구 독산동 159-23,금천구,독산동
경희맥한의원,37.50015,127.11103,FU_BE,서울특별시 송파구 석촌동 297-17,송파구,석촌동
더한별이비인후과의원,37.500427,127.1111,FU_BE,서울특별시 송파구 석촌동 296-17,송파구,석촌동
팔통한의원,37.50065,127.110886,FU_BE,서울특별시 송파구 석촌동 296-15,송파구,석촌동
연세건강증진내과의원,37.50079,127.11076,FU_BE,서울특별시 송파구 석촌동 296-14,송파구,석촌동
연산부인과의원,37.501408,127.11021,FU_BE,서울특별시 송파구 석촌동 296-10,송파구,석촌동
이원균치과의원,37.501564,127.11006,FU_BE,서울특별시 송파구 석촌동 296-9,송파구,석촌동
송파본내과의원,37.50168,127.10977,FU_BE,서울특별시 송파구 석촌동 296-8,송파구,석촌동
이튼치과의원,37.501545,127.10931,FU_BE,서울특별시 송파구 석촌동 296-4,송파구,석촌동
성현한의원,37.50128,127.10852,FU_BE,서울특별시 송파구 석촌동 296,송파구,석촌동
고이비인후과,37.501553,127.108345,FU_BE,서울특별시 송파구 석촌동 295-11,송파구,석촌동
서울특별시수내과의원,37.50208,127.109566,FU_BE,서울특별시 송파구 석촌동 295-5,송파구,석촌동
서울특별시큐재활의학과의원,37.502254,127.10943,FU_BE,서울특별시 송파구 석촌동 295-4,송파구,석촌동
연세석가정의학과의원,37.563503,126.92124,FU_BE,서울특별시 마포구 연남동 573,마포구,연남동
화한의원,37.563198,126.92089,FU_BE,서울특별시 마포구 연남동 369-6,마포구,연남동
기세호치과의원,37.56239,126.92725,FU_BE,서울특별시 마포구 연남동 226-14,마포구,연남동
기쁨내과의원,37.559223,126.9263,FU_BE,서울특별시 마포구 동교동 147-3,마포구,동교동
어린이사랑의원,37.56092,126.927246,FU_BE,서울특별시 서대문구 창천동 493,서대문구,창천동
임희철내과의원,37.47959,126.90413,FU_BE,서울특별시 금천구 독산동 950,금천구,독산동
명이비인후과 의원,37.4797,126.90448,FU_BE,서울특별시 금천구 독산동 950-2,금천구,독산동
김한욱치과의원,37.479733,126.90475,FU_BE,서울특별시 금천구 독산동 950-3,금천구,독산동
전영수내과의원,37.47984,126.90521,FU_BE,서울특별시 금천구 독산동 876-2,금천구,독산동
연세치과의원,37.47884,126.904076,FU_BE,서울특별시 금천구 독산동 960-14,금천구,독산동
수내과의원,37.480526,126.909195,FU_BE,서울특별시 금천구 독산동 901-6,금천구,독산동
혜화치과의원,37.48066,126.90968,FU_BE,서울특별시 금천구 독산동 901-9,금천구,독산동
연세비뇨기과의원,37.481197,126.91438,FU_BE,서울특별시 관악구 신림동 1474-24,관악구,신림동
조이비인후과의원,37.56316,127.066055,FU_BE,서울특별시 동대문구 장안동 433-4,동대문구,장안동
서울이앤이치과의원,37.562504,127.06569,FU_BE,서울특별시 동대문구 장안동 433-17,동대문구,장안동
서울성모의원,37.56859,127.066246,FU_BE,서울특별시 동대문구 장안동 394-11,동대문구,장안동
굿모닝내과의원,37.561577,127.06634,FU_BE,서울특별시 동대문구 장안동 464-8,동대문구,장안동
조은한의원,37.56854,127.06563,FU_BE,서울특별시 동대문구 장안동 184-22,동대문구,장안동
송파구 보건소,37.514587,127.10659,FU_BG,서울특별시 송파구 신천동 29-5,송파구,신천동
녹수한의원,37.568268,127.06588,FU_BE,서울특별시 동대문구 장안동 395-1,동대문구,장안동
청담병원,37.52067,127.04564,FU_BD,서울특별시 강남구 청담동 15-1,강남구,청담동
참요양병원,37.542816,126.839714,FU_BD,서울특별시 강서구 화곡동 1052-6,강서구,화곡동
메디움강남요양병원,37.488033,127.03284,FU_BD,서울특별시 강남구 도곡동 949,강남구,도곡동
자생한방병원,37.51005,127.022316,FU_BD,서울특별시 강남구 논현동 142-3,강남구,논현동
연치과병원,37.49423,127.06178,FU_BD,서울특별시 강남구 대치동 606-1,강남구,대치동
강남제이에스병원,37.489933,127.03374,FU_BD,서울특별시 강남구 도곡동 942-3,강남구,도곡동
서울본브릿지병원,37.49247,127.04243,FU_BD,서울특별시 강남구 도곡동 543-5,강남구,도곡동
기쁨정원치과병원,37.488018,127.101845,FU_BD,서울특별시 강남구 수서동 713,강남구,수서동
강남더드림병원,37.500996,127.050995,FU_BD,서울특별시 강남구 대치동 907-16,강남구,대치동
윤호병원,37.52886,127.034386,FU_BD,서울특별시 강남구 신사동 638-1,강남구,신사동
재단법인대한스포츠의학재단강남나무병원,37.49928,127.06767,FU_BD,서울특별시 강남구 대치동 994-5,강남구,대치동
지앤지병원,37.51626,127.05969,FU_BD,서울특별시 강남구 삼성동 90-14,강남구,삼성동
제일정형외과병원,37.5228,127.056175,FU_BD,서울특별시 강남구 청담동 131-17,강남구,청담동
광혜병원,37.508076,127.06481,FU_BD,서울특별시 강남구 대치동 995-25,강남구,대치동
강남와이케이병원,37.515526,127.03467,FU_BD,서울특별시 강남구 논현동 90-7,강남구,논현동
서울프라임한방병원,37.536377,127.13907,FU_BD,서울특별시 강동구 길동 412-10,강동구,길동
강동모커리한방병원,37.541294,127.14082,FU_BD,서울특별시 강동구 천호동 51-7,강동구,천호동
올바른서울병원,37.542114,127.14128,FU_BD,서울특별시 강동구 천호동 51-3,강동구,천호동
강동한방병원,37.544434,127.14273,FU_BD,서울특별시 강동구 길동 320-4,강동구,길동
사랑플러스병원,37.54668,127.14358,FU_BD,서울특별시 강동구 명일동 345-8,강동구,명일동
봄담한방병원,37.548042,127.14376,FU_BD,서울특별시 강동구 명일동 335-3,강동구,명일동
강동연세병원,37.546783,127.126625,FU_BD,서울특별시 강동구 천호동 315-2,강동구,천호동
강동미즈여성병원,37.5376,127.128105,FU_BD,서울특별시 강동구 천호동 452-1,강동구,천호동
리더스병원,37.53695,127.12784,FU_BD,서울특별시 강동구 성내동 13-9,강동구,성내동
강북우리들병원,37.642555,127.02267,FU_BD,서울특별시 강북구 수유동 188-1,강북구,수유동
의료법인 나누리병원,37.53739,126.83673,FU_BD,서울특별시 강서구 화곡동 377-8,강서구,화곡동
힘찬하나로한방병원,37.541935,126.839645,FU_BD,서울특별시 강서구 화곡동 1065-22,강서구,화곡동
서울원병원,37.542374,126.839264,FU_BD,서울특별시 강서구 화곡동 1051-22,강서구,화곡동
유광사여성병원,37.54365,126.83892,FU_BD,서울특별시 강서구 화곡동 1031-12,강서구,화곡동
서울큰나무병원,37.54453,126.83804,FU_BD,서울특별시 강서구 화곡동 1026-12,강서구,화곡동
미즈메디병원,37.552227,126.836006,FU_BD,서울특별시 강서구 내발산동 701-4,강서구,내발산동
서울스타병원,37.553257,126.83623,FU_BD,서울특별시 강서구 내발산동 678-7,강서구,내발산동
숨이편한병원,37.554684,126.83655,FU_BD,서울특별시 강서구 내발산동 668,강서구,내발산동
강서필병원,37.533,126.84434,FU_BD,서울특별시 강서구 화곡동 349-3,강서구,화곡동
서울대효병원,37.550983,126.83577,FU_BD,서울특별시 강서구 내발산동 701-15,강서구,내발산동
강서힘찬병원,37.5592,126.84065,FU_BD,서울특별시 강서구 등촌동 671,강서구,등촌동
강서수한방병원,37.529922,126.83884,FU_BD,서울특별시 강서구 화곡동 938-19,강서구,화곡동
에스앤유서울병원,37.559517,126.833885,FU_BD,서울특별시 강서구 마곡동 797,강서구,마곡동
강서바른세상병원,37.566116,126.811584,FU_BD,서울특별시 강서구 방화동 606-36,강서구,방화동
웰튼병원,37.567284,126.8253,FU_BD,서울특별시 강서구 마곡동 759-2,강서구,마곡동
솔병원,37.57228,126.817215,FU_BD,서울특별시 강서구 방화동 273-7,강서구,방화동
365강서수요양병원,37.57301,126.80767,FU_BD,서울특별시 강서구 방화동 495-26,강서구,방화동
서울고든병원,37.555515,126.86469,FU_BD,서울특별시 강서구 등촌동 632-6,강서구,등촌동
핑크힐병원,37.549313,126.87482,FU_BD,서울특별시 강서구 염창동 263-3,강서구,염창동
모나리자요양병원,37.549778,126.875565,FU_BD,서울특별시 강서구 염창동 252-14,강서구,염창동
방화병원,37.573177,126.81401,FU_BD,서울특별시 강서구 방화동 572-11,강서구,방화동
서울바로나치과병원,37.541645,126.841156,FU_BD,서울특별시 강서구 화곡동 1076-1,강서구,화곡동
더와이즈치과병원,37.542183,126.842155,FU_BD,서울특별시 강서구 화곡동 114-100,강서구,화곡동
치유본한방병원,37.542244,126.84239,FU_BD,서울특별시 강서구 화곡동 114-12,강서구,화곡동
강남힐병원,37.481674,126.91173,FU_BD,서울특별시 관악구 신림동 543-18,관악구,신림동
에이치플러스 양지병원,37.484207,126.93251,FU_BD,서울특별시 관악구 신림동 10-715,관악구,신림동
강남효요양병원,37.483013,126.939354,FU_BD,서울특별시 관악구 봉천동 945-2,관악구,봉천동
미래드림여성병원,37.482033,126.94865,FU_BD,서울특별시 관악구 봉천동 884-44,관악구,봉천동
사랑의병원,37.479652,126.95623,FU_BD,서울특별시 관악구 봉천동 1664-1,관악구,봉천동
장튼위튼병원,37.479836,126.95731,FU_BD,서울특별시 관악구 봉천동 1673-17,관악구,봉천동
강남수요양병원,37.485153,126.93045,FU_BD,서울특별시 관악구 신림동 1421-55,관악구,신림동
은천요양병원,37.486248,126.941086,FU_BD,서울특별시 관악구 봉천동 937-15,관악구,봉천동
바른본병원,37.553524,127.07714,FU_BD,서울특별시 광진구 군자동 27-2,광진구,군자동
동부참사랑요양병원,37.545815,127.066414,FU_BD,서울특별시 광진구 화양동 24-17,광진구,화양동
경희생생한방병원,37.539944,127.0631,FU_BD,서울특별시 광진구 자양동 25-2,광진구,자양동
서울프라임병원,37.54079,127.06368,FU_BD,서울특별시 광진구 자양동 24-9,광진구,자양동
오석한방병원,37.538227,127.08387,FU_BD,서울특별시 광진구 구의동 252-16,광진구,구의동
해달한방병원,37.494423,126.84107,FU_BD,서울특별시 구로구 오류동 44-10,구로구,오류동
삼성미래여성병원,37.49126,126.8404,FU_BD,서울특별시 구로구 오류동 159,구로구,오류동
연세사랑모아여성병원,37.50634,126.86063,FU_BD,서울특별시 구로구 고척동 191-1,구로구,고척동
아나파한방병원,37.499275,126.86362,FU_BD,서울특별시 구로구 고척동 324,구로구,고척동
구로한방병원,37.47996,126.90612,FU_BD,서울특별시 금천구 독산동 899-5,금천구,독산동
실버한방병원,37.47906,126.90417,FU_BD,서울특별시 금천구 독산동 960,금천구,독산동
성신고려요양병원,37.466724,126.89407,FU_BD,서울특별시 금천구 독산동 331-39,금천구,독산동
녹십자요양병원,37.45203,126.901985,FU_BD,서울특별시 금천구 시흥동 890-4,금천구,시흥동
서울대효병원,37.454422,126.90124,FU_BD,서울특별시 금천구 시흥동 883-5,금천구,시흥동
희명병원,37.455704,126.90063,FU_BD,서울특별시 금천구 시흥동 882-31,금천구,시흥동
서울바른세상병원,37.471172,126.8977,FU_BD,서울특별시 금천구 독산동 288-1,금천구,독산동
아카시아병원,37.46813,126.89858,FU_BD,서울특별시 금천구 독산동 1012-18,금천구,독산동
새움병원,37.473076,126.89769,FU_BD,서울특별시 금천구 독산동 150-7,금천구,독산동
샤인치과교정과 치과병원,37.65432,127.06216,FU_BD,서울특별시 노원구 상계동 724,노원구,상계동
강북예치과병원,37.655224,127.06249,FU_BD,서울특별시 노원구 상계동 606-12,노원구,상계동
인제대학교 상계백병원,37.648666,127.06298,FU_BD,서울특별시 노원구 상계동 761-1,노원구,상계동
의료법인 행복나눔의료재단 사랑요양병원,37.678436,127.0526,FU_BD,서울특별시 노원구 상계동 1142-9,노원구,상계동
노원을지대학교병원,37.63646,127.06992,FU_BD,서울특별시 노원구 하계동 280-1,노원구,하계동
가화한방병원,37.66281,127.03437,FU_BD,서울특별시 도봉구 방학동 665-6,도봉구,방학동
경희늘푸른노인전문병원,37.663208,127.02728,FU_BD,서울특별시 도봉구 방학동 442,도봉구,방학동
서울특별시 동부병원,37.575344,127.03153,FU_BD,서울특별시 동대문구 용두동 118-20,동대문구,용두동
의료법인에이치엠피의료재단녹십초요양병원,37.488373,126.906685,FU_BD,서울특별시 동작구 신대방동 686-1,동작구,신대방동
혜당한방병원,37.548077,126.916794,FU_BD,서울특별시 마포구 합정동 363-6,마포구,합정동
신촌다인치과병원,37.55514,126.93598,FU_BD,서울특별시 마포구 노고산동 57-1,마포구,노고산동
메디람한방병원,37.554375,126.919815,FU_BD,서울특별시 마포구 서교동 353-7,마포구,서교동
네모치과병원,37.5575,126.925156,FU_BD,서울특별시 마포구 동교동 166-1,마포구,동교동
에스엠씨요양병원,37.566883,126.909904,FU_BD,서울특별시 마포구 성산동 200-22,마포구,성산동
대항병원,37.475666,126.98774,FU_BD,서울특별시 서초구 방배동 481-7,서초구,방배동
학교법인가톨릭학원가톨릭대학교서울성모병원,37.50008,127.00525,FU_BD,서울특별시 서초구 반포동 505,서초구,반포동
서초프라임요양병원,37.476727,126.98391,FU_BD,서울특별시 서초구 방배동 446-3,서초구,방배동
자이비뇨의학과병원,37.502735,127.02178,FU_BD,서울특별시 서초구 서초동 1302-2,서초구,서초동
모커리한방병원,37.494816,127.01863,FU_BD,서울특별시 서초구 서초동 1677-8,서초구,서초동
길인의료재단 기린한방병원,37.51109,127.02008,FU_BD,서울특별시 서초구 잠원동 38-25,서초구,잠원동
연세사랑병원,37.47671,126.98671,FU_BD,서울특별시 서초구 방배동 478-3,서초구,방배동
학교법인대진교육재단 제인병원,37.549465,127.057014,FU_BD,서울특별시 성동구 송정동 81-14,성동구,송정동
연세바로척병원,37.54441,127.064896,FU_BD,서울특별시 성동구 성수동2가 279-44,성동구,성수동2가
서울효사랑요양병원,37.54116,127.063065,FU_BD,서울특별시 성동구 성수동2가 275-2,성동구,성수동2가
서울특별시장애인치과병원,37.56675,127.0328,FU_BD,서울특별시 성동구 홍익동 102,성동구,홍익동
서울연세병원,37.56065,127.03616,FU_BD,서울특별시 성동구 행당동 198-1,성동구,행당동
새마음요양병원,37.60139,127.02148,FU_BD,서울특별시 성북구 정릉동 16-512,성북구,정릉동
동서요양병원,37.60693,127.02891,FU_BD,서울특별시 성북구 하월곡동 88-747,성북구,하월곡동
성북우리아이들병원,37.60692,127.02931,FU_BD,서울특별시 성북구 하월곡동 88-470,성북구,하월곡동
서울척병원,37.60884,127.02925,FU_BD,서울특별시 성북구 길음동 21-72,성북구,길음동
보문효사랑요양병원,37.579746,127.022766,FU_BD,서울특별시 성북구 보문동7가 105-3,성북구,보문동7가
성북웰니스요양병원,37.58301,127.02098,FU_BD,서울특별시 성북구 보문동4가 18,성북구,보문동4가
의료법인참예원의료재단 성북참요양병원,37.597496,127.005295,FU_BD,서울특별시 성북구 정릉동 508-171,성북구,정릉동
플러스요양병원,37.60835,127.00399,FU_BD,서울특별시 성북구 정릉동 674-3,성북구,정릉동
더서울병원,37.594234,127.01652,FU_BD,서울특별시 성북구 동선동4가 53,성북구,동선동4가
의료법인 우신향병원,37.584785,127.03115,FU_BD,서울특별시 성북구 안암동5가 85-9,성북구,안암동5가
한마음한방병원,37.60144,127.03272,FU_BD,서울특별시 성북구 종암동 3-1342,성북구,종암동
사회복지법인 성가소비녀회 성가복지병원,37.606956,127.03067,FU_BD,서울특별시 성북구 하월곡동 88-522,성북구,하월곡동
성북서울요양병원,37.59312,127.035805,FU_BD,서울특별시 성북구 종암동 25-6,성북구,종암동
의료법인서광의료재단 성북중앙병원,37.59678,127.03562,FU_BD,서울특별시 성북구 종암동 10-125,성북구,종암동
의료법인유라의료재단 온누리요양병원,37.6122,127.05872,FU_BD,서울특별시 성북구 장위동 50-50,성북구,장위동
올림픽병원,37.50277,127.09801,FU_BD,서울특별시 송파구 석촌동 14-10,송파구,석촌동
강남힘찬병원,37.507633,127.10983,FU_BD,서울특별시 송파구 송파동 20-8,송파구,송파동
서재곤링커병원,37.50943,127.111984,FU_BD,서울특별시 송파구 송파동 135-3,송파구,송파동
서울연세요양병원,37.502087,127.096664,FU_BD,서울특별시 송파구 삼전동 180-8,송파구,삼전동
더바름치과병원,37.510643,127.08623,FU_BD,서울특별시 송파구 잠실동 35-2,송파구,잠실동
송파미소병원,37.493164,127.145874,FU_BD,서울특별시 송파구 거여동 37,송파구,거여동
서울세계로병원,37.486595,127.14225,FU_BD,서울특별시 송파구 거여동 604,송파구,거여동
이엔이치과병원,37.5265,126.863365,FU_BD,서울특별시 양천구 신정동 888-47,양천구,신정동
이화여자대학교의과대학부속목동병원,37.53649,126.88627,FU_BD,서울특별시 양천구 목동 911-1,양천구,목동
신세계서울병원,37.516537,126.90599,FU_BD,서울특별시 영등포구 영등포동4가 425-2,영등포구,영등포동4가
서울삼성요양병원,37.51858,126.88874,FU_BD,서울특별시 영등포구 문래동6가 2-1,영등포구,문래동6가
어울림병원,37.51337,126.921005,FU_BD,서울특별시 영등포구 신길동 65-33,영등포구,신길동
건양의료재단 김안과병원,37.51976,126.901535,FU_BD,서울특별시 영등포구 영등포동4가 123-2,영등포구,영등포동4가
마리아성모요양병원,37.527145,126.905914,FU_BD,서울특별시 영등포구 영등포동8가 50-1,영등포구,영등포동8가
닥터김앤박요양병원,37.528362,126.90534,FU_BD,서울특별시 영등포구 영등포동8가 68,영등포구,영등포동8가
새길병원,37.52168,126.9047,FU_BD,서울특별시 영등포구 영등포동6가 8-3,영등포구,영등포동6가
소화병원(의료법인 소화병원),37.55378,126.96866,FU_BD,서울특별시 용산구 서계동 224-32,용산구,서계동
서울지구병원,37.58806,126.982864,FU_BD,서울특별시 종로구 삼청동 25-1,종로구,삼청동
유치과병원,37.55929,127.01284,FU_BD,서울특별시 중구 신당동 336-3,중구,신당동
의료법인한국의료재단프라임병원,37.617233,127.07947,FU_BD,서울특별시 중랑구 묵동 158-7,중랑구,묵동
마디세상병원,37.609913,127.07822,FU_BD,서울특별시 중랑구 묵동 180-55,중랑구,묵동
디앤에프병원,37.601475,127.08148,FU_BD,서울특별시 중랑구 중화동 110-43,중랑구,중화동
BK성형외과,37.51613,127.02046,FU_BE,서울특별시 강남구 논현동 1-2,강남구,논현동
바른지성한방병원,37.525295,126.864105,FU_BD,서울특별시 양천구 신정동 994-5,양천구,신정동
목동중앙치과병원,37.521843,126.869156,FU_BD,서울특별시 양천구 신정동 318-5,양천구,신정동
목동자생한방병원,37.52359,126.87584,FU_BD,서울특별시 양천구 목동 404-156,양천구,목동
원피부과의원,37.589043,127.08718,FU_BE,서울특별시 중랑구 면목동 126-39,중랑구,면목동
강남구 보건소,37.51633,127.04214,FU_BG,서울특별시 강남구 삼성동 8,강남구,삼성동
성동구 보건소,37.56708,127.03322,FU_BG,서울특별시 성동구 홍익동 16-15,성동구,홍익동
노원구 월계보건지소,37.63144,127.06156,FU_BH,서울특별시 노원구 월계동 321-4,노원구,월계동
서초 모자 보건지소,37.49008,127.00569,FU_BH,서울특별시 서초구 서초동 1498-5,서초구,서초동
벽산한의원,37.450447,126.91005,FU_BE,서울특별시 금천구 시흥동 272-7,금천구,시흥동
삼성정형외과의원,37.521114,126.89913,FU_BE,서울특별시 영등포구 당산동1가 84,영등포구,당산동1가
박사한한의원,37.45128,126.91079,FU_BE,서울특별시 금천구 시흥동 249-3,금천구,시흥동
김승국소아과의원,37.45127,126.908745,FU_BE,서울특별시 금천구 시흥동 828-41,금천구,시흥동
자연한의원,37.451355,126.908806,FU_BE,서울특별시 금천구 시흥동 828-39,금천구,시흥동
부강한의원,37.45076,126.9087,FU_BE,서울특별시 금천구 시흥동 911-6,금천구,시흥동
금천연세마취통증의학과의원,37.451565,126.907974,FU_BE,서울특별시 금천구 시흥동 836-35,금천구,시흥동
정훈한의원,37.465225,126.903465,FU_BE,서울특별시 금천구 독산동 1041-34,금천구,독산동
홍이경산부인과의원,37.485153,126.929985,FU_BE,서울특별시 관악구 신림동 1421-29,관악구,신림동
덕수의료재단 덕수요양병원,37.520023,126.90188,FU_BD,서울특별시 영등포구 영등포동4가 153-1,영등포구,영등포동4가
신화요양병원,37.52517,126.90588,FU_BD,서울특별시 영등포구 영등포동7가 77-5,영등포구,영등포동7가
뉴서울성모요양병원,37.52605,126.90616,FU_BD,서울특별시 영등포구 영등포동8가 12-1,영등포구,영등포동8가
명가한의원,37.569023,127.06631,FU_BE,서울특별시 동대문구 장안동 166-22,동대문구,장안동
구로구 보건소,37.50008,126.88932,FU_BG,서울특별시 구로구 구로동 109-4,구로구,구로동
금천구 보건소,37.456833,126.89541,FU_BG,서울특별시 금천구 시흥동 1020,금천구,시흥동
은평구 보건소,37.602673,126.92888,FU_BG,서울특별시 은평구 녹번동 84,은평구,녹번동
관악구보건지소,37.488155,126.93248,FU_BH,서울특별시 관악구 봉천동 661,관악구,봉천동
금천구 박미보건지소,37.438725,126.904465,FU_BH,서울특별시 금천구 시흥동 961-5,금천구,시흥동
지앤미치과의원 금천점,37.450222,126.91289,FU_BE,서울특별시 금천구 시흥동 262-1,금천구,시흥동
금천연세정형외과의원,37.45041,126.91015,FU_BE,서울특별시 금천구 시흥동 272-19,금천구,시흥동
은행나무한의원,37.45085,126.90981,FU_BE,서울특별시 금천구 시흥동 830-14,금천구,시흥동
우리비뇨기과의원,37.450924,126.9095,FU_BE,서울특별시 금천구 시흥동 830-5,금천구,시흥동
아란태산부인과,37.51971,126.88975,FU_BE,서울특별시 영등포구 문래동3가 77-1,영등포구,문래동3가
메이플치과의원,37.519634,126.88907,FU_BE,서울특별시 영등포구 문래동6가 5,영등포구,문래동6가
세란의원,37.517635,126.88916,FU_BE,서울특별시 영등포구 문래동3가 77-30,영등포구,문래동3가
참튼튼병원,37.65445,127.06369,FU_BD,서울특별시 노원구 상계동 723,노원구,상계동
용산구 보건소,37.53226,126.99065,FU_BG,서울특별시 용산구 이태원동 34-87,용산구,이태원동
광진구보건소,37.538548,127.08194,FU_BG,서울특별시 광진구 자양동 777,광진구,자양동
노원구보건소,37.65458,127.05701,FU_BG,서울특별시 노원구 상계동 701-1,노원구,상계동
동대문구 보건소,37.574703,127.04021,FU_BG,서울특별시 동대문구 용두동 39-9,동대문구,용두동
중랑구 보건소,37.606884,127.09273,FU_BG,서울특별시 중랑구 신내동 662,중랑구,신내동
삼성서울병원,37.488255,127.085205,FU_BD,서울특별시 강남구 일원동 50,강남구,일원동
서울대학교병원,37.579678,126.99907,FU_BD,서울특별시 종로구 연건동 28-21,종로구,연건동
한국원자력의학원원자력병원,37.628838,127.082535,FU_BD,서울특별시 노원구 공릉동 215-4,노원구,공릉동
씨티칼리지요양병원,37.521713,127.03926,FU_BD,서울특별시 강남구 논현동 94-23,강남구,논현동
서울현대요양병원,37.542202,127.12536,FU_BD,서울특별시 강동구 천호동 357,강동구,천호동
더세인트요양병원,37.49625,126.84515,FU_BD,서울특별시 구로구 오류동 55-30,구로구,오류동
구로성심병원,37.49963,126.86638,FU_BD,서울특별시 구로구 고척동 76-189,구로구,고척동
바로선병원,37.66037,127.04215,FU_BD,서울특별시 도봉구 창동 749-10,도봉구,창동
영등포봄한방병원,37.493336,126.8981,FU_BD,서울특별시 영등포구 대림동 706-1,영등포구,대림동
21C메트로한방병원,37.60006,126.91044,FU_BD,서울특별시 은평구 신사동 8-5,은평구,신사동
연세노블병원,37.60406,126.92448,FU_BD,서울특별시 은평구 녹번동 154-19,은평구,녹번동
한마음외과의원,37.455124,126.905655,FU_BE,서울특별시 금천구 시흥동 841-6,금천구,시흥동
느루요양병원,37.520535,127.02938,FU_BD,서울특별시 강남구 신사동 587-16,강남구,신사동
네이처요양병원,37.466408,127.09974,FU_BD,서울특별시 강남구 세곡동 612,강남구,세곡동
서울숭인병원,37.574043,127.02035,FU_BD,서울특별시 종로구 숭인동 200-26,종로구,숭인동
심정신건강의학과의원,37.55997,126.83435,FU_BE,서울특별시 강서구 마곡동 797-8,강서구,마곡동
편한정형외과의원,37.501667,127.108665,FU_BE,서울특별시 송파구 석촌동 295-10,송파구,석촌동
연희연세치과의원,37.562363,126.92789,FU_BE,서울특별시 서대문구 연희동 353-100,서대문구,연희동
바르다권치과의원,37.48324,126.90508,FU_BE,서울특별시 관악구 신림동 1653-6,관악구,신림동
