자치구,주소,"사립,공립",유치원명,학급수,인원수,학급당 인원수,lat,lng,ADM_NM
종로구,서울특별시 종로구 사직로8길 9,사립,세종유치원,3,45,15,126.9700206,37.5754136,사직동
종로구,서울특별시 종로구 홍지문2길 1,사립,상명사대부속유치원,6,146,24.3,126.9564213,37.6008291,부암동
종로구,서울특별시 종로구 자하문로 310,사립,세검정유치원,3,70,23.3,126.959641,37.6002683,부암동
종로구,서울특별시 종로구 평창길 317,사립,하나유치원,6,98,16.3,126.9775207,37.6143749,평창동
용산구,서울특별시 용산구 한남대로 112,공립,서울한남초등학교병설유치원,3,34,11.3,127.0049009,37.5394027,한남동
성동구,서울특별시 성동구 무학봉15가길 4,사립,무학유치원,,,,127.0306295,37.5614677,왕십리2동
성동구,서울특별시 성동구 무학봉15길 21,공립,서울무학초등학교병설유치원,3,39,13,127.0296976,37.5632433,왕십리2동
성동구,서울특별시 성동구 마장로35나길 31,공립,서울마장초등학교병설유치원,3,33,11,127.0419125,37.56875,마장동
성동구,서울특별시 성동구 마장로42길 26,사립,세인유치원,3,36,12,127.0465128,37.5652489,마장동
성동구,서울특별시 성동구 살곶이길 50,사립,조은유치원,4,61,15.2,127.0424942,37.5699325,마장동
성동구,서울특별시 성동구 마장로29길 29,공립,서울동명초등학교병설유치원,3,22,7.3,127.0358408,37.5688524,마장동
중구,서울특별시 중구 청파로 447-1,사립,가명유치원,3,75,25,126.9669954,37.5591964,중림동
성동구,서울특별시 성동구 독서당로 218,사립,옥수삼성유치원,4,59,14.8,127.0138504,37.5425134,옥수동
성동구,서울특별시 성동구 독서당로40길 21,사립,미타유치원,5,109,21.8,127.0172154,37.5435205,옥수동
성동구,서울특별시 성동구 독서당로 191,사립,옥수예일유치원,6,132,22,127.0115,37.5432583,옥수동
성동구,서울특별시 성동구 한림말길 43,공립,서울옥정초등학교병설유치원,3,44,14.7,127.015406,37.5419058,옥수동
중구,서울특별시 중구 퇴계로50길 13,공립,서울충무초등학교병설유치원,3,23,7.7,127.0018318,37.5618861,장충동
성동구,서울특별시 성동구 살곶이길 200,사립,한양여자대학교부속유치원,5,72,14.4,127.0499022,37.5581375,사근동
성동구,서울특별시 성동구 사근동11길 16,공립,서울사근초등학교병설유치원,3,10,3.3,127.0477648,37.5629618,사근동
용산구,서울특별시 용산구 후암로34길 21-8,사립,복자유치원,4,99,24.8,126.9782292,37.552071,후암동
용산구,서울특별시 용산구 효창원로 17,사립,일민유치원,6,124,20.7,126.9504285,37.5347624,원효로2동
용산구,서울특별시 용산구 효창원로15길 15,사립,계성유치원,,,,126.9527825,37.5358602,원효로2동
용산구,서울특별시 용산구 새창로12길 11-8,사립,도원유치원,3,41,13.7,126.9578642,37.5387061,용문동
성동구,서울특별시 성동구 금호로 100,사립,경동유치원,,,,127.0267385,37.552717,금호1가동
성동구,서울특별시 성동구 독서당로 272,사립,아이들세상유치원,5,85,17,127.020388,37.546066,금호4가동
성동구,서울특별시 성동구 금호로1길 25,공립,서울옥수초등학교병설유치원,3,36,12,127.0221279,37.5460894,금호4가동
성동구,서울특별시 성동구 성수일로 34,공립,서울경동유치원,6,101,16.8,127.0503405,37.5433367,성수1가1동
성동구,서울특별시 성동구 성덕정길 23,사립,로사유치원,3,65,21.7,127.0462163,37.5395008,성수1가1동
성동구,서울특별시 성동구 뚝섬로 332,공립,서울경일초등학교병설유치원,3,31,10.3,127.0472155,37.5406565,성수1가1동
성동구,서울특별시 성동구 뚝섬로13길 22,공립,서울경수초등학교병설유치원,3,34,11.3,127.0583269,37.5403568,성수2가1동
성동구,서울특별시 성동구 동일로43길 9,공립,서울송원초등학교병설유치원,3,33,11,127.0697525,37.5539935,송정동
성동구,서울특별시 성동구 용답25길 1,공립,서울용답초등학교병설유치원,3,13,4.3,127.0534183,37.5608291,용답동
성북구,서울특별시 성북구 보국문로 143,사립,개동유치원,3,53,17.7,127.0049537,37.6157783,정릉4동
성북구,서울특별시 성북구 서경로 166,사립,한가람유치원,10,240,24,127.0102571,37.6163862,정릉4동
성북구,서울특별시 성북구 길음로9길 73,사립,선한유치원,3,68,22.7,127.0205862,37.6039839,길음1동
성북구,서울특별시 성북구 삼양로 73,사립,나래유치원,3,70,23.3,127.0226717,37.6095432,길음1동
성북구,서울특별시 성북구 길음로 142,공립,서울길음유치원,6,90,15,127.0174192,37.6137885,길음1동
성북구,서울특별시 성북구 서경로6길 13,사립,루이유치원,,,,127.0163916,37.6071847,길음1동
성북구,서울특별시 성북구 길음로15길 55,공립,서울길원초등학교병설유치원,4,57,14.2,127.0167775,37.6092706,길음1동
성북구,서울특별시 성북구 길음로13길 29,사립,푸른샘유치원,7,154,22,127.0188294,37.6083861,길음1동
성북구,서울특별시 성북구 길음로13길 29,공립,서울좋은소리유치원,4,72,18,127.0188294,37.6083861,길음1동
성북구,서울특별시 성북구 성북로6가길 28,사립,새삼선유치원,3,67,22.3,127.0058361,37.5901756,성북동
성북구,서울특별시 성북구 성북로 102-10,공립,서울성북초등학교병설유치원,,,,126.9982906,37.5939192,성북동
성북구,서울특별시 성북구 성북로 127,사립,덕수유치원,5,65,13,126.9953216,37.5940004,성북동
성북구,서울특별시 성북구 보문로29길 106,공립,서울삼선초등학교병설유치원,4,42,10.5,127.01228,37.5865829,삼선동
성북구,서울특별시 성북구 보문로34다길 2,사립,성신유치원,5,103,20.6,127.0228833,37.5915171,동선동
성북구,서울특별시 성북구 동소문로13길 38,공립,서울돈암초등학교병설유치원,3,36,12,127.0126673,37.5937156,동선동
성북구,서울특별시 성북구 아리랑로 63,공립,서울정덕초등학교병설유치원,3,47,15.7,127.0135171,37.5977986,동선동
동대문구,서울특별시 동대문구 휘경로 42,사립,규전유치원,,,,127.0643331,37.5945452,휘경1동
동대문구,서울특별시 동대문구 이문로12길 20,사립,젬마유치원,5,82,16.4,127.0594377,37.5929529,이문1동
동대문구,서울특별시 동대문구 회기로25길 67,사립,동안유치원,5,95,19,127.0568441,37.5925384,이문1동
동대문구,서울특별시 동대문구 한천로58길 47,사립,서울유치원,4,93,23.2,127.0685187,37.6003733,이문2동
동대문구,서울특별시 동대문구 신이문로 16,공립,서울이문유치원,6,98,16.3,127.0643222,37.6022309,이문2동
동대문구,서울특별시 동대문구 전농로3길 23,공립,서울답십리초등학교병설유치원,4,62,15.5,127.0554086,37.568774,답십리1동
중랑구,서울특별시 중랑구 신내로7다길 57,사립,이루니유치원,9,205,22.8,127.0917703,37.6016346,상봉1동
중랑구,서울특별시 중랑구 상봉중앙로1가길 13,사립,진달래유치원,5,85,17,127.0868718,37.5987467,상봉1동
중랑구,서울특별시 중랑구 봉화산로 90,사립,로뎅유치원,,,,127.0845548,37.6020038,중화1동
중랑구,서울특별시 중랑구 동일로 834,사립,세종유치원,3,53,17.7,127.07916,37.6049362,중화1동
중랑구,서울특별시 중랑구 동일로 752,사립,은성유치원,9,211,23.4,127.0823486,37.5972356,중화1동
중랑구,서울특별시 중랑구 동일로140길 15,사립,서안유치원,3,44,14.7,127.0799742,37.604371,중화1동
중랑구,서울특별시 중랑구 봉화산로 82,공립,서울중흥초등학교병설유치원,6,60,10,127.0840851,37.6017578,중화1동
중랑구,서울특별시 중랑구 신내로 110,사립,동성유치원,7,157,22.4,127.0961334,37.6084327,신내1동
중랑구,서울특별시 중랑구 신내역로1길 136,공립,서울새솔유치원,9,130,14.4,127.1098973,37.6175795,신내1동
성북구,서울특별시 성북구 화랑로13길 17,사립,탑주유치원,7,172,24.6,127.0414181,37.6050727,월곡2동
성북구,서울특별시 성북구 장월로1가길 9,사립,동덕여자대학교부속유치원,,,,127.0440332,37.6062576,월곡2동
광진구,서울특별시 광진구 뚝섬로41길 20,사립,대원유치원,3,43,14.3,127.0756665,37.5345769,자양3동
광진구,서울특별시 광진구 능동로4길 13,사립,인애유치원,,,,127.0683458,37.5338477,자양3동
광진구,서울특별시 광진구 뚝섬로35길 16-20,사립,한일유치원,3,78,26,127.0715274,37.5351654,자양3동
광진구,서울특별시 광진구 능동로 42,공립,서울신양초등학교병설유치원,3,46,15.3,127.0692999,37.5348621,자양3동
광진구,서울특별시 광진구 영화사로 105,사립,영화유치원,,,,127.0977311,37.5540696,구의2동
광진구,서울특별시 광진구 자양로 296,사립,슬기유치원,3,66,22,127.0925966,37.5520594,구의2동
광진구,서울특별시 광진구 영화사로 89,사립,경원유치원,3,34,11.3,127.096123,37.5548839,구의2동
강북구,서울특별시 강북구 삼양로74길 39,공립,서울수유초등학교병설유치원,3,29,9.7,127.0201234,37.6309379,수유1동
강북구,서울특별시 강북구 수유로4길 58,사립,운산유치원,,,,127.0217247,37.6320823,수유1동
강북구,서울특별시 강북구 솔샘로 159,사립,솔샘유치원,11,194,17.6,127.0109726,37.6215645,삼양동
강북구,서울특별시 강북구 삼양로49길 18,사립,예원유치원,3,42,14,127.0177412,37.6234733,삼양동
강북구,서울특별시 강북구 솔샘로 195,공립,서울미양초등학교병설유치원,5,63,12.6,127.0137039,37.6212214,삼양동
강북구,서울특별시 강북구 삼양로20길 29,공립,서울송천초등학교병설유치원,3,21,7,127.0234156,37.6158138,송천동
강북구,서울특별시 강북구 솔샘로 174,사립,하나유치원,9,109,12.1,127.0129522,37.6183158,삼각산동
강북구,서울특별시 강북구 인수봉로 297,사립,유안유치원,3,47,15.7,127.0105077,37.6452707,우이동
강북구,서울특별시 강북구 인수봉로 298,사립,인수유치원,,,,127.0109027,37.6454091,우이동
노원구,서울특별시 노원구 우이천로 102,사립,초안유치원,4,57,14.2,127.0426625,37.6315737,월계2동
노원구,서울특별시 노원구 월계로45가길 9,사립,염광유치원,,,,127.0495566,37.6284371,월계2동
노원구,서울특별시 노원구 초안산로 89,사립,하늘유치원,5,77,15.4,127.0517578,37.635223,월계2동
노원구,서울특별시 노원구 초안산로 19,사립,두솔유치원,4,86,21.5,127.0541391,37.6295928,월계2동
노원구,서울특별시 노원구 월계로45가길 94,사립,다연유치원,4,56,14,127.0517277,37.6319925,월계2동
노원구,서울특별시 노원구 월계로45가길 10,공립,서울월계초등학교병설유치원,3,13,4.3,127.0506746,37.62784,월계2동
성북구,서울특별시 성북구 정릉로 282,사립,새싹유치원,6,117,19.5,127.0145507,37.6031367,정릉1동
성북구,서울특별시 성북구 서경로2길 16,사립,해뜨는유치원,6,132,22,127.0157127,37.6048671,정릉1동
종로구,서울특별시 종로구 통일로12길 51,사립,린덴바움유치원,8,199,24.9,126.9616307,37.5747995,무악동
종로구,서울특별시 종로구 율곡로 264,사립,봄샘유치원,3,58,19.3,127.0065552,37.5734572,종로5·6가동
종로구,서울특별시 종로구 지봉로 73,공립,서울창신초등학교병설유치원,3,35,11.7,127.0145551,37.5760844,창신1동
중구,서울특별시 중구 수표로 33,사립,영락유치원,3,51,17,126.9891962,37.5631853,을지로동
은평구,서울특별시 은평구 은평터널로 65,사립,효림유치원,6,124,20.7,126.900332,37.5866386,수색동
은평구,서울특별시 은평구 수색로16길 21,공립,서울수색초등학교병설유치원,3,56,18.7,126.8956165,37.5849644,수색동
은평구,서울특별시 은평구 진관1로 77-23,공립,서울신도초등학교병설유치원,,,,126.929318,37.6329496,진관동
은평구,서울특별시 은평구 진관2로 111-16,공립,서울진관유치원,6,66,11,126.9309529,37.6347562,진관동
은평구,서울특별시 은평구 진관3로 73-11,공립,서울은빛유치원,6,101,16.8,126.9202855,37.6428287,진관동
은평구,서울특별시 은평구 진관1로 77-15,사립,하늘유치원,6,124,20.7,126.9287447,37.6322252,진관동
은평구,서울특별시 은평구 진관4로 93,사립,하나유치원,8,146,18.2,126.9298562,37.6480743,진관동
은평구,서울특별시 은평구 진관4로 31,사립,다우림명문유치원,9,143,15.9,126.9248095,37.6442852,진관동
은평구,서울특별시 은평구 진관2로 37,사립,숲유치원,10,201,20.1,126.9216291,37.6347329,진관동
은평구,서울특별시 은평구 진관4로 93,공립,서울산울림유치원,6,72,12,126.9298562,37.6480743,진관동
은평구,서울특별시 은평구 진관1로 77-15,공립,서울북한산유치원,8,77,9.6,126.9287447,37.6322252,진관동
은평구,서울특별시 은평구 연서로35길 37,공립,서울연광초등학교병설유치원,3,23,7.7,126.9244375,37.6239946,불광2동
은평구,서울특별시 은평구 연서로 347,공립,서울연신초등학교병설유치원,3,32,10.7,126.9285544,37.6266794,불광2동
은평구,서울특별시 은평구 연서로34길 22,공립,서울연천초등학교병설유치원,,,,126.9294872,37.62077,불광2동
은평구,서울특별시 은평구 가좌로5길 5,사립,충암유치원,6,158,26.3,126.9219362,37.5852566,응암3동
은평구,서울특별시 은평구 가좌로10길 10,사립,서문유치원,,,,126.9167492,37.5915721,응암3동
은평구,서울특별시 은평구 가좌로7다길 13,사립,무지개나라유치원,4,76,19,126.9181383,37.584583,응암3동
은평구,서울특별시 은평구 가좌로6길 20,공립,서울응암초등학교병설유치원,3,48,16,126.9217638,37.5884311,응암3동
서대문구,서울특별시 서대문구 통일로 165,공립,서울금화초등학교병설유치원,7,82,11.7,126.9632938,37.5682691,천연동
노원구,서울특별시 노원구 동일로207길 186,사립,학여울유치원,6,146,24.3,127.0613136,37.6362078,하계2동
노원구,서울특별시 노원구 섬밭로 190,사립,선덕유치원,3,41,13.7,127.0671274,37.6330822,하계2동
서대문구,서울특별시 서대문구 명지2길 37,사립,명지전문대학부속명지유치원,,,,126.9265951,37.583623,홍은2동
서대문구,서울특별시 서대문구 모래내로15길 61,공립,서울가재울초등학교병설유치원,4,81,20.2,126.9186332,37.5739211,남가좌1동
마포구,서울특별시 마포구 숭문6길 19,사립,정님유치원,6,148,24.7,126.9469481,37.5499681,염리동
마포구,서울특별시 마포구 대흥로24바길 27,공립,서울한서초등학교병설유치원,3,40,13.3,126.9497996,37.553628,염리동
마포구,서울특별시 마포구 성미산로 111,사립,홍익대학교사범대학부속유치원,6,145,24.2,126.9190125,37.563475,연남동
마포구,서울특별시 마포구 성미산로 110,사립,마포대진유치원,,,,126.9193146,37.5618443,연남동
마포구,서울특별시 마포구 성미산로11길 36,사립,대진유치원,,,,126.9164021,37.5621984,성산1동
마포구,서울특별시 마포구 성미산로7길 24,공립,서울성서초등학교병설유치원,4,25,6.2,126.9112531,37.5606847,성산1동
노원구,서울특별시 노원구 동일로227길 47,사립,온누리유치원,5,98,19.6,127.0543388,37.6669253,상계8동
노원구,서울특별시 노원구 동일로227길 26,사립,꿈동산유치원,10,237,23.7,127.055611,37.6683012,상계8동
노원구,서울특별시 노원구 한글비석로 566,공립,서울동일초등학교병설유치원,3,46,15.3,127.0545338,37.665314,상계8동
노원구,서울특별시 노원구 수락산로 237,공립,서울상경초등학교병설유치원,,,,127.0518274,37.6707294,상계8동
노원구,서울특별시 노원구 동일로227길 26,사립,꿈동산아이유치원,9,202,22.4,127.055611,37.6683012,상계8동
노원구,서울특별시 노원구 덕릉로122길 12-6,사립,한울유치원,3,26,8.7,127.0808135,37.6685081,상계3·4동
노원구,서울특별시 노원구 덕릉로 780,사립,동화나라유치원,4,60,15,127.0799007,37.6670475,상계3·4동
노원구,서울특별시 노원구 상계로 267,공립,서울신상계초등학교병설유치원,4,50,12.5,127.0757095,37.6681338,상계3·4동
노원구,서울특별시 노원구 덕릉로94가길 54,사립,무지개유치원,6,81,13.5,127.078726,37.6646018,상계3·4동
양천구,서울특별시 양천구 남부순환로86길 22,사립,계상유치원,8,162,20.2,126.8398459,37.5124911,신정3동
양천구,서울특별시 양천구 신정로7길 81-4,사립,신정유치원,11,222,20.2,126.8334171,37.5135695,신정3동
양천구,서울특별시 양천구 신정로 290,사립,신예유치원,4,55,13.8,126.8530425,37.5119316,신정3동
양천구,서울특별시 양천구 신정이펜2로 30,공립,서울신은초등학교병설유치원,3,24,8,126.831884,37.5140839,신정3동
양천구,서울특별시 양천구 신정로13가길 30,공립,서울장수초등학교병설유치원,6,58,9.7,126.8452707,37.5130043,신정3동
양천구,서울특별시 양천구 신정로 292,공립,서울신기초등학교병설유치원,4,53,13.2,126.8543776,37.5113258,신정3동
양천구,서울특별시 양천구 신정로7길 81-4,공립,서울신정유치원,8,110,13.8,126.8334171,37.5135695,신정3동
강남구,서울특별시 강남구 선릉로129길 31,사립,강남유치원,,,,127.0393947,37.515953,논현2동
강남구,서울특별시 강남구 언주로121길 5,사립,성결유치원,,,,127.0353768,37.5114742,논현2동
강남구,서울특별시 강남구 선릉로115길 42,공립,서울학동초등학교병설유치원,3,29,9.7,127.0396,37.512525,논현2동
강서구,서울특별시 강서구 허준로 47,사립,신세기유치원,5,99,19.8,126.8472447,37.5704364,가양1동
강서구,서울특별시 강서구 허준로 23,사립,우리곰유치원,4,70,17.5,126.8452813,37.571579,가양1동
강서구,서울특별시 강서구 양천로30길 4,사립,국제유치원,3,47,15.7,126.822944,37.570497,가양1동
강서구,서울특별시 강서구 수명로1길 76,사립,미래클유치원,6,144,24,126.8230054,37.5524092,발산1동
강서구,서울특별시 강서구 강서로45길 63,사립,홍신유치원,5,198,39.6,126.8325668,37.5481128,발산1동
강서구,서울특별시 강서구 강서로47길 126,사립,예일유치원,13,331,25.5,126.8292046,37.5537148,발산1동
강서구,서울특별시 강서구 수명로1길 76,공립,서울수명유치원,9,104,11.6,126.8230054,37.5524092,발산1동
강서구,서울특별시 강서구 마곡서로 33,공립,서울공진초등학교병설유치원,3,58,19.3,126.8226819,37.5578005,공항동
강서구,서울특별시 강서구 남부순환로11가길 89,사립,예지유치원,3,60,20,126.8132472,37.5576688,공항동
강서구,서울특별시 강서구 남부순환로7길 39,사립,밤비니유치원,,,,126.8096392,37.5589079,공항동
강서구,서울특별시 강서구 공항대로3길 18,공립,서울송정초등학교병설유치원,4,61,15.2,126.8110921,37.5627394,공항동
강서구,서울특별시 강서구 마곡서1로 68,공립,서울공항초등학교병설유치원,4,71,17.8,126.8215702,37.5632145,방화1동
강서구,서울특별시 강서구 방화대로45길 32,사립,우람유치원,8,194,24.2,126.8149102,37.5746992,방화1동
강서구,서울특별시 강서구 양천로17길 4-55,사립,방화이화유치원,4,51,12.8,126.8135425,37.5740942,방화1동
강서구,서울특별시 강서구 마곡서1로 139-13,공립,서울마곡유치원,8,157,19.6,126.8180305,37.5692704,방화1동
강서구,서울특별시 강서구 양천로 11,공립,서울개화초등학교병설유치원,,,,126.8046012,37.573967,방화1동
강서구,서울특별시 강서구 금낭화로 35,사립,서강유치원,5,102,20.4,126.8115676,37.5686447,방화2동
강서구,서울특별시 강서구 개화동로23길 100,사립,공항제일유치원,,,,126.8106868,37.5652398,방화2동
강서구,서울특별시 강서구 양천로6길 28,사립,미래유치원,4,60,15,126.8068242,37.5705336,방화2동
강서구,서울특별시 강서구 금낭화로 35,공립,서울금낭화유치원,4,56,14,126.8115676,37.5686447,방화2동
강서구,서울특별시 강서구 금낭화로 287-19,사립,한나유치원,3,49,16.3,126.8103421,37.5772536,방화3동
강서구,서울특별시 강서구 방화대로50길 22,공립,서울정곡초등학교병설유치원,3,30,10,126.8189481,37.5768869,방화3동
강서구,서울특별시 강서구 금낭화로23길 8,사립,아람유치원,4,77,19.2,126.8119701,37.5796258,방화3동
강남구,서울특별시 강남구 삼성로 151,사립,선경유치원,,,,127.06186,37.4923541,대치1동
강남구,서울특별시 강남구 도곡로78길 8,사립,묘동유치원,5,124,24.8,127.0587776,37.4974079,대치1동
구로구,서울특별시 구로구 신도림로11가길 36,사립,사랑유치원,6,156,26,126.8762039,37.5074222,신도림동
구로구,서울특별시 구로구 신도림로 87,사립,동아유치원,6,107,17.8,126.8827567,37.5111182,신도림동
구로구,서울특별시 구로구 신도림로 26,공립,서울신미림초등학교병설유치원,3,59,19.7,126.8797202,37.5067665,신도림동
구로구,서울특별시 구로구 구일로 68,공립,서울구일초등학교병설유치원,,,,126.8733087,37.493085,구로1동
구로구,서울특별시 구로구 구일로4길 46,사립,바니유치원,3,51,17,126.877219,37.4927124,구로1동
구로구,서울특별시 구로구 구일로2길 45,사립,신도유치원,3,80,26.7,126.877651,37.4890965,구로1동
구로구,서울특별시 구로구 도림로20길 57,공립,서울영서초등학교병설유치원,3,32,10.7,126.8947321,37.4883984,구로3동
구로구,서울특별시 구로구 디지털로27길 76,공립,서울구로남초등학교병설유치원,3,41,13.7,126.8905483,37.4850266,구로3동
구로구,서울특별시 구로구 디지털로27다길 15,사립,꿀벌유치원,5,85,17,126.8893316,37.4849865,구로3동
구로구,서울특별시 구로구 도림로 59,사립,새두산유치원,5,82,16.4,126.8891952,37.4893068,구로4동
구로구,서울특별시 구로구 도림로 107,사립,세희유치원,3,45,15,126.8944123,37.4923256,구로4동
구로구,서울특별시 구로구 경서로 31,공립,서울고척초등학교병설유치원,5,83,16.6,126.8569976,37.5010419,고척1동
구로구,서울특별시 구로구 중앙로 6,공립,서울고산초등학교병설유치원,3,44,14.7,126.8652414,37.4992235,고척1동
구로구,서울특별시 구로구 고척로33길 34,공립,서울세곡초등학교병설유치원,3,23,7.7,126.8491281,37.5050972,고척2동
금천구,서울특별시 금천구 독산로1길 3,사립,조형유치원,3,37,12.3,126.9035023,37.4488906,시흥1동
금천구,서울특별시 금천구 시흥대로47길 43,사립,럭키유치원,5,63,12.6,126.8989408,37.4482097,시흥1동
서대문구,서울특별시 서대문구 증가로20나길 12,사립,삼성유치원,6,153,25.5,126.9194249,37.5816069,북가좌2동
서대문구,서울특별시 서대문구 거북골로16길 36,사립,세종유치원,6,153,25.5,126.913118,37.5772835,북가좌2동
서대문구,서울특별시 서대문구 북아현로1나길 32,공립,서울북성유치원,6,93,15.5,126.9512781,37.5594915,북아현동
서대문구,서울특별시 서대문구 이화여대길 52,사립,이화여자대학교사범대학부속이화유치원,6,141,23.5,126.9472448,37.5617396,신촌동
서대문구,서울특별시 서대문구 신촌로 43,사립,신촌유치원,,,,126.9314699,37.5573852,신촌동
서대문구,서울특별시 서대문구 이화여대8길 28,사립,신현유치원,,,,126.947129,37.5586687,신촌동
금천구,서울특별시 금천구 시흥대로38길 78,공립,서울백산초등학교병설유치원,3,39,13,126.9050196,37.4467347,시흥5동
금천구,서울특별시 금천구 탑골로3길 50,사립,백상유치원,,,,126.914595,37.45381,시흥5동
양천구,서울특별시 양천구 목동중앙본로7길 13,사립,성보유치원,4,58,14.5,126.8678476,37.5396411,목4동
영등포구,서울특별시 영등포구 국회대로53길 20,공립,서울영동초등학교병설유치원,3,38,12.7,126.9076001,37.5269133,당산2동
영등포구,서울특별시 영등포구 선유동2로 40,사립,평화유치원,,,,126.8968067,37.5323826,당산2동
영등포구,서울특별시 영등포구 당산로35길 3,사립,푸른나라유치원,3,40,13.3,126.8971077,37.5287565,당산2동
영등포구,서울특별시 영등포구 선유서로 76,사립,청은유치원,,,,126.8857067,37.5225272,양평1동
영등포구,서울특별시 영등포구 양산로 61,사립,영은유치원,5,95,19,126.8900757,37.5253029,양평1동
영등포구,서울특별시 영등포구 선유로 131,공립,서울당중초등학교병설유치원,3,61,20.3,126.8899937,37.5265223,양평1동
영등포구,서울특별시 영등포구 양평로24길 9,사립,한신혜원유치원,6,104,17.3,126.8920413,37.5402076,양평2동
영등포구,서울특별시 영등포구 선유로43가길 14,공립,서울선유초등학교병설유치원,3,57,19,126.8927682,37.5329048,양평2동
영등포구,서울특별시 영등포구 대방천로 180,사립,굿프랜드유치원,8,168,21,126.9109188,37.4981477,신길6동
영등포구,서울특별시 영등포구 대방천로 206,공립,서울대길초등학교병설유치원,3,37,12.3,126.913012,37.498085,신길6동
영등포구,서울특별시 영등포구 가마산로89길 7,사립,성모유치원,5,113,22.6,126.9215852,37.5055378,신길7동
영등포구,서울특별시 영등포구 여의대방로35길 14,공립,서울대방초등학교병설유치원,,,,126.9194714,37.5024003,신길7동
마포구,서울특별시 마포구 월드컵로25길 86,공립,서울동교초등학교병설유치원,3,32,10.7,126.9024416,37.5582015,망원2동
영등포구,서울특별시 영등포구 도신로 31,사립,큰나무유치원,5,77,15.4,126.8955965,37.5054295,대림3동
영등포구,서울특별시 영등포구 도신로8길 17,사립,파란나라유치원,9,194,21.6,126.8972627,37.5032113,대림3동
영등포구,서울특별시 영등포구 가마산로 384,사립,파랑새유치원,5,79,15.8,126.9002902,37.5023883,대림3동
영등포구,서울특별시 영등포구 도림로53길 32-9,공립,서울도신초등학교병설유치원,3,28,9.3,126.9011184,37.4988263,대림3동
영등포구,서울특별시 영등포구 영등포로64길 8,사립,신라유치원,3,42,14,126.9168348,37.5142062,영등포본동
영등포구,서울특별시 영등포구 도신로29길 28,사립,성지유치원,4,91,22.8,126.9035001,37.5117857,영등포본동
영등포구,서울특별시 영등포구 영중로41길 5,사립,한영유치원,4,93,23.2,126.9048006,37.5285014,영등포동
영등포구,서울특별시 영등포구 영중로 163,사립,영중유치원,4,87,21.8,126.905232,37.5310847,영등포동
영등포구,서울특별시 영등포구 양산로 185,공립,서울영중초등학교병설유치원,4,56,14,126.9039299,37.5237979,영등포동
영등포구,서울특별시 영등포구 도림로 339,사립,성심유치원,4,97,24.2,126.9005499,37.5074495,도림동
영등포구,서울특별시 영등포구 도영로22길 22,사립,돈보스꼬유치원,8,179,22.4,126.9013952,37.5105379,도림동
영등포구,서울특별시 영등포구 경인로 756,공립,서울영등포초등학교병설유치원,3,24,8,126.8982,37.5128845,문래동
동작구,서울특별시 동작구 장승배기로20길 46-3,사립,벧엘유치원,6,133,22.2,126.9422357,37.5093499,노량진2동
동작구,서울특별시 동작구 상도로50길 36-1,사립,샛별유치원,8,167,20.9,126.9502901,37.4980307,상도1동
동작구,서울특별시 동작구 상도로 407-5,사립,무지개유치원,4,43,10.8,126.9569997,37.4934323,상도1동
동작구,서울특별시 동작구 상도로47길 53,사립,상도유치원,,,,126.951985,37.5015785,상도1동
동작구,서울특별시 동작구 상도로41가길 13,사립,강남유치원,3,69,23,126.94964,37.5034618,상도1동
동작구,서울특별시 동작구 강남초등길 15,공립,서울강남초등학교병설유치원,3,40,13.3,126.9527103,37.5062787,상도1동
동작구,서울특별시 동작구 장승배기로5길 16,사립,성모유치원,4,51,12.8,126.9399683,37.5015922,상도2동
동작구,서울특별시 동작구 성대로6가길 29,사립,은혜유치원,3,0,0,126.933211,37.4978001,상도3동
동작구,서울특별시 동작구 양녕로23길 25,사립,행복유치원,7,151,21.6,126.9411053,37.4956836,상도4동
동작구,서울특별시 동작구 양녕로26길 15,사립,상아유치원,,,,126.9446364,37.4975838,상도4동
동작구,서울특별시 동작구 성대로21길 15,사립,승혜유치원,5,110,22,126.9370816,37.4986876,상도4동
동작구,서울특별시 동작구 여의대방로24나길 6,사립,사랑유치원,,,,126.9211927,37.4984103,대방동
동작구,서울특별시 동작구 여의대방로44길 49,사립,열림유치원,8,182,22.8,126.9292434,37.5089696,대방동
동작구,서울특별시 동작구 서달로 115,공립,서울은로초등학교병설유치원,4,80,20,126.9599576,37.5032908,흑석동
동작구,서울특별시 동작구 현충로 151,사립,예림유치원,,,,126.9707,37.5066333,흑석동
동작구,서울특별시 동작구 현충로 119,사립,소망유치원,3,60,20,126.9672021,37.5077817,흑석동
동작구,서울특별시 동작구 흑석로 47,사립,중앙대부속유치원,6,141,23.5,126.9556061,37.5064753,흑석동
동작구,서울특별시 동작구 흑석로13길 3,사립,명수유치원,4,93,23.2,126.9604604,37.5087341,흑석동
동작구,서울특별시 동작구 서달로 115,공립,서울은로유치원,7,105,15,126.9599576,37.5032908,흑석동
동작구,서울특별시 동작구 만양로3길 48,공립,서울상도유치원,6,91,15.2,126.9433461,37.5082524,노량진1동
동작구,서울특별시 동작구 만양로3길 48,사립,동아유치원,,,,126.9433461,37.5082524,노량진1동
동작구,서울특별시 동작구 노량진로30길 9,사립,노량진교회유치원,3,61,20.3,126.9557513,37.5121633,노량진1동
동작구,서울특별시 동작구 만양로 26,사립,행복한숲유치원,6,117,19.5,126.9499848,37.5077626,노량진1동
동작구,서울특별시 동작구 장승배기로 160,공립,서울노량진초등학교병설유치원,,,,126.9407391,37.5117336,노량진1동
동작구,서울특별시 동작구 만양로8길 50,사립,시현유치원,6,117,19.5,126.9478071,37.5097446,노량진1동
동작구,서울특별시 동작구 노량진로26길 16-40,공립,서울본동초등학교병설유치원,,,,126.9535754,37.5100424,노량진1동
동작구,서울특별시 동작구 동작대로41길 7,사립,하랑숲유치원,10,187,18.7,126.98185,37.4960399,사당2동
동작구,서울특별시 동작구 동작대로27길 62,사립,모아유치원,3,75,25,126.9790288,37.4883504,사당2동
관악구,서울특별시 관악구 보라매로2길 23,공립,서울당곡초등학교병설유치원,3,41,13.7,126.9296408,37.4902678,보라매동
강서구,서울특별시 강서구 공항대로39길 100,사립,보라유치원,5,84,16.8,126.8468475,37.5628731,등촌3동
강서구,서울특별시 강서구 화곡로63가길 63,사립,등현유치원,7,158,22.6,126.8485256,37.5614671,등촌3동
강서구,서울특별시 강서구 화곡로63가길 26,사립,등촌이화유치원,,,,126.8479511,37.5597428,등촌3동
강서구,서울특별시 강서구 강서로62길 40,사립,행복한유치원,4,56,14,126.8419866,37.5626072,등촌3동
강서구,서울특별시 강서구 강서로56나길 34,공립,서울등명초등학교병설유치원,3,23,7.7,126.8424701,37.5608814,등촌3동
관악구,서울특별시 관악구 호암로 498,공립,서울신우유치원,4,42,10.5,126.9328163,37.4625902,삼성동
관악구,서울특별시 관악구 광신길 154,사립,명성유치원,3,42,14,126.9270406,37.4655226,삼성동
관악구,서울특별시 관악구 남부순환로144길 65,사립,한별유치원,5,108,21.6,126.9135143,37.4784191,미성동
서초구,서울특별시 서초구 양재대로2길 74,공립,서울우솔초등학교병설유치원,4,49,12.2,127.019524,37.457162,양재1동
서초구,서울특별시 서초구 태봉로 59,공립,서울우면초등학교병설유치원,3,31,10.3,127.0238376,37.4648805,양재1동
서초구,서울특별시 서초구 바우뫼로7길 38,공립,서울우암초등학교병설유치원,,,,127.0242821,37.4720905,양재1동
서초구,서울특별시 서초구 바우뫼로 99,사립,천사유치원,4,87,21.8,127.0321135,37.4748007,양재1동
서초구,서울특별시 서초구 양재대로2길 100-64,사립,서초유치원,11,241,21.9,127.0163089,37.4560987,양재1동
서초구,서울특별시 서초구 태봉로2길 21,사립,예원유치원,6,78,13,127.0249792,37.4618041,양재1동
서초구,서울특별시 서초구 바우뫼로18길 14,공립,서울양재유치원,6,95,15.8,127.0318938,37.4741737,양재1동
서초구,서울특별시 서초구 태봉로2길 21,공립,서울어진유치원,6,64,10.7,127.0249792,37.4618041,양재1동
서초구,서울특별시 서초구 논현로5길 31-11,사립,구룡유치원,4,85,21.2,127.0491843,37.4711372,양재2동
서초구,서울특별시 서초구 헌릉로8길 42,공립,서울언남초등학교병설유치원,4,43,10.8,127.0616929,37.4539908,내곡동
서초구,서울특별시 서초구 청계산로11길 14,공립,서울청계숲유치원,6,73,12.2,127.0577358,37.4478042,내곡동
강남구,서울특별시 강남구 자곡로 55,공립,서울세명유치원,5,80,16,127.0909521,37.4687767,세곡동
강남구,서울특별시 강남구 자곡로 150,공립,서울자곡초등학교병설유치원,3,43,14.3,127.099434,37.4721914,세곡동
강남구,서울특별시 강남구 헌릉로618길 8,공립,서울대왕초등학교병설유치원,3,48,16,127.1056833,37.4646127,세곡동
강남구,서울특별시 강남구 밤고개로21길 15,공립,서울율현초등학교병설유치원,5,87,17.4,127.1083064,37.4745239,세곡동
강남구,서울특별시 강남구 헌릉로618길 14,사립,오즈의마법사유치원,10,199,19.9,127.1061977,37.4640002,세곡동
강남구,서울특별시 강남구 헌릉로569길 41,공립,서울은곡유치원,7,87,12.4,127.0969331,37.4668198,세곡동
금천구,서울특별시 금천구 가산로 99,사립,시내유치원,4,66,16.5,126.8922806,37.4752372,가산동
송파구,서울특별시 송파구 새말로8길 22-5,사립,란키즈유치원,4,75,18.8,127.1262842,37.4807619,장지동
송파구,서울특별시 송파구 송파대로8길 17,사립,생명나무유치원,7,138,19.7,127.1287224,37.4782389,장지동
송파구,서울특별시 송파구 충민로6길 17,사립,아이코리아부속새세대유치원,4,91,22.8,127.1340618,37.4827682,장지동
송파구,서울특별시 송파구 새말로8길 14,사립,별나라유치원,,,,127.1264091,37.4814604,장지동
송파구,서울특별시 송파구 충민로 177,사립,송파유정유치원,14,384,27.4,127.133074,37.485723,장지동
송파구,서울특별시 송파구 위례송파로 121,공립,서울송파위례유치원,7,115,16.4,127.1473769,37.4847294,위례동
송파구,서울특별시 송파구 위례순환로 419,공립,서울솔가람유치원,7,116,16.6,127.1409509,37.4780359,위례동
송파구,서울특별시 송파구 위례북로2길 12,공립,서울위례솔초등학교병설유치원,5,60,12,127.1509704,37.4868375,위례동
송파구,서울특별시 송파구 위례순환로 477,공립,서울솔가람유치원분원,4,54,13.5,127.1354268,37.4767112,위례동
송파구,서울특별시 송파구 위례순환로 371,공립,서울위례별유치원,10,172,17.2,127.1455109,37.4777484,위례동
서초구,서울특별시 서초구 서초대로70길 32,사립,우정유치원,,,,127.0234626,37.4938968,서초2동
관악구,서울특별시 관악구 신림로 114,공립,서울신성초등학교병설유치원,5,67,13.4,126.9373281,37.4718057,서림동
관악구,서울특별시 관악구 양산길 18,사립,하늘유치원,3,42,14,126.932278,37.474076,서림동
관악구,서울특별시 관악구 참숯5길 12,사립,영그린유치원,3,61,20.3,126.9404,37.4770775,서림동
관악구,서울특별시 관악구 조원로 114,사립,건영유치원,,,,126.9149317,37.4848854,신사동
관악구,서울특별시 관악구 남부순환로163길 14,공립,서울남부초등학교병설유치원,3,45,15,126.9221042,37.4851786,신사동
서초구,서울특별시 서초구 신반포로 55-4,공립,서울반포초등학교병설유치원,3,0,0,126.9917416,37.5024848,반포본동
송파구,서울특별시 송파구 양재대로 1218,사립,올림픽유치원,6,103,17.2,127.1377122,37.5166909,오륜동
송파구,서울특별시 송파구 양재대로 1218,사립,리아유치원,7,130,18.6,127.1377122,37.5166909,오륜동
송파구,서울특별시 송파구 양재대로 1264,공립,서울세륜초등학교병설유치원,3,23,7.7,127.1343298,37.5187257,오륜동
강남구,서울특별시 강남구 강남대로120길 33,공립,서울논현초등학교병설유치원,4,49,12.2,127.0263309,37.5084606,논현1동
양천구,서울특별시 양천구 월정로9길 23-4,사립,목동다솜유치원,3,62,20.7,126.8388101,37.5242622,신월4동
양천구,서울특별시 양천구 신월로13길 15,사립,양서유치원,4,54,13.5,126.8410393,37.5194093,신월4동
양천구,서울특별시 양천구 오목로4길 8,사립,꿈꾸는유치원,6,140,23.3,126.8401928,37.5208633,신월4동
성북구,서울특별시 성북구 정릉로9라길 11,공립,서울청덕초등학교병설유치원,3,16,5.3,127.0004,37.6120321,정릉3동
성북구,서울특별시 성북구 한천로101길 66,공립,서울장월초등학교병설유치원,4,59,14.8,127.0471996,37.6221762,장위3동
종로구,서울특별시 종로구 낙산길 250,공립,서울명신초등학교병설유치원,3,32,10.7,127.014121,37.5813273,창신3동
종로구,서울특별시 종로구 동망산길 62,사립,청룡유치원,,,,127.0166639,37.5794175,숭인1동
종로구,서울특별시 종로구 자하문로 69,사립,옥인유치원,3,64,21.3,126.9703338,37.5822357,청운효자동
종로구,서울특별시 종로구 필운대로1길 34,사립,배화여자대학교 부속 배화유치원,3,74,24.7,126.9658922,37.5791763,청운효자동
종로구,서울특별시 종로구 자하문로 105,공립,서울청운초등학교병설유치원,3,45,15,126.9694729,37.5859506,청운효자동
종로구,서울특별시 종로구 혜화로6가길 34,사립,한아름유치원,,,,127.00109,37.5905452,혜화동
종로구,서울특별시 종로구 혜화로 32,공립,서울혜화초등학교병설유치원,,,,126.9998636,37.5891393,혜화동
종로구,서울특별시 종로구 창경궁로 296,사립,혜화유치원,,,,127.0031433,37.5868712,혜화동
중구,서울특별시 중구 덕수궁길 140,공립,서울덕수초등학교병설유치원,4,48,12,126.974564,37.5686264,소공동
중구,서울특별시 중구 퇴계로6길 36,사립,일신유치원,,,,126.9788504,37.5566931,회현동
중구,서울특별시 중구 소파로2길 10,사립,숭의여자대학교부설유치원,3,60,20,126.987521,37.5570678,필동
중구,서울특별시 중구 소파로2길 7,사립,리라유치원,8,205,25.6,126.9881018,37.5576514,필동
중구,서울특별시 중구 퇴계로88다길 5,사립,한일유치원,4,72,18,127.020072,37.5631925,신당5동
용산구,서울특별시 용산구 이촌로 347,사립,신동아큰나무유치원,3,18,6,126.9872847,37.5183122,서빙고동
용산구,서울특별시 용산구 서빙고로51길 14,공립,서울서빙고초등학교병설유치원,3,45,15,126.9922356,37.5212896,서빙고동
용산구,서울특별시 용산구 보광로24길 9-4,사립,성심유치원,,,,126.9996228,37.5286801,보광동
용산구,서울특별시 용산구 효창원로 228,공립,서울청파초등학교병설유치원,,,,126.9642522,37.5479929,청파동
용산구,서울특별시 용산구 효창원로 228,공립,서울청파유치원,7,86,12.3,126.9642522,37.5479929,청파동
용산구,서울특별시 용산구 원효로 179,사립,정우유치원,,,,126.9624979,37.5361845,원효로1동
용산구,서울특별시 용산구 원효로64길 17-10,공립,서울남정초등학교병설유치원,3,55,18.3,126.9650126,37.5365099,원효로1동
중구,서울특별시 중구 다산로 269,공립,서울광희초등학교병설유치원,3,30,10,127.0150178,37.5675523,신당동
중구,서울특별시 중구 동호로20길 24,사립,근화유치원,,,,127.0088376,37.5590755,다산동
중구,서울특별시 중구 청구로17길 40,공립,서울장충유치원,6,61,10.2,127.0113184,37.5598949,다산동
중구,서울특별시 중구 다산로 32,사립,수암유치원,7,100,14.3,127.0097435,37.5500494,약수동
양천구,서울특별시 양천구 목동서로 340,사립,새서울유치원,4,66,16.5,126.8640478,37.5197024,신정1동
양천구,서울특별시 양천구 목동동로1길 38,사립,세신유치원,6,124,20.7,126.8568606,37.5176829,신정1동
중구,서울특별시 중구 동호로10길 30,사립,약수유치원,3,44,14.7,127.0147458,37.5548919,청구동
중구,서울특별시 중구 동호로10길 27,사립,신일유치원,3,49,16.3,127.0118919,37.5554256,청구동
양천구,서울특별시 양천구 목동로11길 30,공립,서울양목초등학교병설유치원,4,41,10.2,126.861659,37.5236306,신정4동
양천구,서울특별시 양천구 중앙로52길 62,사립,튼튼유치원,5,80,16,126.857166,37.5260399,신정4동
양천구,서울특별시 양천구 오목로42길 13,사립,목동유치원,8,118,14.8,126.8605488,37.524332,신정4동
양천구,서울특별시 양천구 오목로23길 24,공립,서울양동초등학교병설유치원,4,48,12,126.8514208,37.5259719,신정4동
용산구,서울특별시 용산구 이촌로84길 9-7,사립,강변유치원,3,34,11.3,126.9774116,37.5183402,이촌1동
용산구,서울특별시 용산구 이촌로71길 14,사립,충신유치원,7,160,22.9,126.9731151,37.5210166,이촌1동
용산구,서울특별시 용산구 이촌로81길 14,사립,원유치원,7,169,24.1,126.9768398,37.5196564,이촌1동
용산구,서울특별시 용산구 이촌로89길 50,사립,한가람유치원,3,41,13.7,126.9812607,37.5195399,이촌1동
용산구,서울특별시 용산구 이촌로81길 38,사립,대건유치원,6,138,23,126.9778664,37.5207181,이촌1동
용산구,서울특별시 용산구 회나무로13가길 16,사립,유성유치원,7,96,13.7,126.9906333,37.540586,이태원2동
성동구,서울특별시 성동구 고산자로2길 35,사립,율화유치원,4,70,17.5,127.0384264,37.5536607,행당1동
성동구,서울특별시 성동구 행당로 79,사립,에덴유치원,6,140,23.3,127.02733,37.55787,행당2동
성동구,서울특별시 성동구 행당로6길 97,사립,벧엘유치원,,,,127.0301587,37.5571875,행당2동
성동구,서울특별시 성동구 독서당로 434,사립,세성유치원,,,,127.034084,37.5539121,응봉동
성동구,서울특별시 성동구 아차산로17길 21,공립,서울성수초등학교병설유치원,3,34,11.3,127.0633521,37.5441946,성수2가3동
성동구,서울특별시 성동구 무학로6길 41,사립,송곡유치원,,,,127.0346658,37.5651522,왕십리도선동
성동구,서울특별시 성동구 무학로10길 21,사립,성심유치원,3,55,18.3,127.0334792,37.5662529,왕십리도선동
성동구,서울특별시 성동구 무학로 50,사립,솔유치원,,,,127.0312932,37.5688877,왕십리도선동
성동구,서울특별시 성동구 마장로 161,공립,서울숭신초등학교병설유치원,3,58,19.3,127.0278272,37.5679349,왕십리도선동
마포구,서울특별시 마포구 월드컵북로 353,공립,서울상암초등학교병설유치원,3,47,15.7,126.8923125,37.5765833,상암동
마포구,서울특별시 마포구 월드컵로42길 30,공립,서울상지초등학교병설유치원,3,37,12.3,126.8821625,37.579675,상암동
마포구,서울특별시 마포구 매봉산로 24-1,사립,나사렛유치원,7,135,19.3,126.8904019,37.5743867,상암동
마포구,서울특별시 마포구 월드컵로42길 38,사립,월드유치원,14,345,24.6,126.8811622,37.5804098,상암동
마포구,서울특별시 마포구 월드컵북로 502-14,공립,서울하늘초등학교병설유치원,5,70,14,126.8808213,37.5855001,상암동
마포구,서울특별시 마포구 마포대로24길 42,공립,서울소의초등학교병설유치원,3,34,11.3,126.9606344,37.5524137,공덕동
마포구,서울특별시 마포구 백범로37길 12,사립,돌샘유치원,6,177,29.5,126.9560314,37.5435765,공덕동
마포구,서울특별시 마포구 만리재옛길 13,공립,서울공덕초등학교병설유치원,3,36,12,126.953575,37.5459333,공덕동
금천구,서울특별시 금천구 벚꽃로 73,사립,참사랑유치원,7,140,20,126.8902351,37.4625026,독산1동
금천구,서울특별시 금천구 범안로11길 3,공립,서울두산초등학교병설유치원,5,55,11,126.8906327,37.4674221,독산1동
금천구,서울특별시 금천구 한내로 62,사립,한신유치원,7,158,22.6,126.8897219,37.4558526,독산1동
금천구,서울특별시 금천구 시흥대로79길 37,공립,서울금나래초등학교병설유치원,3,42,14,126.896358,37.4582962,독산1동
성동구,서울특별시 성동구 금호산2길 35,사립,금호유치원,,,,127.0231154,37.5487976,금호2·3가동
성동구,서울특별시 성동구 무수막길 69,공립,서울금호초등학교병설유치원,3,37,12.3,127.0198751,37.5527068,금호2·3가동
광진구,서울특별시 광진구 아차산로21길 15,사립,윤진유치원,,,,127.0650567,37.5427332,화양동
광진구,서울특별시 광진구 광나루로30길 49,공립,서울구의초등학교병설유치원,3,57,19,127.0807233,37.5430129,화양동
광진구,서울특별시 광진구 면목로5길 54,사립,선미유치원,3,29,9.7,127.0730369,37.5562377,군자동
광진구,서울특별시 광진구 군자로12길 46,사립,동심유치원,,,,127.0724402,37.551509,군자동
광진구,서울특별시 광진구 동일로 256-1,사립,선양유치원,7,160,22.9,127.0712926,37.5541603,군자동
강서구,서울특별시 강서구 화곡로66길 118,사립,등촌제일유치원,6,122,20.3,126.8593704,37.5554655,등촌1동
노원구,서울특별시 노원구 동일로228길 29,사립,대원유치원,,,,127.0587387,37.667789,상계9동
노원구,서울특별시 노원구 한글비석로 506,사립,청원유치원,,,,127.0630904,37.6667222,상계9동
노원구,서울특별시 노원구 한글비석로54길 119,공립,서울상원초등학교병설유치원,,,,127.0596209,37.6675645,상계9동
광진구,서울특별시 광진구 천호대로111길 41,사립,예일유치원,,,,127.082811,37.5582796,중곡2동
노원구,서울특별시 노원구 한글비석로 281,사립,우리유치원,7,147,21,127.077737,37.6528735,중계1동
노원구,서울특별시 노원구 중계로 244,사립,청암유치원,,,,127.0743661,37.6514848,중계1동
광진구,서울특별시 광진구 긴고랑로7길 65,사립,아이조아유치원,3,23,7.7,127.0804782,37.5662069,중곡3동
광진구,서울특별시 광진구 동일로72길 9,사립,경하유치원,,,,127.0781919,37.5661047,중곡3동
광진구,서울특별시 광진구 용마산로 185,사립,미파유치원,,,,127.0858746,37.5702365,중곡3동
광진구,서울특별시 광진구 긴고랑로13길 59,공립,서울중광초등학교병설유치원,3,49,16.3,127.0827202,37.5652655,중곡3동
광진구,서울특별시 광진구 용마산로22길 82,공립,서울용곡초등학교병설유치원,3,30,10,127.0884712,37.5671118,중곡4동
광진구,서울특별시 광진구 광나루로 441,사립,어린이회관유치원,12,270,22.5,127.0780956,37.5470277,능동
광진구,서울특별시 광진구 천호대로130길 58,사립,선화유치원,5,112,22.4,127.0868137,37.5498239,능동
광진구,서울특별시 광진구 자양로30길 6,사립,동인유치원,,,,127.0852281,37.5435996,구의1동
광진구,서울특별시 광진구 광나루로 534-1,사립,현정유치원,4,51,12.8,127.0889573,37.5444574,구의1동
광진구,서울특별시 광진구 광나루로56길 5,사립,프라임유치원,7,146,20.9,127.0983624,37.5387743,구의3동
광진구,서울특별시 광진구 아차산로65길 65,사립,샬롬유치원,3,34,11.3,127.0917331,37.5424635,구의3동
광진구,서울특별시 광진구 아차산로70길 40,사립,광남유치원,6,141,23.5,127.1007163,37.5416221,광장동
광진구,서울특별시 광진구 아차산로 552,사립,보성유치원,4,87,21.8,127.1033732,37.5430591,광장동
광진구,서울특별시 광진구 광장로7길 17,사립,광장유치원,3,43,14.3,127.1052492,37.5485485,광장동
광진구,서울특별시 광진구 아차산로 503-23,사립,청구이화유치원,5,114,22.8,127.0965576,37.5422736,광장동
광진구,서울특별시 광진구 워커힐로 32,공립,서울양진초등학교병설유치원,3,58,19.3,127.0983487,37.5450433,광장동
광진구,서울특별시 광진구 뚝섬로59길 18,사립,성산유치원,3,49,16.3,127.0841547,37.5329026,자양1동
광진구,서울특별시 광진구 아차산로44길 26,공립,서울자양초등학교병설유치원,4,55,13.8,127.0796624,37.5369826,자양1동
광진구,서울특별시 광진구 아차산로41길 22-5,사립,자양하나유치원,3,42,14,127.0786358,37.53889,자양1동
광진구,서울특별시 광진구 뚝섬로66길 14,사립,선경유치원,6,140,23.3,127.0897749,37.533379,자양2동
광진구,서울특별시 광진구 자양로5길 36,사립,자양유치원,,,,127.0837792,37.5311724,자양2동
광진구,서울특별시 광진구 뚝섬로64길 71,공립,서울양남초등학교병설유치원,3,32,10.7,127.0896505,37.5310737,자양2동
광진구,서울특별시 광진구 뚝섬로46길 64,공립,서울신자초등학교병설유치원,3,40,13.3,127.0755971,37.5302699,자양2동
송파구,서울특별시 송파구 올림픽로 419,사립,햇빛유치원,10,244,24.4,127.1141323,37.5205045,잠실4동
광진구,서울특별시 광진구 뚝섬로 476-15,사립,성수아름유치원,,,,127.0624057,37.536407,자양4동
광진구,서울특별시 광진구 뚝섬로23길 27,사립,정신유치원,3,38,12.7,127.0646663,37.5373679,자양4동
송파구,서울특별시 송파구 올림픽로35길 118,사립,장미유치원,3,60,20,127.1008459,37.5179276,잠실6동
동대문구,서울특별시 동대문구 회기로23가길 33,사립,산정현유치원,3,30,10,127.0540751,37.5926895,회기동
동대문구,서울특별시 동대문구 경희대로 26,사립,경희유치원,6,153,25.5,127.0525009,37.5964494,회기동
동대문구,서울특별시 동대문구 망우로6길 48,공립,서울휘경유치원,6,89,14.8,127.0583533,37.5858983,휘경2동
동대문구,서울특별시 동대문구 한천로 246,사립,아이비유치원,6,151,25.2,127.0687524,37.5828277,휘경2동
동대문구,서울특별시 동대문구 장안벚꽃로 309,공립,서울휘봉초등학교병설유치원,3,37,12.3,127.0702259,37.5863852,휘경2동
동대문구,서울특별시 동대문구 제기로 131,사립,사랑유치원,5,124,24.8,127.0494012,37.5881072,청량리동
동대문구,서울특별시 동대문구 홍릉로29길 17,사립,홍릉유치원,,,,127.0415,37.590492,청량리동
동대문구,서울특별시 동대문구 무학로26길 30,사립,신동아유치원,7,133,19,127.0325911,37.5729396,용신동
동대문구,서울특별시 동대문구 고산자로 534,사립,자람유치원,3,34,11.3,127.0396113,37.5895202,제기동
동대문구,서울특별시 동대문구 약령시로 45,사립,소화유치원,,,,127.0347903,37.583076,제기동
동대문구,서울특별시 동대문구 고산자로 518,공립,서울홍파초등학교병설유치원,3,18,6,127.0393968,37.5862001,제기동
동대문구,서울특별시 동대문구 서울시립대로18길 19,사립,백주유치원,3,42,14,127.0528049,37.5806256,전농1동
동대문구,서울특별시 동대문구 사가정로 65,사립,삼성유치원,8,198,24.8,127.0515338,37.5767239,전농1동
동대문구,서울특별시 동대문구 전농로23길 47,사립,빛나유치원,,,,127.0538647,37.579125,전농1동
동대문구,서울특별시 동대문구 사가정로 190,사립,예일유치원,6,124,20.7,127.06477,37.5772801,전농2동
동대문구,서울특별시 동대문구 전농로16길 61,공립,서울전동초등학교병설유치원,3,40,13.3,127.061438,37.5794265,전농2동
동대문구,서울특별시 동대문구 사가정로 148,사립,새소리유치원,8,207,25.9,127.0605491,37.5769111,전농2동
동대문구,서울특별시 동대문구 전농로 172,공립,서울전곡초등학교병설유치원,3,29,9.7,127.05645,37.580525,전농2동
동대문구,서울특별시 동대문구 답십리로 184,사립,한양유치원,5,67,13.4,127.0601741,37.5715766,답십리2동
동대문구,서울특별시 동대문구 전농로10길 20,사립,파스텔유치원,3,33,11,127.0595904,37.5748316,답십리2동
동대문구,서울특별시 동대문구 답십리로56길 21,사립,그림유치원,9,158,17.6,127.0598719,37.5696142,답십리2동
동대문구,서울특별시 동대문구 답십리로48길 56,사립,라온유치원,3,51,17,127.0575853,37.5702563,답십리2동
송파구,서울특별시 송파구 올림픽로4길 32,사립,꿈밭유치원,,,,127.074231,37.5078971,잠실7동
송파구,서울특별시 송파구 올림픽로4길 59,공립,서울아주초등학교병설유치원,3,28,9.3,127.0756361,37.5058803,잠실7동
동대문구,서울특별시 동대문구 장안벚꽃로 107,사립,세하유치원,5,96,19.2,127.0747898,37.5694827,장안1동
동대문구,서울특별시 동대문구 장한로5길 51,사립,사군자유치원,,,,127.0637959,37.5652011,장안1동
동대문구,서울특별시 동대문구 한천로6길 21,공립,서울군자초등학교병설유치원,6,77,12.8,127.0615019,37.5644803,장안1동
동대문구,서울특별시 동대문구 장한로 165,사립,새일문유치원,,,,127.0716834,37.575146,장안2동
동대문구,서울특별시 동대문구 답십리로69길 27,공립,서울장평초등학교병설유치원,3,50,16.7,127.0732238,37.5738467,장안2동
동대문구,서울특별시 동대문구 사가정로 276-19,사립,정원유치원,6,122,20.3,127.0758538,37.5790119,장안2동
중랑구,서울특별시 중랑구 동일로109길 31,사립,색동유치원,3,11,3.7,127.078414,37.5916803,면목2동
중랑구,서울특별시 중랑구 중랑천로 20,사립,누리에유치원,6,121,20.2,127.0752392,37.5874978,면목2동
중랑구,서울특별시 중랑구 봉우재로6길 26,공립,서울중랑초등학교병설유치원,3,37,12.3,127.0754488,37.5890172,면목2동
중랑구,서울특별시 중랑구 동일로 665,공립,서울중목초등학교병설유치원,,,,127.0793795,37.5902188,면목2동
중랑구,서울특별시 중랑구 면목로23길 20,공립,서울중곡초등학교병설유치원,4,51,12.8,127.0832735,37.5745692,면목4동
중랑구,서울특별시 중랑구 용마산로 250,사립,솔방울유치원,3,38,12.7,127.0891367,37.5733585,면목4동
송파구,서울특별시 송파구 올림픽로 135,사립,잠실럭키유치원,5,108,21.6,127.086817,37.5133934,잠실2동
송파구,서울특별시 송파구 올림픽로 95,공립,서울잠일초등학교병설유치원,3,37,12.3,127.0816089,37.5150471,잠실2동
송파구,서울특별시 송파구 잠실로 32,공립,서울잠신초등학교병설유치원,,,,127.0879453,37.5141005,잠실2동
중랑구,서울특별시 중랑구 면목로35길 21,사립,동일유치원,6,120,20,127.0846445,37.5781459,면목7동
중랑구,서울특별시 중랑구 봉우재로41길 12,사립,나래유치원,6,135,22.5,127.0896274,37.5940399,상봉2동
중랑구,서울특별시 중랑구 중랑역로 47,사립,아랑유치원,3,61,20.3,127.076671,37.5981184,중화2동
중랑구,서울특별시 중랑구 중랑역로 35-1,사립,수산유치원,5,109,21.8,127.075984,37.5975327,중화2동
중랑구,서울특별시 중랑구 숙선옹주로 91,사립,윤경유치원,6,120,20,127.0848708,37.6166943,묵1동
중랑구,서울특별시 중랑구 공릉로 65,사립,미림유치원,3,39,13,127.0793318,37.6164667,묵1동
중랑구,서울특별시 중랑구 동일로149길 46,공립,서울신묵초등학교병설유치원,3,33,11,127.0755487,37.6070767,묵2동
중랑구,서울특별시 중랑구 동일로157길 75,공립,서울묵현초등학교병설유치원,,,,127.0739109,37.6090736,묵2동
노원구,서울 노원구 공릉동 24-1,사립,육사유치원,3,47,15.7,127.0973415,37.6261676,공릉2동
노원구,서울특별시 노원구 공릉로 257,사립,꽃동산유치원,3,15,5,127.07506,37.6302021,공릉2동
노원구,서울특별시 노원구 공릉로46길 32,사립,산내들유치원,,,,127.0810892,37.6270854,공릉2동
노원구,서울특별시 노원구 공릉로34길 62,사립,미광유치원,3,43,14.3,127.0825383,37.6235709,공릉2동
노원구,서울특별시 노원구 화랑로 815,사립,삼육대학교부속유치원,8,179,22.4,127.1042695,37.6429794,공릉2동
노원구,서울특별시 노원구 화랑로 621,사립,서울여자대학교부속유치원,6,115,19.2,127.0904235,37.6280329,공릉2동
노원구,서울특별시 노원구 공릉로 181,사립,토마토유치원,,,,127.0794281,37.6259445,공릉2동
노원구,서울특별시 노원구 화랑로51나길 31,공립,서울태랑초등학교병설유치원,3,34,11.3,127.0907208,37.6263696,공릉2동
노원구,서울특별시 노원구 공릉로42길 13-1,사립,노원 삼육유치원,3,43,14.3,127.0803722,37.6243945,공릉2동
노원구,서울특별시 노원구 노원로1길 36,공립,서울태릉초등학교병설유치원,,,,127.0847632,37.6228574,공릉2동
중랑구,서울특별시 중랑구 용마공원로5길 32,공립,서울면북초등학교병설유치원,,,,127.1034519,37.5946237,망우3동
중랑구,서울특별시 중랑구 봉화산로 188,공립,서울신현초등학교병설유치원,3,46,15.3,127.0936591,37.6056743,신내2동
중랑구,서울특별시 중랑구 신내로19길 42,사립,영은유치원,8,170,21.2,127.0913994,37.6155475,신내2동
중랑구,서울특별시 중랑구 신내로 51,사립,예원유치원,5,72,14.4,127.0947898,37.6048367,신내2동
중랑구,서울특별시 중랑구 신내로 151,사립,새아랑유치원,9,201,22.3,127.096126,37.6123945,신내2동
중랑구,서울특별시 중랑구 신내로15길 110,공립,서울봉화초등학교병설유치원,3,31,10.3,127.0923215,37.6136152,신내2동
중랑구,서울특별시 중랑구 면목로57길 32,공립,서울면동초등학교병설유치원,3,45,15,127.0867853,37.5854511,면목본동
중랑구,서울특별시 중랑구 면목로 434,공립,서울면목초등학교병설유치원,4,36,9,127.0876476,37.5912922,면목본동
중랑구,서울특별시 중랑구 면목로61길 50,사립,봄내유치원,7,124,17.7,127.0855666,37.585977,면목본동
중랑구,서울특별시 중랑구 면목로44길 55,사립,신일유치원,3,30,10,127.091676,37.5810638,면목3·8동
중랑구,서울특별시 중랑구 용마산로115나길 7,사립,미광유치원,4,49,12.2,127.0966176,37.597913,망우본동
중랑구,서울특별시 중랑구 망우로 458,사립,새샛별유치원,3,70,23.3,127.1030069,37.5999825,망우본동
중랑구,서울특별시 중랑구 송림길 114,공립,서울동원초등학교병설유치원,3,55,18.3,127.1051446,37.6046698,망우본동
중랑구,서울특별시 중랑구 용마산로118길 55,사립,정암유치원,4,82,20.5,127.1037706,37.6011516,망우본동
중랑구,서울특별시 중랑구 양원역로 95,공립,서울양원숲초등학교병설유치원,6,77,12.8,127.1053095,37.609022,망우본동
성북구,서울특별시 성북구 북악산로 913,사립,영광유치원,6,127,21.2,127.0236579,37.5954769,돈암1동
성북구,서울특별시 성북구 동소문로34길 24,사립,희망찬유치원,8,125,15.6,127.0231255,37.5994947,돈암1동
성북구,서울특별시 성북구 북악산로 844,사립,아랑유치원,7,190,27.1,127.0176255,37.5979659,돈암2동
성북구,서울특별시 성북구 아리랑로16길 52,사립,서울베네딕도유치원,6,138,23,127.0158048,37.5996571,돈암2동
성북구,서울특별시 성북구 성북로4길 52,사립,반디유치원,3,90,30,127.0104756,37.5958787,돈암2동
성북구,서울특별시 성북구 성북로4길 52-1,사립,우촌유치원,7,155,22.1,127.0114163,37.5956423,돈암2동
성북구,서울특별시 성북구 성북로4길 52,사립,세아유치원,3,19,6.3,127.0104756,37.5958787,돈암2동
성북구,서울특별시 성북구 성북로4길 52,사립,천사유치원,,,,127.0104756,37.5958787,돈암2동
성북구,서울특별시 성북구 안암로7길 66,사립,영암유치원,3,68,22.7,127.0234481,37.5823473,안암동
성북구,서울특별시 성북구 보문사길 18,사립,은영유치원,5,87,17.4,127.0166989,37.5846274,보문동
성북구,서울특별시 성북구 보문로 98,사립,동선유치원,3,29,9.7,127.0203965,37.584034,보문동
성북구,서울특별시 성북구 보문로27길 15,사립,신암유치원,3,80,26.7,127.0173631,37.5867758,보문동
성북구,서울특별시 성북구 보문사길 50,공립,서울동신초등학교병설유치원,3,27,9,127.0167158,37.5828961,보문동
성북구,서울특별시 성북구 삼양로 74,사립,명덕유치원,,,,127.022906,37.6097978,길음2동
성북구,서울특별시 성북구 숭인로 50,공립,서울좋은소리유치원분원,3,53,17.7,127.0271556,37.6116278,길음2동
노원구,서울특별시 노원구 동일로198가길 13,사립,공릉 사라유치원,5,71,14.2,127.0720532,37.6300742,공릉1동
노원구,서울특별시 노원구 동일로186길 27,사립,공능유치원,3,37,12.3,127.074057,37.6251527,공릉1동
노원구,서울특별시 노원구 동일로173길 12,공립,서울공릉초등학교병설유치원,3,32,10.7,127.0741356,37.6192561,공릉1동
노원구,서울특별시 노원구 섬밭로 123,사립,예진유치원,6,131,21.8,127.0686144,37.6273074,공릉1동
노원구,서울특별시 노원구 동일로 1127,사립,아랑유치원,6,112,18.7,127.06982,37.6307699,공릉1동
노원구,서울특별시 노원구 동일로192가길 16,공립,서울공연초등학교병설유치원,3,11,3.7,127.0742354,37.6272886,공릉1동
성북구,서울특별시 성북구 종암로40길 30,공립,서울숭곡초등학교병설유치원,4,60,15,127.0327263,37.6087833,월곡1동
성북구,서울특별시 성북구 장월로23길 16,공립,서울장곡초등학교병설유치원,4,60,15,127.0483302,37.6168661,장위1동
성북구,서울특별시 성북구 월계로 124,사립,한마음유치원,6,122,20.3,127.041196,37.6161837,장위1동
성북구,서울특별시 성북구 장위로 34,사립,영천유치원,3,59,19.7,127.04049,37.6141246,장위1동
성북구,서울특별시 성북구 장월로42길 9,사립,광운유치원,3,62,20.7,127.0476765,37.6097252,장위2동
성북구,서울특별시 성북구 장월로 102,사립,까망유치원,,,,127.0485489,37.6149211,장위2동
성북구,서울특별시 성북구 장월로8가길 41,공립,서울장위초등학교병설유치원,3,41,13.7,127.050051,37.612356,장위2동
은평구,서울특별시 은평구 통일로78가길 20,사립,은혜유치원,5,0,0,126.9273984,37.6177586,불광1동
은평구,서울특별시 은평구 통일로 790-1,사립,바다의별유치원,4,67,16.8,126.9262324,37.6154185,불광1동
은평구,서울특별시 은평구 불광로 107,사립,새보람유치원,,,,126.9326468,37.6163057,불광1동
은평구,서울특별시 은평구 불광로 51,공립,서울불광초등학교병설유치원,3,38,12.7,126.9312122,37.6124208,불광1동
성북구,서울특별시 성북구 종암로9길 78,사립,빛나라유치원,3,40,13.3,127.0329838,37.59737,종암동
성북구,서울특별시 성북구 월곡로7길 72,사립,사랑유치원,5,175,35,127.036313,37.5998984,종암동
성북구,서울특별시 성북구 종암로15길 1,사립,영재유치원,4,51,12.8,127.0347771,37.5974202,종암동
성북구,서울특별시 성북구 종암로25길 17,사립,예린유치원,3,49,16.3,127.0323505,37.6000046,종암동
성북구,서울특별시 성북구 종암로24가길 53,사립,좋은나라유치원,7,186,26.6,127.0365952,37.6015254,종암동
성북구,서울특별시 성북구 종암로5길 14,공립,서울숭례초등학교병설유치원,6,70,11.7,127.034575,37.5949154,종암동
성북구,서울특별시 성북구 화랑로48길 16,사립,두산효자유치원,4,68,17,127.0685315,37.6130498,석관동
성북구,서울특별시 성북구 돌곶이로 64,사립,은하유치원,,,,127.0586877,37.6094878,석관동
성북구,서울특별시 성북구 돌곶이로22길 21,공립,서울석관초등학교병설유치원,4,61,15.2,127.0586944,37.6109283,석관동
강북구,서울특별시 강북구 한천로123길 9,사립,금성유치원,,,,127.0315689,37.6362023,번1동
강북구,서울특별시 강북구 한천로124길 14,공립,서울수송초등학교병설유치원,3,32,10.7,127.0329664,37.6372817,번1동
강북구,서울특별시 강북구 한천로115길 15,사립,꿈동산유치원,3,46,15.3,127.0383527,37.6321551,번2동
강북구,서울특별시 강북구 오현로 204,공립,서울번동초등학교병설유치원,3,36,12,127.0406011,37.6294045,번3동
강북구,서울특별시 강북구 삼각산로 143-1,사립,성실유치원,5,105,21,127.0193584,37.6423338,수유2동
강북구,서울특별시 강북구 삼각산로 161,사립,성체유치원,5,91,18.2,127.0210022,37.6422995,수유2동
강북구,서울특별시 강북구 노해로21길 12,사립,경은유치원,4,56,14,127.0222845,37.6440805,수유2동
강북구,서울특별시 강북구 도봉로97길 45,사립,새시대유치원,,,,127.0270187,37.64271,수유3동
강북구,서울특별시 강북구 오패산로 130,사립,동명유치원,3,45,15,127.0342674,37.6135304,송중동
강북구,서울특별시 강북구 도봉로 88,사립,아름유치원,3,19,6.3,127.0303902,37.6169672,송중동
강북구,서울특별시 강북구 월계로 61,사립,창문유치원,7,168,24,127.0367894,37.6134014,송중동
강북구,서울특별시 강북구 솔매로50가길 25,공립,서울화계초등학교병설유치원,5,51,10.2,127.029132,37.6241861,송중동
도봉구,서울특별시 도봉구 우이천로32길 38,사립,햇살유치원,5,110,22,127.025261,37.6492222,쌍문1동
도봉구,서울특별시 도봉구 삼양로 574-38,사립,현대유치원,,,,127.0139939,37.6541872,쌍문1동
도봉구,서울특별시 도봉구 삼양로144길 33,사립,덕성여자대학교부속유치원,5,89,17.8,127.0166028,37.6515354,쌍문1동
도봉구,서울특별시 도봉구 우이천로 360,공립,서울쌍문초등학교병설유치원,,,,127.0246907,37.6485893,쌍문1동
도봉구,서울특별시 도봉구 노해로 179,공립,서울숭미초등학교병설유치원,3,31,10.3,127.0279267,37.6510106,쌍문1동
도봉구,서울특별시 도봉구 해등로 195,사립,다솜유치원,7,205,29.3,127.0354081,37.6572874,쌍문2동
도봉구,서울특별시 도봉구 시루봉로6길 86,사립,행복한유치원,4,56,14,127.0322402,37.6591764,쌍문4동
도봉구,서울특별시 도봉구 해등로 241,사립,선희유치원,3,47,15.7,127.0299094,37.6575871,쌍문4동
도봉구,서울특별시 도봉구 노해로49길 69,사립,정의유치원,7,126,18,127.0310388,37.6528605,쌍문4동
도봉구,서울특별시 도봉구 해등로26길 20,사립,천사유치원,4,70,17.5,127.0336337,37.6590827,쌍문4동
도봉구,서울특별시 도봉구 노해로 201-1,사립,예그린유치원,6,113,18.8,127.0305974,37.6511332,쌍문4동
도봉구,서울특별시 도봉구 마들로 620,사립,사랑유치원,3,57,19,127.0466847,37.6654556,방학1동
도봉구,서울특별시 도봉구 도당로6길 14-11,사립,자연아이유치원,7,134,19.1,127.0358628,37.6610356,방학1동
도봉구,서울특별시 도봉구 도당로6길 14-11,공립,서울방학유치원,5,56,11.2,127.0358628,37.6610356,방학1동
도봉구,서울특별시 도봉구 해등로 307,사립,보나유치원,4,77,19.2,127.0218899,37.6570113,방학3동
도봉구,서울특별시 도봉구 해등로 264,사립,꿈밭유치원,6,144,24,127.0276067,37.6583132,방학3동
도봉구,서울특별시 도봉구 시루봉로 101,사립,유화유치원,3,64,21.3,127.0274584,37.6598465,방학3동
도봉구,서울특별시 도봉구 방학로 247-21,공립,서울신학초등학교병설유치원,3,32,10.7,127.025338,37.661107,방학3동
도봉구,서울특별시 도봉구 해등로4길 9,사립,예랑유치원,3,45,15,127.0440796,37.6485644,창1동
도봉구,서울특별시 도봉구 노해로66길 79,사립,한사랑유치원,6,82,13.7,127.048372,37.6478697,창1동
도봉구,서울특별시 도봉구 덕릉로59아길 17,사립,한별유치원,4,82,20.5,127.0380303,37.6419308,창2동
도봉구,서울특별시 도봉구 덕릉로60길 93,공립,서울신창초등학교병설유치원,3,19,6.3,127.0419507,37.6366289,창3동
도봉구,서울특별시 도봉구 덕릉로 272,사립,신창유치원,,,,127.0410173,37.6413802,창3동
도봉구,서울특별시 도봉구 노해로70길 96,공립,서울월천초등학교병설유치원,3,33,11,127.0517495,37.6481697,창4동
도봉구,서울특별시 도봉구 노해로69가길 11,사립,청아유치원,4,75,18.8,127.0491095,37.6588869,창4동
도봉구,서울특별시 도봉구 마들로 567,사립,자연유치원,7,115,16.4,127.0475414,37.6608801,창4동
도봉구,서울특별시 도봉구 마들로 567,공립,서울마들유치원,5,86,17.2,127.0475414,37.6608801,창4동
도봉구,서울특별시 도봉구 해등로16길 81,공립,서울창동초등학교병설유치원,,,,127.0448962,37.6553492,창5동
도봉구,서울특별시 도봉구 노해로63가길 101,사립,삼풍유치원,10,223,22.3,127.0456854,37.6567978,창5동
도봉구,서울특별시 도봉구 해등로 113,사립,솔샘유치원,5,96,19.2,127.0394284,37.6534424,창5동
도봉구,서울특별시 도봉구 도봉로136다길 4,공립,서울가인초등학교병설유치원,,,,127.0429647,37.6597345,창5동
서대문구,서울특별시 서대문구 명지대길 39-4,사립,연유치원,5,87,17.4,126.9240927,37.5818806,남가좌2동
서대문구,서울특별시 서대문구 증가로 191,사립,조은유치원,5,122,24.4,126.9166617,37.5782468,남가좌2동
서대문구,서울특별시 서대문구 가재울로 45,사립,새나유치원,6,147,24.5,126.920496,37.5747183,남가좌2동
서대문구,서울특별시 서대문구 거북골로21길 55,사립,해맑은유치원,,,,126.905681,37.5774093,북가좌1동
도봉구,서울특별시 도봉구 도봉로173길 96,공립,서울도봉초등학교병설유치원,,,,127.0383218,37.6795729,도봉1동
도봉구,서울특별시 도봉구 도봉산3길 21,사립,지현유치원,,,,127.04399,37.6863767,도봉1동
도봉구,서울특별시 도봉구 시루봉로 285,공립,서울오봉초등학교병설유치원,3,13,4.3,127.0401874,37.6718422,도봉1동
도봉구,서울특별시 도봉구 도봉로180나길 33-29,사립,슬기유치원,8,197,24.6,127.0481812,37.683995,도봉2동
도봉구,서울특별시 도봉구 마들로 684-9,사립,나래유치원,3,48,16,127.0471487,37.6716052,도봉2동
노원구,서울특별시 노원구 석계로13길 23-14,사립,보고유치원,4,53,13.2,127.0614056,37.6196032,월계1동
노원구,서울특별시 노원구 광운로17길 5-3,사립,성북유치원,3,46,15.3,127.0590553,37.6221857,월계1동
노원구,서울특별시 노원구 월계로55길 16,사립,이레유치원,,,,127.061027,37.6323576,월계3동
노원구,서울특별시 노원구 마들로 111,사립,효자유치원,6,108,18,127.0657785,37.6239862,월계3동
노원구,서울특별시 노원구 마들로3길 37,사립,보배유치원,4,59,14.8,127.0626239,37.6296689,월계3동
노원구,서울특별시 노원구 마들로 31,사립,한양유치원,5,95,19,127.0686647,37.6183634,월계3동
노원구,서울특별시 노원구 월계로55길 16,공립,서울연지유치원,5,62,12.4,127.061027,37.6323576,월계3동
노원구,서울특별시 노원구 한글비석로1길 28,사립,성실유치원,7,110,15.7,127.0707239,37.6389509,하계1동
노원구,서울특별시 노원구 공릉로58길 23,사립,꿈모리유치원,,,,127.0724722,37.6337549,하계1동
노원구,서울특별시 노원구 한글비석로 145,사립,한성유치원,9,233,25.9,127.075978,37.6406047,하계1동
노원구,서울특별시 노원구 공릉로58길 36,공립,서울연촌초등학교병설유치원,3,32,10.7,127.0728015,37.63492,하계1동
노원구,서울특별시 노원구 공릉로59길 28,사립,미성유치원,,,,127.0695014,37.6345332,하계1동
노원구,서울특별시 노원구 중계로18길 14,사립,효천유치원,4,85,21.2,127.0782282,37.6513875,중계본동
노원구,서울특별시 노원구 중계로12길 9,공립,서울수암초등학교병설유치원,4,57,14.2,127.0813393,37.6481406,중계본동
노원구,서울특별시 노원구 중계로14라길 48,사립,원암유치원,13,293,22.5,127.0851955,37.6498251,중계본동
노원구,서울특별시 노원구 덕릉로86길 65,사립,키즈위즈유치원,4,57,14.2,127.0785313,37.6611349,중계4동
노원구,서울특별시 노원구 덕릉로79길 23,사립,까치유치원,7,113,16.1,127.0730576,37.6567091,중계4동
노원구,서울특별시 노원구 한글비석로 325,사립,사랑샘유치원,3,43,14.3,127.0777295,37.656455,중계4동
노원구,서울특별시 노원구 동일로 1745,공립,서울수락초등학교병설유치원,3,21,7,127.0545793,37.6844535,상계1동
노원구,서울특별시 노원구 동일로245길 162,사립,새봄유치원,3,51,17,127.0539687,37.6816378,상계1동
노원구,서울특별시 노원구 동일로231길 26,공립,서울노일유치원,6,82,13.7,127.0540395,37.6724582,상계1동
노원구,서울특별시 노원구 동일로230길 63,사립,꿈터유치원,5,110,22,127.0595537,37.6728189,상계1동
노원구,서울특별시 노원구 동일로245길 162,공립,서울수락산유치원,6,63,10.5,127.0539687,37.6816378,상계1동
노원구,서울특별시 노원구 상계로9길 39,공립,서울상계초등학교병설유치원,,,,127.0657019,37.6593871,상계2동
노원구,서울특별시 노원구 상계로7길 25,사립,학림유치원,6,88,14.7,127.0646299,37.657815,상계2동
노원구,서울특별시 노원구 노원로30길 45,사립,양지유치원,4,67,16.8,127.0697476,37.6552673,상계2동
노원구,서울특별시 노원구 한글비석로41가길 24,공립,서울계상초등학교병설유치원,,,,127.0681263,37.6628975,상계5동
노원구,서울특별시 노원구 노원로19길 33,사립,상원유치원,6,108,18,127.0687996,37.6445505,중계2·3동
노원구,서울특별시 노원구 동일로208길 34,사립,고운유치원,9,186,20.7,127.0669392,37.6440356,중계2·3동
노원구,서울특별시 노원구 동일로207길 23,사립,동은유치원,3,28,9.3,127.0632431,37.6429813,중계2·3동
노원구,서울특별시 노원구 섬밭로 265,사립,연세유치원,6,98,16.3,127.0626385,37.638983,중계2·3동
노원구,서울특별시 노원구 한글비석로1길 81-11,공립,서울용동초등학교병설유치원,,,,127.0692484,37.6418574,중계2·3동
노원구,서울특별시 노원구 노원로 522,사립,풍천유치원,6,125,20.8,127.0610225,37.661172,상계10동
노원구,서울특별시 노원구 동일로221길 32,사립,아이디유치원,5,112,22.4,127.0571971,37.6591777,상계10동
노원구,서울특별시 노원구 노원로38길 34,공립,서울상곡초등학교병설유치원,4,64,16,127.0626496,37.6627412,상계10동
노원구,서울특별시 노원구 동일로213길 78,사립,영은유치원,3,66,22,127.0576179,37.6481183,상계6·7동
노원구,서울특별시 노원구 덕릉로 459-18,사립,희산유치원,3,49,16.3,127.0609741,37.6461015,상계6·7동
노원구,서울특별시 노원구 동일로215길 48,사립,성희유치원,5,97,19.4,127.0579965,37.6520039,상계6·7동
노원구,서울특별시 노원구 동일로216길 47,사립,영산유치원,3,42,14,127.0639994,37.6526751,상계6·7동
노원구,서울특별시 노원구 동일로213길 52,공립,서울당현초등학교병설유치원,3,43,14.3,127.058394,37.6489076,상계6·7동
은평구,서울특별시 은평구 진흥로12길 23,사립,유정유치원,6,153,25.5,126.9267612,37.6066807,녹번동
은평구,서울특별시 은평구 은평로 239,공립,서울은평초등학교병설유치원,,,,126.9344622,37.6020551,녹번동
은평구,서울특별시 은평구 통일로 630-1,사립,자연유치원,7,142,20.3,126.937484,37.6031576,녹번동
은평구,서울특별시 은평구 통일로 650,공립,서울어울초등학교병설유치원,3,48,16,126.9350504,37.6065618,녹번동
은평구,서울특별시 은평구 갈현로33길 24,사립,궁전유치원,3,36,12,126.9144541,37.6223746,갈현1동
은평구,서울특별시 은평구 연서로27길 23,사립,성균관유치원,6,135,22.5,126.9169646,37.6183103,갈현2동
은평구,서울특별시 은평구 갈현로29길 27,사립,선일유치원,5,110,22,126.9129668,37.6196933,갈현2동
은평구,서울특별시 은평구 갈현로 212-1,사립,색동유치원,6,112,18.7,126.9142772,37.6160649,갈현2동
은평구,서울특별시 은평구 연서로17길 35-1,사립,보림유치원,3,35,11.7,126.9135678,37.6135644,갈현2동
은평구,서울특별시 은평구 갈현로15길 51,공립,서울구현초등학교병설유치원,3,30,10,126.9057418,37.6090631,구산동
은평구,서울특별시 은평구 갈현로 170-1,사립,라라유치원,,,,126.9119718,37.6131542,구산동
은평구,서울특별시 은평구 연서로 117,사립,예일유치원,6,131,21.8,126.9143514,37.6102623,구산동
은평구,서울특별시 은평구 갈현로 169-7,사립,자인유치원,,,,126.9107563,37.6133454,구산동
은평구,서울특별시 은평구 은평로16길 11,사립,녹번유치원,,,,126.9300876,37.5998387,응암1동
은평구,서울특별시 은평구 은평로4길 21-9,공립,서울은명초등학교병설유치원,,,,126.918463,37.59769,응암1동
은평구,서울특별시 은평구 은평로16길 9-1,사립,은평하랑유치원,,,,126.9303236,37.6002688,응암1동
은평구,서울특별시 은평구 응암로14길 21,사립,성아유치원,4,81,20.2,126.9196975,37.5898961,응암2동
은평구,서울특별시 은평구 응암로28길 34,사립,와우랩유치원,9,246,27.3,126.9215773,37.5940238,응암2동
은평구,서울특별시 은평구 백련산로2길 35,공립,서울연은초등학교병설유치원,,,,126.925044,37.5904503,응암2동
은평구,서울특별시 은평구 증산로21길 22,사립,다우림유치원,3,57,19,126.9123399,37.5962316,신사1동
은평구,서울특별시 은평구 갈현로4길 42,사립,보람유치원,,,,126.9142405,37.6001054,신사1동
은평구,서울특별시 은평구 은평로3가길 32,사립,은평국제유치원,8,170,21.2,126.9114776,37.5989732,신사1동
강남구,서울특별시 강남구 선릉로64길 33,공립,서울도곡초등학교병설유치원,4,57,14.2,127.0544678,37.4994952,대치4동
은평구,서울특별시 은평구 증산로15길 35-8,사립,피노키오유치원,,,,126.908984,37.5900295,신사2동
은평구,서울특별시 은평구 은평터널로 150,공립,서울서신초등학교병설유치원,,,,126.9074776,37.5924222,신사2동
은평구,서울특별시 은평구 증산서길 53-9,사립,동산유치원,5,91,18.2,126.9044263,37.5817751,증산동
은평구,서울특별시 은평구 연서로14길 14-5,사립,백합유치원,6,117,19.5,126.9173695,37.6082005,역촌동
은평구,서울특별시 은평구 진흥로7길 25,사립,엔젤유치원,8,156,19.5,126.9188942,37.6042318,역촌동
은평구,서울특별시 은평구 진흥로7길 25,공립,서울역촌유치원,,,,126.9188942,37.6042318,역촌동
서대문구,서울특별시 서대문구 홍제내길 84,사립,예그린유치원,3,61,20.3,126.9358448,37.5861421,홍제1동
서대문구,서울특별시 서대문구 통일로25길 30,사립,한양제일유치원,3,62,20.7,126.9470823,37.5838677,홍제1동
서대문구,서울특별시 서대문구 모래내로 432,사립,현대홍익유치원,5,100,20,126.9432718,37.5840668,홍제1동
서대문구,서울특별시 서대문구 세무서길 33-9,공립,서울인왕초등학교병설유치원,3,45,15,126.9448024,37.5902308,홍제3동
서대문구,서울특별시 서대문구 통일로40길 18,사립,홍제성당유치원,3,75,25,126.9436704,37.5901271,홍제3동
서대문구,서울특별시 서대문구 통일로32길 23,사립,인왕유치원,,,,126.9494933,37.5854842,홍제2동
서대문구,서울특별시 서대문구 통일로34길 66,사립,현대경복유치원,5,124,24.8,126.9515641,37.5863226,홍제2동
서대문구,서울특별시 서대문구 세검정로1길 95,사립,경복유치원,6,140,23.3,126.9444531,37.5951885,홍은1동
서대문구,서울특별시 서대문구 홍은중앙로 13,공립,서울홍제초등학교병설유치원,6,92,15.3,126.9444265,37.5930621,홍은1동
서대문구,서울특별시 서대문구 연희로10길 17-6,사립,벧엘유치원,6,90,15,126.9323257,37.5661561,연희동
마포구,서울특별시 마포구 토정로31길 57-11,사립,아이들이야기유치원,3,66,22,126.943881,37.5436286,용강동
마포구,서울특별시 마포구 독막로 266,사립,태영유치원,4,120,30,126.9425574,37.5446727,용강동
마포구,서울특별시 마포구 백범로17길 9,공립,서울용강초등학교병설유치원,,,,126.9437628,37.5487286,대흥동
마포구,서울특별시 마포구 백범로1길 56,공립,서울창천초등학교병설유치원,3,37,12.3,126.9390619,37.5549751,대흥동
마포구,서울특별시 마포구 독막로28길 19,사립,성결유치원,3,47,15.7,126.937339,37.5463636,신수동
마포구,서울특별시 마포구 잔다리로6길 11,사립,배영유치원,4,83,20.8,126.9198404,37.5525144,서교동
마포구,서울특별시 마포구 월드컵북로5길 53,사립,새싹유치원,4,97,24.2,126.9160368,37.556089,서교동
양천구,서울특별시 양천구 곰달래로9길 12,사립,사슴유치원,4,76,19,126.8358555,37.5308985,신월1동
마포구,서울특별시 마포구 양화로3길 94,공립,서울성산초등학교병설유치원,4,49,12.2,126.9114533,37.5532107,합정동
마포구,서울특별시 마포구 새터산16길 14,사립,서일유치원,6,117,19.5,126.9081981,37.5674584,성산2동
마포구,서울특별시 마포구 새터산2길 34,사립,성산아트유치원,6,113,18.8,126.9090582,37.5653557,성산2동
마포구,서울특별시 마포구 월드컵북로 233-1,사립,서울유치원,3,69,23,126.9032866,37.5694307,성산2동
마포구,서울특별시 마포구 월드컵북로 152,공립,서울중동초등학교병설유치원,3,38,12.7,126.911613,37.566867,성산2동
마포구,서울특별시 마포구 도화2길 64,공립,서울마포초등학교병설유치원,4,71,17.8,126.94965,37.5387717,도화동
마포구,서울특별시 마포구 새창로 52,사립,새현대유치원,,,,126.9544793,37.5399067,도화동
마포구,서울특별시 마포구 도화4길 62,사립,삼성그린유치원,6,150,25,126.9515777,37.5394854,도화동
양천구,서울특별시 양천구 목동로8길 19,공립,서울서정초등학교병설유치원,3,59,19.7,126.8670585,37.5242192,목1동
양천구,서울특별시 양천구 목동로 212,사립,빛나유치원,6,106,17.7,126.8672568,37.5279188,목1동
양천구,서울특별시 양천구 목동중앙북로16길 57,공립,서울양화초등학교병설유치원,3,42,14,126.8750821,37.5439197,목2동
양천구,서울특별시 양천구 목동중앙북로24길 19-8,사립,레인보우유치원,4,81,20.2,126.8781032,37.5455286,목2동
양천구,서울특별시 양천구 목동중앙북로10길 7-10,사립,신목유치원,3,45,15,126.8702106,37.5463752,목2동
양천구,서울특별시 양천구 목동중앙북로7길 22,사립,동연유치원,3,59,19.7,126.8677141,37.5488696,목3동
양천구,서울특별시 양천구 목동중앙북로8길 46,사립,등촌유치원,3,43,14.3,126.8649442,37.5465795,목3동
양천구,서울특별시 양천구 오목로13길 31,사립,대한유치원,3,35,11.7,126.8451369,37.5255088,신월2동
양천구,서울특별시 양천구 남부순환로58길 32,공립,서울신원초등학교병설유치원,3,25,8.3,126.8298797,37.5294918,신월3동
양천구,서울특별시 양천구 남부순환로30길 17,사립,광영유치원,3,41,13.7,126.8249549,37.5377947,신월3동
양천구,서울특별시 양천구 월정로46길 9,사립,세진유치원,3,58,19.3,126.8327517,37.5408985,신월5동
양천구,서울특별시 양천구 월정로 280,공립,서울강신초등학교병설유치원,5,51,10.2,126.8292741,37.543019,신월5동
양천구,서울특별시 양천구 신월로10길 2-1,사립,솔밭유치원,,,,126.8401235,37.5169022,신월6동
관악구,서울특별시 관악구 양녕로6나길 1,공립,서울신봉초등학교병설유치원,3,29,9.7,126.9491806,37.4854265,중앙동
양천구,서울특별시 양천구 신월로 97,공립,서울강월초등학교병설유치원,,,,126.8339484,37.5164142,신월7동
양천구,서울특별시 양천구 신월로 99,사립,샘터유치원,4,110,27.5,126.83276,37.5183267,신월7동
양천구,서울특별시 양천구 목동동로12길 60,사립,등대유치원,6,144,24,126.8776185,37.5209386,신정2동
양천구,서울특별시 양천구 목동동로 130,사립,세화유치원,6,136,22.7,126.8732758,37.5147094,신정6동
양천구,서울특별시 양천구 목동서로 280,사립,꿈나무유치원,7,180,25.7,126.8683043,37.5216388,신정6동
양천구,서울특별시 양천구 목동동로 50,사립,목성유치원,6,160,26.7,126.8613626,37.5132243,신정7동
양천구,서울특별시 양천구 목동남로4길 6-46,사립,어린이의정원유치원,9,209,23.2,126.8652338,37.5065083,신정7동
양천구,서울특별시 양천구 목동로3길 57,사립,경성유치원,6,116,19.3,126.8631234,37.509736,신정7동
양천구,서울특별시 양천구 안양천로 1009,공립,서울경인유치원,5,67,13.4,126.8864688,37.5330714,목5동
양천구,서울특별시 양천구 목동서로 130,사립,솔샘유치원,5,86,17.2,126.8710622,37.5320244,목5동
양천구,서울특별시 양천구 목동중앙로 132,공립,서울월촌초등학교병설유치원,5,69,13.8,126.8765443,37.5403792,목5동
양천구,서울특별시 양천구 목동동로 350,사립,원일유치원,5,88,17.6,126.8805152,37.533961,목5동
양천구,서울특별시 양천구 목동중앙로 70,공립,서울영도초등학교병설유치원,5,55,11,126.8720125,37.5359583,목5동
양천구,서울특별시 양천구 목동서로 38,사립,수영유치원,6,75,12.5,126.880561,37.5392044,목5동
양천구,서울특별시 양천구 목동서로 100,사립,아란유치원,5,112,22.4,126.873591,37.5340616,목5동
양천구,서울특별시 양천구 목동동로 430,사립,한서유치원,6,116,19.3,126.8850851,37.5350632,목5동
양천구,서울특별시 양천구 목동서로2길 22,사립,해림유치원,,,,126.881582,37.5416219,목5동
강서구,서울특별시 강서구 양천로69길 49,공립,서울염경초등학교병설유치원,3,62,20.7,126.8713194,37.5550704,염창동
강서구,서울특별시 강서구 공항대로58가길 39,사립,미도유치원,4,87,21.8,126.8609792,37.5504678,등촌2동
강서구,서울특별시 강서구 등촌로39길 71,공립,서울등촌초등학교병설유치원,3,40,13.3,126.8578127,37.5476372,등촌2동
강서구,서울특별시 강서구 까치산로 60,사립,화곡유치원,,,,126.8467134,37.543746,화곡본동
강서구,서울특별시 강서구 까치산로2길 43,사립,선미유치원,5,87,17.4,126.843643,37.5393237,화곡본동
강서구,서울특별시 강서구 까치산로4길 101-5,사립,예은유치원,,,,126.8472543,37.5389332,화곡본동
강서구,서울특별시 강서구 까치산로10길 70,공립,서울화일초등학교병설유치원,3,48,16,126.84768,37.5405019,화곡본동
강서구,서울특별시 강서구 곰달래로47길 88,사립,우일유치원,6,91,15.2,126.8553801,37.535142,화곡2동
강서구,서울특별시 강서구 곰달래로33가길 6,사립,이솔유치원,3,60,20,126.852213,37.5312639,화곡2동
강서구,서울특별시 강서구 화곡로13길 107,사립,윤서유치원,7,148,21.1,126.8312982,37.5447188,화곡3동
강서구,서울특별시 강서구 곰달래로57길 39,사립,대유유치원,4,74,18.5,126.8616057,37.5340057,화곡4동
강서구,서울특별시 강서구 곰달래로49길 10,사립,새싹유치원,,,,126.8580362,37.5322059,화곡4동
강서구,서울특별시 강서구 등촌로13바길 46,사립,나나유치원,4,66,16.5,126.8573165,37.5359043,화곡4동
강서구,서울특별시 강서구 등촌로13자길 42-14,공립,서울신곡초등학교병설유치원,4,25,6.2,126.8557448,37.538932,화곡4동
강서구,서울특별시 강서구 까치산로 116,사립,강서유치원,6,103,17.2,126.8500552,37.5482009,화곡6동
강서구,서울특별시 강서구 화곡로52길 14,사립,동그라미유치원,5,134,26.8,126.8491681,37.5501108,화곡6동
강서구,서울특별시 강서구 곰달래로25길 4,사립,신영유치원,6,109,18.2,126.849253,37.5309977,화곡8동
강서구,서울특별시 강서구 허준로 121,사립,진일유치원,,,,126.8540714,37.5664452,가양2동
강서구,서울특별시 강서구 허준로 139,사립,장미유치원,5,80,16,126.8557414,37.5652982,가양2동
강서구,서울특별시 강서구 허준로 109,공립,서울탑산초등학교병설유치원,3,41,13.7,126.8525445,37.5670452,가양2동
강서구,서울특별시 강서구 허준로 175,사립,유니유치원,6,142,23.7,126.8596338,37.5633207,가양3동
강서구,서울특별시 강서구 허준로 176,사립,대붕유치원,,,,126.8570219,37.5622715,가양3동
강서구,서울특별시 강서구 허준로 234,사립,해리유치원,6,148,24.7,126.8633698,37.5585681,가양3동
강서구,서울특별시 강서구 허준로 186,공립,서울가양초등학교병설유치원,3,38,12.7,126.8587584,37.5620871,가양3동
강서구,서울특별시 강서구 강서로17길 130,사립,수미유치원,,,,126.8385458,37.5321647,화곡1동
강서구,서울특별시 강서구 월정로 176,공립,서울월정초등학교병설유치원,4,71,17.8,126.8363007,37.5348553,화곡1동
강서구,서울특별시 강서구 강서로31길 48,공립,서울신월초등학교병설유치원,3,27,9,126.8392687,37.5405164,화곡1동
강서구,서울특별시 강서구 우현로 8,사립,문성유치원,6,89,14.8,126.8445575,37.5472483,우장산동
강서구,서울특별시 강서구 강서로46길 23,공립,서울내발산초등학교병설유치원,3,58,19.3,126.8379293,37.5516265,우장산동
강서구,서울특별시 강서구 강서로 266,사립,아이파크예원유치원,6,148,24.7,126.8391347,37.5494019,우장산동
강서구,서울특별시 강서구 강서로 348,사립,우현유치원,3,43,14.3,126.8406995,37.556238,우장산동
강서구,서울특별시 강서구 강서로 216-23,사립,윤희유치원,,,,126.8376047,37.5456947,우장산동
구로구,서울특별시 구로구 새말로 73,공립,서울미래초등학교병설유치원,3,56,18.7,126.888007,37.5051919,구로5동
구로구,서울특별시 구로구 개봉로18길 37,사립,미림유치원,,,,126.8579827,37.4908796,개봉2동
구로구,서울특별시 구로구 개봉로20길 6,사립,목원유치원,8,169,21.1,126.8583212,37.4924268,개봉2동
구로구,서울특별시 구로구 개봉로18길 11,사립,개봉샛별유치원,3,40,13.3,126.8567256,37.4917728,개봉2동
구로구,서울특별시 구로구 개봉로16길 30-11,공립,서울개봉초등학교병설유치원,4,56,14,126.8583074,37.4897272,개봉3동
구로구,서울특별시 구로구 고척로 30,사립,나비유치원,4,50,12.5,126.8397485,37.4972981,오류1동
구로구,서울특별시 구로구 경인로19길 8,사립,준희유치원,,,,126.8428461,37.4960664,오류1동
구로구,서울특별시 구로구 고척로 62-11,사립,혜원유치원,7,169,24.1,126.8422634,37.4993981,오류1동
구로구,서울특별시 구로구 고척로 49,사립,동부유치원,3,45,15,126.8398195,37.4993752,오류1동
구로구,서울특별시 구로구 부일로1길 125,사립,예쁨유치원,,,,126.8174468,37.495262,수궁동
구로구,서울특별시 구로구 구로동로17길 37-4,사립,서울남유치원,5,88,17.6,126.8817799,37.4880594,구로2동
구로구,서울특별시 구로구 고척로25길 62,사립,서울아람유치원,3,51,17,126.8460802,37.5044661,개봉1동
구로구,서울특별시 구로구 경인로 382,사립,정훈유치원,5,133,26.6,126.8623129,37.4953247,개봉1동
구로구,서울특별시 구로구 고척로21길 55,공립,서울매봉초등학교병설유치원,3,44,14.7,126.8444918,37.5044872,개봉1동
구로구,서울특별시 구로구 천왕로1길 11,공립,서울천왕초등학교병설유치원,3,40,13.3,126.837138,37.4816411,오류2동
구로구,서울특별시 구로구 오리로 1102-19,공립,서울하늘숲유치원,7,108,15.4,126.8430422,37.4850447,오류2동
구로구,서울특별시 구로구 경인로2길 11,사립,동정성모유치원,7,146,20.9,126.8285386,37.4904611,오류2동
구로구,서울특별시 구로구 서해안로 2201,사립,푸른동산유치원,10,215,21.5,126.8314212,37.4867426,오류2동
구로구,서울특별시 구로구 오류로8길 22,사립,일신유치원,3,43,14.3,126.8420363,37.4912149,오류2동
구로구,서울특별시 구로구 오류로8길 40,사립,버들유치원,,,,126.8428153,37.4916952,오류2동
구로구,서울특별시 구로구 서해안로24길 22,공립,서울오류남초등학교병설유치원,,,,126.8385122,37.4896598,오류2동
구로구,서울특별시 구로구 연동로8길 15,공립,서울항동유치원,9,167,18.6,126.82496,37.4770431,항동
금천구,서울특별시 금천구 시흥대로104길 31,공립,서울독산초등학교병설유치원,3,40,13.3,126.9004443,37.4655892,독산2동
금천구,서울특별시 금천구 독산로54길 102,공립,서울문교초등학교병설유치원,3,27,9,126.908881,37.4665726,독산2동
금천구,서울특별시 금천구 독산로108길 37,사립,양지유치원,,,,126.9059923,37.4796866,독산3동
금천구,서울특별시 금천구 시흥대로152길 35,사립,동산유치원,5,116,23.2,126.9009763,37.4769107,독산3동
금천구,서울특별시 금천구 독산로78다길 89,공립,서울정심초등학교병설유치원,3,34,11.3,126.9084184,37.4716719,독산4동
금천구,서울특별시 금천구 탑골로 47-3,공립,서울탑동유치원,6,77,12.8,126.9147558,37.4529246,시흥2동
금천구,서울특별시 금천구 금하로 793,사립,예림유치원,3,34,11.3,126.9190491,37.4506334,시흥2동
금천구,서울특별시 금천구 탑골로10길 45,사립,동일유치원,6,149,24.8,126.9175391,37.4515331,시흥2동
금천구,서울특별시 금천구 금하로 816,사립,운현유치원,6,105,17.5,126.919212,37.4487957,시흥2동
금천구,서울특별시 금천구 시흥대로38길 62,사립,서울국악유치원,6,133,22.2,126.9064759,37.4463705,시흥3동
영등포구,서울특별시 영등포구 여의나루로2길 14,공립,서울윤중초등학교병설유치원,3,43,14.3,126.9230156,37.5199238,여의동
영등포구,서울특별시 영등포구 국제금융로7길 3,사립,여의유치원,,,,126.9312147,37.5225819,여의동
영등포구,서울특별시 영등포구 여의동로 257,사립,여의도유치원,4,77,19.2,126.938983,37.5215815,여의동
영등포구,서울특별시 영등포구 63로 45,사립,성요셉유치원,3,72,24,126.9369717,37.5207318,여의동
영등포구,서울특별시 영등포구 국제금융로 118,사립,침례유치원,6,133,22.2,126.9342818,37.5176932,여의동
영등포구,서울특별시 영등포구 당산로28길 11,사립,은하유치원,3,87,29,126.8980373,37.5249309,당산1동
영등포구,서울특별시 영등포구 양산로17길 8,사립,무지개영재유치원,10,246,24.6,126.8937484,37.5251067,당산1동
영등포구,서울특별시 영등포구 신길로41라길 13-9,사립,명신유치원,5,108,21.6,126.908385,37.507638,신길3동
영등포구,서울특별시 영등포구 도신로 68-1,사립,우성유치원,3,51,17,126.9006387,37.5057411,신길3동
영등포구,서울특별시 영등포구 가마산로51길 9,사립,성락유치원,,,,126.9011736,37.5039719,신길3동
영등포구,서울특별시 영등포구 신길로40길 10,사립,동천유치원,3,58,19.3,126.9121349,37.5063565,신길4동
영등포구,서울특별시 영등포구 신길로38길 21,사립,신길에덴유치원,3,41,13.7,126.9134748,37.5056102,신길4동
영등포구,서울특별시 영등포구 신길로 190,공립,서울우신초등학교병설유치원,4,39,9.8,126.9118545,37.5098583,신길4동
영등포구,서울특별시 영등포구 신길로 93,사립,살레시오성미유치원,9,197,21.9,126.909155,37.5015178,신길5동
영등포구,서울특별시 영등포구 신길로 27,사립,평강유치원,5,117,23.4,126.9081829,37.4949382,대림1동
영등포구,서울특별시 영등포구 디지털로 455-7,사립,대림유치원,,,,126.9069677,37.4963248,대림1동
영등포구,서울특별시 영등포구 대림로21길 6,공립,서울대동초등학교병설유치원,3,39,13,126.9004869,37.4935889,대림2동
영등포구,서울특별시 영등포구 시흥대로173길 14,공립,서울영림초등학교병설유치원,3,37,12.3,126.902531,37.4872863,대림2동
동작구,서울특별시 동작구 사당로28길 34,사립,동그라미유치원,10,228,22.8,126.9793827,37.4816652,사당1동
서초구,서울특별시 서초구 고무래로 90-6,공립,서울원명초등학교병설유치원,3,59,19.7,127.0166443,37.5009024,서초4동
서초구,서울특별시 서초구 서초중앙로 200,사립,여나유치원,6,126,21,127.0160708,37.4991876,서초4동
서초구,서울특별시 서초구 서초중앙로24길 43,사립,동화유치원,3,71,23.7,127.0185813,37.4961359,서초4동
동작구,서울특별시 동작구 사당로 143,사립,총신대부속유치원,6,137,22.8,126.9669811,37.4892845,사당3동
동작구,서울특별시 동작구 사당로23길 57-14,공립,서울남성초등학교병설유치원,4,53,13.2,126.975624,37.4844213,사당3동
서초구,서울특별시 서초구 신반포로 270,사립,반포자이유치원,6,138,23,127.0144875,37.5077803,반포1동
동작구,서울특별시 동작구 사당로 146,공립,서울신남성초등학교병설유치원,3,28,9.3,126.9652047,37.4889471,사당5동
동작구,서울특별시 동작구 사당로2다길 95,사립,송림유치원,,,,126.9634819,37.4891152,사당5동
동작구,서울특별시 동작구 솔밭로 47,공립,서울행림초등학교병설유치원,,,,126.9644062,37.4831175,사당5동
동작구,서울특별시 동작구 신대방2길 14,공립,서울문창초등학교병설유치원,3,66,22,126.91375,37.4888596,신대방1동
동작구,서울특별시 동작구 시흥대로 644-1,사립,양문유치원,,,,126.9074241,37.4891896,신대방1동
동작구,서울특별시 동작구 여의대방로 22,사립,메이플유치원,6,92,15.3,126.9115326,37.4920816,신대방1동
동작구,서울특별시 동작구 여의대방로 28,사립,요요유치원,5,89,17.8,126.9117482,37.4947386,신대방1동
관악구,서울특별시 관악구 관악로40길 55,사립,현대유치원,6,145,24.2,126.959312,37.4922103,청림동
관악구,서울특별시 관악구 청림5길 22,사립,은비유치원,7,172,24.6,126.9601109,37.489093,청림동
관악구,서울특별시 관악구 청림5길 22,공립,서울청림유치원,6,65,10.8,126.9601109,37.489093,청림동
관악구,서울특별시 관악구 행운1길 96,사립,동원유치원,3,44,14.7,126.9566824,37.4829018,행운동
관악구,서울특별시 관악구 관악로30길 12,사립,큰솔유치원,7,164,23.4,126.9595888,37.485396,행운동
관악구,서울특별시 관악구 솔밭로 20,사립,종인유치원,,,,126.9632627,37.4792596,행운동
관악구,서울특별시 관악구 행운1라길 17,공립,서울봉천초등학교병설유치원,3,26,8.7,126.9582882,37.4830879,행운동
관악구,서울특별시 관악구 봉천로 505,공립,서울원당초등학교병설유치원,4,37,9.2,126.956501,37.4812297,행운동
관악구,서울특별시 관악구 낙성대역14길 6,사립,예일유치원,3,51,17,126.9642822,37.4739198,인헌동
관악구,서울특별시 관악구 남부순환로246길 25,사립,은아유치원,9,209,23.2,126.9644393,37.4754613,인헌동
관악구,서울특별시 관악구 남현2길 90,사립,새싹유치원,3,75,25,126.972882,37.474576,남현동
관악구,서울특별시 관악구 남현4길 51,공립,서울남현유치원,6,73,12.2,126.973712,37.4736311,남현동
관악구,서울특별시 관악구 신원로3길 59-9,사립,예닮유치원,3,25,8.3,126.9251083,37.4824149,신원동
관악구,서울특별시 관악구 문성로28길 31,공립,서울신림초등학교병설유치원,3,30,10,126.927463,37.476951,신원동
관악구,서울특별시 관악구 난곡로 42,사립,꿈나라유치원,7,154,22,126.920648,37.4605635,난향동
관악구,서울특별시 관악구 대학7길 52,공립,서울삼성초등학교병설유치원,6,60,10,126.941,37.46791,대학동
관악구,서울특별시 관악구 은천로 69,공립,서울은천초등학교병설유치원,4,53,13.2,126.9428029,37.4870225,은천동
관악구,서울특별시 관악구 봉천로33길 57,사립,나랑유치원,5,84,16.8,126.9439687,37.4857454,은천동
관악구,서울특별시 관악구 은천로 93,사립,해슬아유치원,6,116,19.3,126.945049,37.4895169,은천동
관악구,서울특별시 관악구 봉천로29길 47,사립,배꽃유치원,6,127,21.2,126.9419619,37.4856197,은천동
관악구,서울특별시 관악구 은천로 93,공립,서울구암유치원,6,78,13,126.945049,37.4895169,은천동
관악구,서울특별시 관악구 관악로37길 20,사립,서울유치원,,,,126.9564899,37.4880735,성현동
관악구,서울특별시 관악구 성현로 80,사립,새소슬유치원,5,114,22.8,126.9504559,37.490366,성현동
관악구,서울특별시 관악구 구암길 46,사립,소슬유치원,,,,126.9484325,37.4897721,성현동
관악구,서울특별시 관악구 청룡4길 49,공립,서울관악초등학교병설유치원,3,43,14.3,126.942925,37.480668,청룡동
관악구,서울특별시 관악구 관악로5길 61,공립,서울청룡초등학교병설유치원,,,,126.9511891,37.4757971,청룡동
관악구,서울특별시 관악구 난곡로32길 12,사립,신림유치원,4,62,15.5,126.9201621,37.4721391,난곡동
관악구,서울특별시 관악구 법원단지길 56,사립,애동유치원,6,81,13.5,126.9202978,37.4738221,난곡동
관악구,서울특별시 관악구 난곡로35길 102,공립,서울난곡초등학교병설유치원,4,36,9,126.9166927,37.4692723,난곡동
서초구,서울특별시 서초구 서초대로64길 73,사립,석문유치원,4,93,23.2,127.0217504,37.4929017,서초1동
서초구,서울특별시 서초구 명달로22길 24,사립,동우유치원,,,,127.0054023,37.4864303,서초3동
서초구,서울특별시 서초구 잠원로8길 13,사립,하나유치원,7,174,24.9,127.0102779,37.5152156,잠원동
서초구,서울특별시 서초구 나루터로4길 58,사립,신반포중앙유치원,5,82,16.4,127.0114996,37.510429,잠원동
서초구,서울특별시 서초구 신반포로19길 30,사립,영생유치원,3,56,18.7,126.9956714,37.5050031,반포2동
서초구,서울특별시 서초구 신반포로15길 18,사립,반포성모유치원,3,60,20,126.9946445,37.5049582,반포2동
서초구,서울특별시 서초구 잠원로3길 31,사립,한신유치원,6,139,23.2,127.0047611,37.5090726,반포3동
서초구,서울특별시 서초구 방배로 260,공립,서울서래초등학교병설유치원,4,63,15.8,126.9892544,37.4963099,방배본동
서초구,서울특별시 서초구 효령로34길 72,사립,영유유치원,5,62,12.4,127.0007675,37.4786432,방배3동
서초구,서울특별시 서초구 방배로6길 18,사립,육영유치원,,,,127.000513,37.4792051,방배3동
서초구,서울특별시 서초구 효령로 110,사립,새성민유치원,3,53,17.7,126.9961205,37.4806904,방배3동
서초구,서울특별시 서초구 서초대로15길 57,사립,새순유치원,4,52,13,126.9885942,37.489064,방배4동
서초구,서울특별시 서초구 방배중앙로13길 26,공립,서울방배초등학교병설유치원,3,57,19,126.9878102,37.4872211,방배4동
강남구,서울특별시 강남구 압구정로18길 28,공립,서울신구유치원,5,58,11.6,127.024075,37.5234333,신사동
강남구,서울특별시 강남구 삼성로120길 28,사립,영동제일유치원,6,128,21.3,127.0534454,37.5175469,삼성1동
강남구,서울특별시 강남구 강남대로66길 21,공립,서울역삼초등학교병설유치원,,,,127.0326027,37.4931734,역삼1동
강남구,서울특별시 강남구 언주로65길 5,사립,청운교회부설유치원,5,86,17.2,127.04556,37.495059,역삼2동
강남구,서울특별시 강남구 남부순환로363길 19,공립,서울언주초등학교병설유치원,3,59,19.7,127.0367863,37.486806,도곡1동
강남구,서울특별시 강남구 논현로 213,사립,럭키유치원,5,128,25.6,127.0401956,37.4905699,도곡1동
송파구,서울특별시 송파구 한가람로 446,사립,한가람유치원,,,,127.1156991,37.5364664,풍납1동
강남구,서울특별시 강남구 선릉로 221,사립,도곡렉슬유치원,,,,127.0509144,37.4938546,도곡2동
강남구,서울특별시 강남구 언주로 123,사립,남부유치원,,,,127.0488528,37.4869601,도곡2동
송파구,서울특별시 송파구 토성로 38-6,사립,우일유치원,11,282,25.6,127.1140763,37.5294377,풍납2동
송파구,서울특별시 송파구 올림픽로 525,사립,리틀바움유치원,,,,127.118722,37.5295028,풍납2동
송파구,서울특별시 송파구 강동대로3길 23,사립,동화나라유치원,8,189,23.6,127.1154446,37.5288214,풍납2동
강남구,서울특별시 강남구 선릉로 29,공립,서울개원초등학교병설유치원,3,17,5.7,127.0594501,37.481699,개포1동
송파구,서울특별시 송파구 위례성대로 28,사립,수정유치원,4,84,21,127.1153247,37.51598,방이2동
강남구,서울특별시 강남구 논현로14길 17,사립,초원유치원,4,65,16.2,127.0486125,37.4759858,개포4동
강남구,서울특별시 강남구 개포로22길 87,공립,서울포이초등학교병설유치원,3,32,10.7,127.0527917,37.4760322,개포4동
강남구,서울특별시 강남구 일원로14길 25,사립,푸른유치원,5,146,29.2,127.0813262,37.4846837,일원본동
강남구,서울특별시 강남구 일원로 120,사립,신우주유치원,,,,127.0827122,37.4849981,일원본동
강남구,서울특별시 강남구 광평로19길 15,사립,리라유치원,4,51,12.8,127.0858714,37.4852747,일원본동
강남구,서울특별시 강남구 양재대로55길 12,사립,하늘빛유치원,3,52,17.3,127.0897076,37.4936296,일원1동
강남구,서울특별시 강남구 일원로 21,공립,서울영희초등학교병설유치원,4,74,18.5,127.0809885,37.4922305,일원1동
송파구,서울특별시 송파구 오금로24길 25,공립,서울솔방울유치원,6,102,17,127.1174082,37.5048718,송파2동
송파구,서울특별시 송파구 오금로32길 13,사립,예은유치원,6,115,19.2,127.1204246,37.5047466,송파2동
송파구,서울특별시 송파구 송파대로36길 32-6,사립,티움유치원,4,51,12.8,127.1152755,37.501109,송파2동
송파구,서울특별시 송파구 오금로24길 25,사립,시연유치원,6,149,24.8,127.1174082,37.5048718,송파2동
강남구,서울특별시 강남구 개포로110길 15,사립,신아유치원,4,120,30,127.0775192,37.4920292,개포3동
강남구,서울특별시 강남구 개포로109길 5,사립,이화유치원,3,36,12,127.0738151,37.493122,개포3동
강남구,서울특별시 강남구 광평로51길 46,공립,서울수서초등학교병설유치원,3,19,6.3,127.1012554,37.4912047,수서동
강남구,서울특별시 강남구 광평로47길 17,사립,반디유치원,4,86,21.5,127.098367,37.4877905,수서동
강남구,서울특별시 강남구 광평로56길 11,사립,소망유치원,,,,127.1051644,37.4875007,수서동
강남구,서울특별시 강남구 광평로34길 17,사립,강남유정유치원,18,429,23.8,127.0949426,37.4830084,수서동
강남구,서울특별시 강남구 압구정로 201,사립,아란유치원,5,80,16,127.0290409,37.5301797,압구정동
송파구,서울특별시 송파구 백제고분로40길 20,사립,석촌유치원,10,240,24,127.1067051,37.5028787,석촌동
송파구,서울특별시 송파구 송파대로49길 23,사립,불광유치원,5,110,22,127.1021388,37.5069173,석촌동
강남구,서울특별시 강남구 학동로67길 15,사립,청담몬테소리유치원,6,109,18.2,127.0465682,37.5193623,청담동
강남구,서울특별시 강남구 압구정로77길 28,사립,성요셉유치원,6,105,17.5,127.0482487,37.5268123,청담동
강남구,서울특별시 강남구 압구정로71길 9,공립,서울청담초등학교병설유치원,3,22,7.3,127.0452305,37.5282461,청담동
송파구,서울특별시 송파구 백제고분로32길 15,사립,상아유치원,4,108,27,127.0952255,37.5009395,삼전동
송파구,서울특별시 송파구 삼학사로19길 20,사립,홍익가족유치원,5,131,26.2,127.0949788,37.5061776,삼전동
강남구,서울특별시 강남구 역삼로98길 16,공립,서울대현초등학교병설유치원,,,,127.0636774,37.5038952,대치2동
송파구,서울특별시 송파구 중대로9길 53-27,사립,샛별유치원,3,61,20.3,127.1187771,37.4986262,가락본동
송파구,서울특별시 송파구 송파대로26길 22,공립,서울평화초등학교병설유치원,3,33,11,127.1226859,37.49167,가락본동
강남구,서울특별시 강남구 선릉로10길 18-6,사립,신양유치원,4,67,16.8,127.0618031,37.4836439,개포2동
강남구,서울특별시 강남구 개포로 516,사립,돌샘유치원,6,134,22.3,127.0704418,37.4886321,개포2동
강남구,서울특별시 강남구 삼성로4길 20,공립,서울개포유치원,9,123,13.7,127.0692974,37.4862734,개포2동
송파구,서울특별시 송파구 오금로57길 15,공립,서울영풍초등학교병설유치원,3,38,12.7,127.1431774,37.4962098,거여1동
송파구,서울특별시 송파구 양산로8길 8,사립,꿀벌유치원,4,86,21.5,127.1446607,37.4912865,거여2동
송파구,서울특별시 송파구 양산로2길 38,사립,아주유치원,4,100,25,127.146658,37.4888024,거여2동
송파구,서울특별시 송파구 양산로2길 26,공립,서울거원초등학교병설유치원,3,43,14.3,127.1447948,37.4876378,거여2동
송파구,서울특별시 송파구 문정로 83,사립,삼성유치원,6,156,26,127.1306635,37.4905809,문정1동
송파구,서울특별시 송파구 성내천로47길 38-1,사립,위례우일유치원,11,264,24,127.157777,37.4965534,마천1동
송파구,서울특별시 송파구 마천로41길 14,사립,동삼유치원,,,,127.1490732,37.497007,마천2동
송파구,서울특별시 송파구 성내천로 207,공립,서울남천초등학교병설유치원,,,,127.1504357,37.5010354,마천2동
송파구,서울특별시 송파구 마천로 30,사립,예원유치원,,,,127.1240656,37.5092191,방이1동
송파구,서울특별시 송파구 위례성대로10길 4,공립,서울방이초등학교병설유치원,4,50,12.5,127.1204937,37.5134365,방이1동
송파구,서울특별시 송파구 중대로27길 2,사립,새움유치원,5,89,17.8,127.1285905,37.5035255,오금동
송파구,서울특별시 송파구 동남로23나길 6,사립,그림유치원,8,171,21.4,127.1330187,37.5023692,오금동
송파구,서울특별시 송파구 마천로25길 18,공립,서울거여초등학교병설유치원,5,71,14.2,127.1409303,37.5048499,오금동
송파구,서울특별시 송파구 오금로35길 17,사립,의명유치원,6,149,24.8,127.126125,37.505926,오금동
송파구,서울특별시 송파구 백제고분로41길 20,사립,기린유치원,,,,127.1075986,37.507776,송파1동
송파구,서울특별시 송파구 백제고분로46길 41,사립,푸른꿈유치원,,,,127.1154384,37.5069815,송파1동
송파구,서울특별시 송파구 백제고분로 400,공립,서울송파초등학교병설유치원,3,32,10.7,127.1112341,37.5072895,송파1동
송파구,서울특별시 송파구 송파대로37길 45,공립,서울가락초등학교병설유치원,5,58,11.6,127.1076723,37.5001905,가락1동
송파구,서울특별시 송파구 동남로16길 3,사립,제일무궁화유치원,8,198,24.8,127.1310075,37.494743,가락2동
송파구,서울특별시 송파구 문정로13길 13,사립,혜림유치원,5,103,20.6,127.1352516,37.4943316,가락2동
송파구,서울특별시 송파구 오금로46길 62,사립,밀알유치원,3,37,12.3,127.131625,37.4930377,가락2동
송파구,서울특별시 송파구 동남로11길 27,사립,은선유치원,6,154,25.7,127.1263653,37.4921686,가락2동
송파구,서울특별시 송파구 올림픽로 215,공립,서울신천초등학교병설유치원,4,62,15.5,127.0952269,37.5140355,잠실3동
송파구,서울특별시 송파구 석촌호수로 159,공립,서울송전초등학교병설유치원,3,38,12.7,127.0949135,37.5086351,잠실3동
송파구,서울특별시 송파구 석촌호수로 103,사립,잠실밀알유치원,5,106,21.2,127.089279,37.5093658,잠실3동
강동구,서울특별시 강동구 성내로3가길 61,사립,준현유치원,6,140,23.3,127.1266703,37.5304963,성내1동
강동구,서울특별시 강동구 고덕로46길 53,공립,서울고명초등학교병설유치원,3,40,13.3,127.1468429,37.5530316,명일1동
강동구,서울특별시 강동구 상암로63길 39-10,사립,녹원유치원,,,,127.1535851,37.5485217,명일2동
강동구,서울특별시 강동구 고덕로 240,사립,근화유치원,,,,127.1518345,37.5541964,명일2동
강동구,서울특별시 강동구 고덕로62길 58,사립,은새유치원,4,76,19,127.1526325,37.5523702,명일2동
강동구,서울특별시 강동구 상암로63길 39,사립,가람유치원,,,,127.1537944,37.5482603,명일2동
강동구,서울특별시 강동구 동남로83길 66,사립,명덕유치원,7,131,18.7,127.1531977,37.5598838,고덕1동
강동구,서울특별시 강동구 양재대로 1706,사립,고덕한울유치원,,,,127.1458922,37.5578839,고덕1동
강동구,서울특별시 강동구 고덕로83길 68,사립,성보나유치원,3,64,21.3,127.1695094,37.5603559,고덕2동
강동구,서울특별시 강동구 동남로82길 94-54,공립,서울강덕초등학교병설유치원,4,66,16.5,127.1607664,37.5592893,고덕2동
강동구,서울특별시 강동구 상암로 11,사립,예슬유치원,8,156,19.5,127.1258756,37.552544,암사2동
강동구,서울특별시 강동구 고덕로 131,사립,돌샘유치원,8,225,28.1,127.1408189,37.556496,암사3동
강동구,서울특별시 강동구 구천면로 310-11,공립,서울천호초등학교병설유치원,3,38,12.7,127.1365218,37.547332,천호1동
강동구,서울특별시 강동구 천중로35길 37-1,사립,화랑유치원,,,,127.137785,37.5429327,천호3동
강동구,서울특별시 강동구 구천면로 236-1,사립,천호유치원,10,192,19.2,127.1312583,37.5414762,천호3동
강동구,서울특별시 강동구 성안로 64,사립,송원유치원,5,110,22,127.1315624,37.5292249,성내3동
강동구,서울특별시 강동구 강동대로55길 83,사립,유정유치원,14,390,27.9,127.1337962,37.5259493,성내3동
강동구,서울특별시 강동구 풍성로63길 73,사립,둔촌유치원,3,63,21,127.1397123,37.531383,둔촌2동
강동구,서울특별시 강동구 진황도로61길 29,공립,서울선린초등학교병설유치원,5,52,10.4,127.1458312,37.5296015,둔촌2동
강동구,서울특별시 강동구 암사19길 53,공립,서울명일유치원,6,89,14.8,127.1419387,37.5533984,암사1동
강동구,서울특별시 강동구 구천면로39길 26,사립,오송유치원,7,113,16.1,127.1319324,37.5458641,천호2동
강동구,서울특별시 강동구 천중로 64,사립,구강사금강유치원,6,140,23.3,127.1288453,37.5448614,천호2동
강동구,서울특별시 강동구 양재대로124길 89-18,사립,반석유치원,4,81,20.2,127.1473597,37.5428297,길동
강동구,서울특별시 강동구 양재대로116길 69,공립,서울길동초등학교병설유치원,4,58,14.5,127.1447875,37.5385167,길동
강동구,서울특별시 강동구 명일로24길 33,공립,서울신명초등학교병설유치원,,,,127.149968,37.5409667,길동
강동구,서울특별시 강동구 천호대로187길 73-10,사립,예크유치원,7,114,16.3,127.1427324,37.537855,길동
강동구,서울특별시 강동구 명일로 251,사립,한성유치원,6,110,18.3,127.1473314,37.5409927,길동
강동구,서울특별시 강동구 천호대로187길 53-18,사립,그리새유치원,,,,127.1419898,37.5371043,길동
강동구,서울특별시 강동구 아리수로98길 62,사립,강일늘사랑유치원,9,219,24.3,127.1783369,37.5631491,강일동
강동구,서울특별시 강동구 고덕로97길 80,공립,서울강솔유치원,8,112,14,127.180478,37.5622516,강일동
강동구,서울특별시 강동구 아리수로93다길 1,공립,서울강빛초등학교병설유치원,11,135,12.3,127.1707749,37.5743433,강일동
강동구,서울특별시 강동구 고덕로97길 80,공립,서울강솔초등학교병설유치원,6,117,19.5,127.180478,37.5622516,강일동
강동구,서울특별시 강동구 동남로 832,사립,한영중고등학교병설한영유치원,8,162,20.2,127.1574458,37.548244,상일1동
강동구,서울특별시 강동구 구천면로 645,사립,고덕유치원,4,98,24.5,127.1693469,37.5510465,상일1동
강동구,서울특별시 강동구 상일로11길 110,공립,서울고현초등학교병설유치원,3,54,18,127.1658157,37.5542616,상일1동
강동구,서울특별시 강동구 구천면로 650,사립,선아유치원,3,69,23,127.1698129,37.5503183,상일1동
강동구,서울특별시 강동구 구천면로93길 20,공립,서울고일초등학교병설유치원,3,50,16.7,127.1688621,37.5525889,상일1동
강동구,서울특별시 강동구 상일로10길 41,사립,강동유정유치원,17,409,24.1,127.1749945,37.5505652,상일2동
종로구,서울특별시 종로구 북촌로4길 7,공립,서울재동초등학교병설유치원,3,38,12.7,126.985708,37.579929,가회동
종로구,서울특별시 종로구 삼일대로 460,사립,운현유치원,,,,126.9883099,37.5761613,종로1·2·3·4가동
강북구,서울특별시 강북구 인수봉로 260,사립,길물빛유치원,,,,127.0111154,37.6419697,인수동
강북구,서울특별시 강북구 덕릉로 45,사립,화계유치원,3,36,12,127.0188788,37.6346529,인수동
강북구,서울특별시 강북구 삼양로99길 36,공립,서울우이유치원,6,85,14.2,127.01515,37.6388654,인수동
